$GPGGA,093740.20,4444.5456,N,03955.5363,E,1,14,0.8,00139.7,M,0017.2,M,,*69
$GLGSA,A,3,065,071,072,085,087,088,,,,,,,1.3,0.8,1.0*27
$GPGSA,A,3,008,010,021,022,023,027,032,,,,,,1.3,0.8,1.0*06
$GAGSA,A,3,126,,,,,,,,,,,,1.3,0.8,1.0*1D
$GPRMC,093740.20,A,4444.5456,N,03955.5363,E,000.00000,171.1,110822,,,A*50
$GPGGA,093740.40,4444.5456,N,03955.5363,E,1,14,0.8,00139.7,M,0017.2,M,,*6F
$GLGSA,A,3,065,071,072,085,087,088,,,,,,,1.3,0.8,1.0*27
$GPGSA,A,3,008,010,021,022,023,027,032,,,,,,1.3,0.8,1.0*06
$GAGSA,A,3,126,,,,,,,,,,,,1.3,0.8,1.0*1D
$GPRMC,093740.40,A,4444.5456,N,03955.5363,E,000.00000,171.9,110822,,,A*5E
$GPGGA,093740.60,4444.5456,N,03955.5363,E,1,14,0.8,00139.7,M,0017.2,M,,*6D
$GLGSA,A,3,065,071,072,085,087,088,,,,,,,1.3,0.8,1.0*27
$GPGSA,A,3,008,010,021,022,023,027,032,,,,,,1.3,0.8,1.0*06
$GAGSA,A,3,126,,,,,,,,,,,,1.3,0.8,1.0*1D
$GPRMC,093740.60,A,4444.5456,N,03955.5363,E,000.00000,171.7,110822,,,A*52
$GPGGA,093740.80,4444.5456,N,03955.5363,E,1,14,0.8,00139.7,M,0017.2,M,,*63
$GLGSA,A,3,065,071,072,085,087,088,,,,,,,1.3,0.8,1.0*27
$GPGSA,A,3,008,010,021,022,023,027,032,,,,,,1.3,0.8,1.0*06
$GAGSA,A,3,126,,,,,,,,,,,,1.3,0.8,1.0*1D
$GPRMC,093740.80,A,4444.5456,N,03955.5363,E,000.00000,170.6,110822,,,A*5C
$GPGGA,093741.00,4444.5456,N,03955.5363,E,1,14,0.8,00139.7,M,0017.2,M,,*6A
$GLGSA,A,3,065,071,072,085,087,088,,,,,,,1.3,0.8,1.0*27
$GPGSA,A,3,008,010,021,022,023,027,032,,,,,,1.3,0.8,1.0*06
$GAGSA,A,3,126,,,,,,,,,,,,1.3,0.8,1.0*1D
$GPGSV,8,1,30,001,05,295,,008,52,281,33,010,63,047,33,014,00,339,*76
$GPGSV,8,2,30,016,00,212,,018,06,109,19,021,33,301,30,022,33,171,31*7E
$GPGSV,8,3,30,023,31,059,33,024,10,057,,027,55,207,26,032,53,147,36*7F
$GPGSV,8,4,30,065,15,214,21,070,08,035,,071,58,039,41,072,66,206,35*7F
$GPGSV,8,5,30,078,01,308,09,079,04,355,11,085,07,134,22,087,58,330,41*79
$GPGSV,8,6,30,088,12,319,42,107,48,065,,108,05,035,,112,17,301,*7F
$GPGSV,8,7,30,113,03,116,,119,17,196,,124,09,305,,126,54,106,33*79
$GPGSV,8,8,30,131,07,260,,133,69,320,*75
$GPRMC,093741.00,A,4444.5456,N,03955.5363,E,000.00000,169.6,110822,,,A*5D
$GPZDA,093741.00,11,08,2022,+00,00*4F
$GPGGA,093741.20,4444.5456,N,03955.5363,E,1,14,0.8,00139.7,M,0017.2,M,,*68
$GLGSA,A,3,065,071,072,085,087,088,,,,,,,1.3,0.8,1.0*27
$GPGSA,A,3,008,010,021,022,023,027,032,,,,,,1.3,0.8,1.0*06
$GAGSA,A,3,126,,,,,,,,,,,,1.3,0.8,1.0*1D
$GPRMC,093741.20,A,4444.5456,N,03955.5363,E,000.00000,172.7,110822,,,A*54
$GPGGA,093741.40,4444.5456,N,03955.5363,E,1,14,0.8,00139.7,M,0017.2,M,,*6E
$GLGSA,A,3,065,071,072,085,087,088,,,,,,,1.3,0.8,1.0*27
$GPGSA,A,3,008,010,021,022,023,027,032,,,,,,1.3,0.8,1.0*06
$GAGSA,A,3,126,,,,,,,,,,,,1.3,0.8,1.0*1D
$GPRMC,093741.40,A,4444.5456,N,03955.5363,E,000.00000,171.2,110822,,,A*54
$GPGGA,093741.60,4444.5456,N,03955.5363,E,1,14,0.8,00139.7,M,0017.2,M,,*6C
$GLGSA,A,3,065,071,072,085,087,088,,,,,,,1.3,0.8,1.0*27
$GPGSA,A,3,008,010,021,022,023,027,032,,,,,,1.3,0.8,1.0*06
$GAGSA,A,3,126,,,,,,,,,,,,1.3,0.8,1.0*1D
$GPRMC,093741.60,A,4444.5456,N,03955.5363,E,000.00000,168.8,110822,,,A*54
$GPGGA,093741.80,4444.5456,N,03955.5363,E,1,13,0.8,00139.7,M,0017.2,M,,*65
$GLGSA,A,3,071,072,085,087,088,,,,,,,,1.4,0.8,1.1*12
$GPGSA,A,3,008,010,021,022,023,027,032,,,,,,1.4,0.8,1.1*00
$GAGSA,A,3,126,,,,,,,,,,,,1.4,0.8,1.1*1B
$GPRMC,093741.80,A,4444.5456,N,03955.5363,E,000.00000,166.8,110822,,,A*54
$GPGGA,093742.00,4444.5456,N,03955.5363,E,1,14,0.8,00139.7,M,0017.2,M,,*69
$GLGSA,A,3,065,071,072,085,087,088,,,,,,,1.3,0.8,1.0*27
$GPGSA,A,3,008,010,021,022,023,027,032,,,,,,1.3,0.8,1.0*06
$GAGSA,A,3,126,,,,,,,,,,,,1.3,0.8,1.0*1D
$GPGSV,8,1,30,001,05,295,,008,52,281,33,010,63,047,32,014,00,339,*77
$GPGSV,8,2,30,016,00,212,,018,06,109,18,021,33,301,30,022,33,171,31*7F
$GPGSV,8,3,30,023,31,059,34,024,10,057,,027,55,207,27,032,53,147,36*79
$GPGSV,8,4,30,065,15,214,20,070,08,035,,071,58,039,42,072,66,206,35*7D
$GPGSV,8,5,30,078,01,308,03,079,04,355,08,085,07,134,23,087,58,330,41*7A
$GPGSV,8,6,30,088,12,319,42,107,48,065,,108,05,035,,112,17,301,*7F
$GPGSV,8,7,30,113,03,116,,119,17,196,,124,09,305,,126,54,106,33*79
$GPGSV,8,8,30,131,07,260,,133,69,320,*75
$GPRMC,093742.00,A,4444.5456,N,03955.5363,E,000.00000,163.5,110822,,,A*57
$GPZDA,093742.00,11,08,2022,+00,00*4C
$GPGGA,093742.20,4444.5456,N,03955.5363,E,1,14,0.8,00139.7,M,0017.2,M,,*6B
$GLGSA,A,3,065,071,072,085,087,088,,,,,,,1.3,0.8,1.0*27
$GPGSA,A,3,008,010,021,022,023,027,032,,,,,,1.3,0.8,1.0*06
$GAGSA,A,3,126,,,,,,,,,,,,1.3,0.8,1.0*1D
$GPRMC,093742.20,A,4444.5456,N,03955.5363,E,000.00000,266.0,110822,,,A*56
$GPGGA,093742.40,4444.5456,N,03955.5363,E,1,14,0.8,00139.7,M,0017.2,M,,*6D
$GLGSA,A,3,065,071,072,085,087,088,,,,,,,1.3,0.8,1.0*27
$GPGSA,A,3,008,010,021,022,023,027,032,,,,,,1.3,0.8,1.0*06
$GAGSA,A,3,126,,,,,,,,,,,,1.3,0.8,1.0*1D
$GPRMC,093742.40,A,4444.5456,N,03955.5363,E,000.00000,281.9,110822,,,A*50
$GPGGA,093742.60,4444.5456,N,03955.5363,E,1,14,0.8,00139.7,M,0017.2,M,,*6F
$GLGSA,A,3,065,071,072,085,087,088,,,,,,,1.3,0.8,1.0*27
$GPGSA,A,3,008,010,021,022,023,027,032,,,,,,1.3,0.8,1.0*06
$GAGSA,A,3,126,,,,,,,,,,,,1.3,0.8,1.0*1D
$GPRMC,093742.60,A,4444.5456,N,03955.5363,E,000.00000,278.6,110822,,,A*5B
$GPGGA,093742.80,4444.5456,N,03955.5363,E,1,14,0.8,00139.7,M,0017.2,M,,*61
$GLGSA,A,3,065,071,072,085,087,088,,,,,,,1.3,0.8,1.0*27
$GPGSA,A,3,008,010,021,022,023,027,032,,,,,,1.3,0.8,1.0*06
$GAGSA,A,3,126,,,,,,,,,,,,1.3,0.8,1.0*1D
$GPRMC,093742.80,A,4444.5456,N,03955.5363,E,000.00000,275.7,110822,,,A*59
$GPGGA,093743.00,4444.5456,N,03955.5363,E,1,14,0.8,00139.7,M,0017.2,M,,*68
$GLGSA,A,3,065,071,072,085,087,088,,,,,,,1.3,0.8,1.0*27
$GPGSA,A,3,008,010,021,022,023,027,032,,,,,,1.3,0.8,1.0*06
$GAGSA,A,3,126,,,,,,,,,,,,1.3,0.8,1.0*1D
$GPGSV,8,1,29,008,52,281,33,010,63,047,31,014,00,339,,016,00,212,*70
$GPGSV,8,2,29,018,06,109,20,021,33,301,30,022,33,171,31,023,31,059,34*72
$GPGSV,8,3,29,024,10,056,,027,55,207,28,032,53,147,36,065,15,214,23*76
$GPGSV,8,4,29,070,08,035,,071,58,039,42,072,66,206,36,078,01,308,03*72
$GPGSV,8,5,29,079,04,355,06,085,07,134,23,087,58,330,41,088,12,319,42*74
$GPGSV,8,6,29,107,48,065,,108,05,035,,112,17,301,,113,03,116,*7F
$GPGSV,8,7,29,119,17,196,,124,09,305,,126,54,106,33,131,07,260,*77
$GPGSV,8,8,29,133,69,320,*7D
$GPRMC,093743.00,A,4444.5456,N,03955.5363,E,000.00000,260.0,110822,,,A*53
$GPZDA,093743.00,11,08,2022,+00,00*4D
$GPGGA,093743.20,4444.5456,N,03955.5363,E,1,14,0.8,00139.7,M,0017.2,M,,*6A
$GLGSA,A,3,065,071,072,085,087,088,,,,,,,1.3,0.8,1.0*27
$GPGSA,A,3,008,010,021,022,023,027,032,,,,,,1.3,0.8,1.0*06
$GAGSA,A,3,126,,,,,,,,,,,,1.3,0.8,1.0*1D
$GPRMC,093743.20,A,4444.5456,N,03955.5363,E,000.00000,253.2,110822,,,A*53
$GPGGA,093743.40,4444.5456,N,03955.5363,E,1,14,0.8,00139.7,M,0017.2,M,,*6C
$GLGSA,A,3,065,071,072,085,087,088,,,,,,,1.3,0.8,1.0*27
$GPGSA,A,3,008,010,021,022,023,027,032,,,,,,1.3,0.8,1.0*06
$GAGSA,A,3,126,,,,,,,,,,,,1.3,0.8,1.0*1D
$GPRMC,093743.40,A,4444.5456,N,03955.5363,E,000.00000,259.8,110822,,,A*55
$GPGGA,093743.60,4444.5456,N,03955.5363,E,1,14,0.8,00139.7,M,0017.2,M,,*6E
$GLGSA,A,3,065,071,072,085,087,088,,,,,,,1.3,0.8,1.0*27
$GPGSA,A,3,008,010,021,022,023,027,032,,,,,,1.3,0.8,1.0*06
$GAGSA,A,3,126,,,,,,,,,,,,1.3,0.8,1.0*1D
$GPRMC,093743.60,A,4444.5456,N,03955.5363,E,000.00000,257.9,110822,,,A*58
$GPGGA,093743.80,4444.5456,N,03955.5363,E,1,14,0.8,00139.7,M,0017.2,M,,*60
$GLGSA,A,3,065,071,072,085,087,088,,,,,,,1.3,0.8,1.0*27
$GPGSA,A,3,008,010,021,022,023,027,032,,,,,,1.3,0.8,1.0*06
$GAGSA,A,3,126,,,,,,,,,,,,1.3,0.8,1.0*1D
$GPRMC,093743.80,A,4444.5456,N,03955.5363,E,000.00000,227.3,110822,,,A*5B
$GPGGA,093744.00,4444.5456,N,03955.5363,E,1,14,0.8,00139.7,M,0017.2,M,,*6F
$GLGSA,A,3,065,071,072,085,087,088,,,,,,,1.3,0.8,1.0*27
$GPGSA,A,3,008,010,021,022,023,027,032,,,,,,1.3,0.8,1.0*06
$GAGSA,A,3,126,,,,,,,,,,,,1.3,0.8,1.0*1D
$GPGSV,8,1,30,001,06,295,15,008,52,281,33,010,63,047,30,014,00,339,*72
$GPGSV,8,2,30,016,00,212,,018,06,109,19,021,33,301,30,022,33,171,32*7D
$GPGSV,8,3,30,023,31,059,34,024,10,056,,027,55,207,27,032,53,147,36*78
$GPGSV,8,4,30,065,15,214,21,070,08,035,,071,58,039,42,072,66,206,36*7F
$GPGSV,8,5,30,078,01,308,02,079,04,355,09,085,07,134,23,087,58,330,41*7A
$GPGSV,8,6,30,088,12,319,42,107,48,065,,108,05,035,,112,17,301,*7F
$GPGSV,8,7,30,113,03,116,,119,17,196,,124,09,305,,126,54,106,33*79
$GPGSV,8,8,30,131,07,260,,133,69,320,*75
$GPRMC,093744.00,A,4444.5456,N,03955.5363,E,000.00000,194.4,110822,,,A*58
$GPZDA,093744.00,11,08,2022,+00,00*4A
$GPGGA,093744.20,4444.5456,N,03955.5363,E,1,14,0.8,00139.7,M,0017.2,M,,*6D
$GLGSA,A,3,065,071,072,085,087,088,,,,,,,1.3,0.8,1.0*27
$GPGSA,A,3,008,010,021,022,023,027,032,,,,,,1.3,0.8,1.0*06
$GAGSA,A,3,126,,,,,,,,,,,,1.3,0.8,1.0*1D
$GPRMC,093744.20,A,4444.5456,N,03955.5363,E,000.00000,191.2,110822,,,A*59
$GPGGA,093744.40,4444.5456,N,03955.5363,E,1,14,0.8,00139.7,M,0017.2,M,,*6B
$GLGSA,A,3,065,071,072,085,087,088,,,,,,,1.3,0.8,1.0*27
$GPGSA,A,3,008,010,021,022,023,027,032,,,,,,1.3,0.8,1.0*06
$GAGSA,A,3,126,,,,,,,,,,,,1.3,0.8,1.0*1D
$GPRMC,093744.40,A,4444.5456,N,03955.5363,E,000.00000,283.8,110822,,,A*55
$GPGGA,093744.60,4444.5456,N,03955.5363,E,1,14,0.8,00139.7,M,0017.2,M,,*69
$GLGSA,A,3,065,071,072,085,087,088,,,,,,,1.3,0.8,1.0*27
$GPGSA,A,3,008,010,021,022,023,027,032,,,,,,1.3,0.8,1.0*06
$GAGSA,A,3,126,,,,,,,,,,,,1.3,0.8,1.0*1D
$GPRMC,093744.60,A,4444.5456,N,03955.5363,E,000.00000,283.1,110822,,,A*5E
$GPGGA,093744.80,4444.5456,N,03955.5363,E,1,14,0.8,00139.7,M,0017.2,M,,*67
$GLGSA,A,3,065,071,072,085,087,088,,,,,,,1.3,0.8,1.0*27
$GPGSA,A,3,008,010,021,022,023,027,032,,,,,,1.3,0.8,1.0*06
$GAGSA,A,3,126,,,,,,,,,,,,1.3,0.8,1.0*1D
$GPRMC,093744.80,A,4444.5456,N,03955.5363,E,000.00000,285.1,110822,,,A*56
$GPGGA,093745.00,4444.5456,N,03955.5363,E,1,14,0.8,00139.7,M,0017.2,M,,*6E
$GLGSA,A,3,065,071,072,085,087,088,,,,,,,1.3,0.8,1.0*27
$GPGSA,A,3,008,010,021,022,023,027,032,,,,,,1.3,0.8,1.0*06
$GAGSA,A,3,126,,,,,,,,,,,,1.3,0.8,1.0*1D
$GPGSV,8,1,30,001,06,295,17,008,52,281,33,010,63,047,31,014,00,339,*71
$GPGSV,8,2,30,016,00,212,,018,06,109,20,021,33,301,30,022,33,171,32*77
$GPGSV,8,3,30,023,31,059,34,024,10,056,,027,55,207,28,032,53,147,36*77
$GPGSV,8,4,30,065,15,214,23,070,08,035,,071,58,039,42,072,66,206,36*7D
$GPGSV,8,5,30,078,01,308,,079,04,355,07,085,07,134,22,087,58,330,40*76
$GPGSV,8,6,30,088,12,319,41,107,48,065,,108,05,035,,112,17,301,*7C
$GPGSV,8,7,30,113,03,116,,119,17,196,,124,09,305,,126,54,106,33*79
$GPGSV,8,8,30,131,07,260,,133,69,320,*75
$GPRMC,093745.00,A,4444.5456,N,03955.5363,E,000.00000,287.0,110822,,,A*5C
$GPZDA,093745.00,11,08,2022,+00,00*4B
$GPGGA,093745.20,4444.5456,N,03955.5363,E,1,14,0.8,00139.7,M,0017.2,M,,*6C
$GLGSA,A,3,065,071,072,085,087,088,,,,,,,1.3,0.8,1.0*27
$GPGSA,A,3,008,010,021,022,023,027,032,,,,,,1.3,0.8,1.0*06
$GAGSA,A,3,126,,,,,,,,,,,,1.3,0.8,1.0*1D
$GPRMC,093745.20,A,4444.5456,N,03955.5363,E,000.00000,287.9,110822,,,A*57
$GPGGA,093745.40,4444.5456,N,03955.5363,E,1,14,0.8,00139.7,M,0017.2,M,,*6A
$GLGSA,A,3,065,071,072,085,087,088,,,,,,,1.3,0.8,1.0*27
$GPGSA,A,3,008,010,021,022,023,027,032,,,,,,1.3,0.8,1.0*06
$GAGSA,A,3,126,,,,,,,,,,,,1.3,0.8,1.0*1D
$GPRMC,093745.40,A,4444.5456,N,03955.5363,E,000.00000,287.8,110822,,,A*50
$GPGGA,093745.60,4444.5456,N,03955.5363,E,1,14,0.8,00139.7,M,0017.2,M,,*68
$GLGSA,A,3,065,071,072,085,087,088,,,,,,,1.3,0.8,1.0*27
$GPGSA,A,3,008,010,021,022,023,027,032,,,,,,1.3,0.8,1.0*06
$GAGSA,A,3,126,,,,,,,,,,,,1.3,0.8,1.0*1D
$GPRMC,093745.60,A,4444.5456,N,03955.5363,E,000.00000,347.1,110822,,,A*56
$GPGGA,093745.80,4444.5456,N,03955.5363,E,1,13,0.8,00139.7,M,0017.2,M,,*61
$GLGSA,A,3,071,072,085,087,088,,,,,,,,1.4,0.8,1.1*12
$GPGSA,A,3,008,010,021,022,023,027,032,,,,,,1.4,0.8,1.1*00
$GAGSA,A,3,126,,,,,,,,,,,,1.4,0.8,1.1*1B
$GPRMC,093745.80,A,4444.5456,N,03955.5363,E,000.00000,338.0,110822,,,A*51
$GPGGA,093746.00,4444.5456,N,03955.5363,E,1,14,0.8,00139.7,M,0017.2,M,,*6D
$GLGSA,A,3,065,071,072,085,087,088,,,,,,,1.3,0.8,1.0*27
$GPGSA,A,3,008,010,021,022,023,027,032,,,,,,1.3,0.8,1.0*06
$GAGSA,A,3,126,,,,,,,,,,,,1.3,0.8,1.0*1D
$GPGSV,8,1,30,001,06,295,16,008,52,281,33,010,63,047,30,014,00,339,*71
$GPGSV,8,2,30,016,00,212,,018,06,109,20,021,33,301,30,022,33,171,33*76
$GPGSV,8,3,30,023,31,059,34,024,10,056,,027,55,207,28,032,53,147,36*77
$GPGSV,8,4,30,065,15,214,21,070,08,035,,071,58,039,42,072,66,206,36*7F
$GPGSV,8,5,30,078,01,308,,079,04,355,08,085,07,134,23,087,58,330,41*79
$GPGSV,8,6,30,088,12,319,41,107,48,065,,108,05,035,,112,17,301,*7C
$GPGSV,8,7,30,113,03,116,,119,17,196,,124,09,305,,126,54,106,33*79
$GPGSV,8,8,30,131,07,260,,133,69,320,*75
$GPRMC,093746.00,A,4444.5456,N,03955.5363,E,000.00000,331.9,110822,,,A*5A
$GPZDA,093746.00,11,08,2022,+00,00*48
$GPGGA,093746.20,4444.5456,N,03955.5363,E,1,14,0.8,00139.7,M,0017.2,M,,*6F
$GLGSA,A,3,065,071,072,085,087,088,,,,,,,1.3,0.8,1.0*27
$GPGSA,A,3,008,010,021,022,023,027,032,,,,,,1.3,0.8,1.0*06
$GAGSA,A,3,126,,,,,,,,,,,,1.3,0.8,1.0*1D
$GPRMC,093746.20,A,4444.5456,N,03955.5363,E,000.00000,308.0,110822,,,A*5B
$GPGGA,093746.40,4444.5456,N,03955.5363,E,1,14,0.8,00139.7,M,0017.2,M,,*69
$GLGSA,A,3,065,071,072,085,087,088,,,,,,,1.3,0.8,1.0*27
$GPGSA,A,3,008,010,021,022,023,027,032,,,,,,1.3,0.8,1.0*06
$GAGSA,A,3,126,,,,,,,,,,,,1.3,0.8,1.0*1D
$GPRMC,093746.40,A,4444.5456,N,03955.5363,E,000.00000,299.2,110822,,,A*56
$GPGGA,093746.60,4444.5456,N,03955.5363,E,1,14,0.8,00139.7,M,0017.2,M,,*6B
$GLGSA,A,3,065,071,072,085,087,088,,,,,,,1.3,0.8,1.0*27
$GPGSA,A,3,008,010,021,022,023,027,032,,,,,,1.3,0.8,1.0*06
$GAGSA,A,3,126,,,,,,,,,,,,1.3,0.8,1.0*1D
$GPRMC,093746.60,A,4444.5456,N,03955.5363,E,000.00000,306.5,110822,,,A*54
$GPGGA,093746.80,4444.5456,N,03955.5363,E,1,14,0.8,00139.7,M,0017.2,M,,*65
$GLGSA,A,3,065,071,072,085,087,088,,,,,,,1.3,0.8,1.0*27
$GPGSA,A,3,008,010,021,022,023,027,032,,,,,,1.3,0.8,1.0*06
$GAGSA,A,3,126,,,,,,,,,,,,1.3,0.8,1.0*1D
$GPRMC,093746.80,A,4444.5456,N,03955.5363,E,000.00000,356.9,110822,,,A*53
$GPGGA,093747.00,4444.5456,N,03955.5363,E,1,14,0.8,00139.7,M,0017.2,M,,*6C
$GLGSA,A,3,065,071,072,085,087,088,,,,,,,1.3,0.8,1.0*27
$GPGSA,A,3,008,010,021,022,023,027,032,,,,,,1.3,0.8,1.0*06
$GAGSA,A,3,126,,,,,,,,,,,,1.3,0.8,1.0*1D
$GPGSV,8,1,30,001,06,295,16,008,52,281,33,010,63,047,30,014,00,339,*71
$GPGSV,8,2,30,016,00,212,,018,06,109,20,021,33,301,30,022,33,171,32*77
$GPGSV,8,3,30,023,31,059,34,024,10,056,,027,55,207,27,032,53,147,37*79
$GPGSV,8,4,30,065,15,214,20,070,08,036,,071,58,039,42,072,66,206,37*7C
$GPGSV,8,5,30,078,01,308,,079,04,355,06,085,07,134,23,087,58,330,41*77
$GPGSV,8,6,30,088,12,319,41,107,48,065,,108,05,035,,112,17,301,*7C
$GPGSV,8,7,30,113,03,116,,119,17,196,,124,09,305,,126,54,106,33*79
$GPGSV,8,8,30,131,07,260,,133,69,320,*75
$GPRMC,093747.00,A,4444.5456,N,03955.5363,E,000.00000,354.9,110822,,,A*58
$GPZDA,093747.00,11,08,2022,+00,00*49
$GPGGA,093747.20,4444.5456,N,03955.5363,E,1,14,0.8,00139.7,M,0017.2,M,,*6E
$GLGSA,A,3,065,071,072,085,087,088,,,,,,,1.3,0.8,1.0*27
$GPGSA,A,3,008,010,021,022,023,027,032,,,,,,1.3,0.8,1.0*06
$GAGSA,A,3,126,,,,,,,,,,,,1.3,0.8,1.0*1D
$GPRMC,093747.20,A,4444.5456,N,03955.5363,E,000.00000,009.4,110822,,,A*5C
$GPGGA,093747.40,4444.5456,N,03955.5363,E,1,14,0.8,00139.7,M,0017.2,M,,*68
$GLGSA,A,3,065,071,072,085,087,088,,,,,,,1.3,0.8,1.0*27
$GPGSA,A,3,008,010,021,022,023,027,032,,,,,,1.3,0.8,1.0*06
$GAGSA,A,3,126,,,,,,,,,,,,1.3,0.8,1.0*1D
$GPRMC,093747.40,A,4444.5456,N,03955.5363,E,000.00000,018.9,110822,,,A*57
$GPGGA,093747.60,4444.5456,N,03955.5363,E,1,13,0.8,00139.7,M,0017.2,M,,*6D
$GLGSA,A,3,071,072,085,087,088,,,,,,,,1.4,0.8,1.1*12
$GPGSA,A,3,008,010,021,022,023,027,032,,,,,,1.4,0.8,1.1*00
$GAGSA,A,3,126,,,,,,,,,,,,1.4,0.8,1.1*1B
$GPRMC,093747.60,A,4444.5456,N,03955.5363,E,000.00000,022.4,110822,,,A*51
$GPGGA,093747.80,4444.5456,N,03955.5363,E,1,14,0.8,00139.7,M,0017.2,M,,*64
$GLGSA,A,3,065,071,072,085,087,088,,,,,,,1.3,0.8,1.0*27
$GPGSA,A,3,008,010,021,022,023,027,032,,,,,,1.3,0.8,1.0*06
$GAGSA,A,3,126,,,,,,,,,,,,1.3,0.8,1.0*1D
$GPRMC,093747.80,A,4444.5456,N,03955.5363,E,000.00000,344.1,110822,,,A*59
$GPGGA,093748.00,4444.5456,N,03955.5363,E,1,14,0.8,00139.7,M,0017.2,M,,*63
$GLGSA,A,3,065,071,072,085,087,088,,,,,,,1.3,0.8,1.0*27
$GPGSA,A,3,008,010,021,022,023,027,032,,,,,,1.3,0.8,1.0*06
$GAGSA,A,3,126,,,,,,,,,,,,1.3,0.8,1.0*1D
$GPGSV,8,1,30,001,06,295,15,008,52,281,33,010,63,047,30,014,00,339,*72
$GPGSV,8,2,30,016,00,212,,018,06,109,20,021,33,301,29,022,33,171,32*7F
$GPGSV,8,3,30,023,31,059,34,024,10,056,,027,55,207,28,032,53,147,36*77
$GPGSV,8,4,30,065,15,214,22,070,08,036,,071,58,039,42,072,66,206,37*7E
$GPGSV,8,5,30,078,01,308,,079,04,355,,085,07,134,23,087,58,330,41*71
$GPGSV,8,6,30,088,12,319,41,107,48,065,,108,05,035,,112,17,301,*7C
$GPGSV,8,7,30,113,03,116,,119,17,196,,124,09,305,,126,54,106,33*79
$GPGSV,8,8,30,131,07,260,,133,69,320,*75
$GPRMC,093748.00,A,4444.5456,N,03955.5363,E,000.00000,340.9,110822,,,A*52
$GPZDA,093748.00,11,08,2022,+00,00*46
$GPGGA,093748.20,4444.5456,N,03955.5363,E,1,14,0.8,00139.7,M,0017.2,M,,*61
$GLGSA,A,3,065,071,072,085,087,088,,,,,,,1.3,0.8,1.0*27
$GPGSA,A,3,008,010,021,022,023,027,032,,,,,,1.3,0.8,1.0*06
$GAGSA,A,3,126,,,,,,,,,,,,1.3,0.8,1.0*1D
$GPRMC,093748.20,A,4444.5456,N,03955.5363,E,000.00000,343.9,110822,,,A*53
$GPGGA,093748.40,4444.5456,N,03955.5363,E,1,14,0.8,00139.7,M,0017.2,M,,*67
$GLGSA,A,3,065,071,072,085,087,088,,,,,,,1.3,0.8,1.0*27
$GPGSA,A,3,008,010,021,022,023,027,032,,,,,,1.3,0.8,1.0*06
$GAGSA,A,3,126,,,,,,,,,,,,1.3,0.8,1.0*1D
$GPRMC,093748.40,A,4444.5456,N,03955.5363,E,000.00000,001.1,110822,,,A*58
$GPGGA,093748.60,4444.5456,N,03955.5363,E,1,14,0.8,00139.7,M,0017.2,M,,*65
$GLGSA,A,3,065,071,072,085,087,088,,,,,,,1.3,0.8,1.0*27
$GPGSA,A,3,008,010,021,022,023,027,032,,,,,,1.3,0.8,1.0*06
$GAGSA,A,3,126,,,,,,,,,,,,1.3,0.8,1.0*1D
$GPRMC,093748.60,A,4444.5456,N,03955.5363,E,000.00000,013.6,110822,,,A*5E
$GPGGA,093748.80,4444.5456,N,03955.5363,E,1,14,0.8,00139.7,M,0017.2,M,,*6B
$GLGSA,A,3,065,071,072,085,087,088,,,,,,,1.3,0.8,1.0*27
$GPGSA,A,3,008,010,021,022,023,027,032,,,,,,1.3,0.8,1.0*06
$GAGSA,A,3,126,,,,,,,,,,,,1.3,0.8,1.0*1D
$GPRMC,093748.80,A,4444.5456,N,03955.5363,E,000.00000,008.5,110822,,,A*59
$GPGGA,093749.00,4444.5456,N,03955.5363,E,1,14,0.8,00139.7,M,0017.2,M,,*62
$GLGSA,A,3,065,071,072,085,087,088,,,,,,,1.3,0.8,1.0*27
$GPGSA,A,3,008,010,021,022,023,027,032,,,,,,1.3,0.8,1.0*06
$GAGSA,A,3,126,,,,,,,,,,,,1.3,0.8,1.0*1D
$GPGSV,8,1,30,001,06,295,15,008,52,281,33,010,63,047,31,014,00,339,*73
$GPGSV,8,2,30,016,00,212,,018,06,109,20,021,33,301,29,022,33,171,32*7F
$GPGSV,8,3,30,023,31,059,34,024,10,056,,027,55,207,28,032,53,147,37*76
$GPGSV,8,4,30,065,15,214,24,070,08,036,,071,58,039,42,072,66,206,37*78
$GPGSV,8,5,30,078,01,308,16,079,04,355,,085,07,134,23,087,58,330,41*76
$GPGSV,8,6,30,088,12,319,41,107,48,065,,108,05,035,,112,17,301,*7C
$GPGSV,8,7,30,113,03,116,,119,17,196,,124,09,305,,126,54,106,33*79
$GPGSV,8,8,30,131,07,260,,133,69,320,*75
$GPRMC,093749.00,A,4444.5456,N,03955.5363,E,000.00000,021.6,110822,,,A*58
$GPZDA,093749.00,11,08,2022,+00,00*47
$GPGGA,093749.20,4444.5456,N,03955.5363,E,1,13,0.8,00139.7,M,0017.2,M,,*67
$GLGSA,A,3,071,072,085,087,088,,,,,,,,1.4,0.8,1.1*12
$GPGSA,A,3,008,010,021,022,023,027,032,,,,,,1.4,0.8,1.1*00
$GAGSA,A,3,126,,,,,,,,,,,,1.4,0.8,1.1*1B
$GPRMC,093749.20,A,4444.5456,N,03955.5363,E,000.00000,019.2,110822,,,A*55
$GPGGA,093749.40,4444.5456,N,03955.5363,E,1,14,0.8,00139.7,M,0017.2,M,,*66
$GLGSA,A,3,065,071,072,085,087,088,,,,,,,1.3,0.8,1.0*27
$GPGSA,A,3,008,010,021,022,023,027,032,,,,,,1.3,0.8,1.0*06
$GAGSA,A,3,126,,,,,,,,,,,,1.3,0.8,1.0*1D
$GPRMC,093749.40,A,4444.5456,N,03955.5363,E,000.00000,350.6,110822,,,A*59
$GPGGA,093749.60,4444.5456,N,03955.5363,E,1,14,0.8,00139.7,M,0017.2,M,,*64
$GLGSA,A,3,065,071,072,085,087,088,,,,,,,1.3,0.8,1.0*27
$GPGSA,A,3,008,010,021,022,023,027,032,,,,,,1.3,0.8,1.0*06
$GAGSA,A,3,126,,,,,,,,,,,,1.3,0.8,1.0*1D
$GPRMC,093749.60,A,4444.5456,N,03955.5363,E,000.00000,014.5,110822,,,A*5B
$GPGGA,093749.80,4444.5456,N,03955.5363,E,1,14,0.8,00139.7,M,0017.2,M,,*6A
$GLGSA,A,3,065,071,072,085,087,088,,,,,,,1.3,0.8,1.0*27
$GPGSA,A,3,008,010,021,022,023,027,032,,,,,,1.3,0.8,1.0*06
$GAGSA,A,3,126,,,,,,,,,,,,1.3,0.8,1.0*1D
$GPRMC,093749.80,A,4444.5456,N,03955.5363,E,000.00000,027.8,110822,,,A*58
$GPGGA,093750.00,4444.5456,N,03955.5363,E,1,13,0.8,00139.7,M,0017.2,M,,*6D
$GLGSA,A,3,065,071,072,087,088,,,,,,,,1.6,0.8,1.3*1C
$GPGSA,A,3,008,010,021,022,023,027,032,,,,,,1.6,0.8,1.3*00
$GAGSA,A,3,126,,,,,,,,,,,,1.6,0.8,1.3*1B
$GPGSV,8,1,30,001,06,295,15,008,52,281,33,010,63,047,30,014,00,339,*72
$GPGSV,8,2,30,016,00,212,,018,06,109,20,021,33,301,29,022,33,171,32*7F
$GPGSV,8,3,30,023,31,059,34,024,10,056,,027,55,207,28,032,53,147,37*76
$GPGSV,8,4,30,065,15,214,25,070,08,036,,071,58,039,42,072,66,206,38*76
$GPGSV,8,5,30,078,01,308,19,079,04,355,,085,07,134,22,087,58,330,41*78
$GPGSV,8,6,30,088,12,319,42,107,48,065,,108,05,035,,112,17,301,*7F
$GPGSV,8,7,30,113,03,116,,119,17,196,,124,09,305,,126,54,106,33*79
$GPGSV,8,8,30,131,07,260,,133,69,320,*75
$GPRMC,093750.00,A,4444.5456,N,03955.5363,E,000.00000,030.5,110822,,,A*53
$GPZDA,093750.00,11,08,2022,+00,00*4F
$GPGGA,093750.20,4444.5456,N,03955.5363,E,1,14,0.8,00139.7,M,0017.2,M,,*68
$GLGSA,A,3,065,071,072,085,087,088,,,,,,,1.3,0.8,1.0*27
$GPGSA,A,3,008,010,021,022,023,027,032,,,,,,1.3,0.8,1.0*06
$GAGSA,A,3,126,,,,,,,,,,,,1.3,0.8,1.0*1D
$GPRMC,093750.20,A,4444.5456,N,03955.5363,E,000.00000,044.5,110822,,,A*52
$GPGGA,093750.40,4444.5456,N,03955.5363,E,1,14,0.8,00139.7,M,0017.2,M,,*6E
$GLGSA,A,3,065,071,072,085,087,088,,,,,,,1.3,0.8,1.0*27
$GPGSA,A,3,008,010,021,022,023,027,032,,,,,,1.3,0.8,1.0*06
$GAGSA,A,3,126,,,,,,,,,,,,1.3,0.8,1.0*1D
$GPRMC,093750.40,A,4444.5456,N,03955.5363,E,000.00000,052.2,110822,,,A*54
$GPGGA,093750.60,4444.5456,N,03955.5363,E,1,14,0.8,00139.7,M,0017.2,M,,*6C
$GLGSA,A,3,065,071,072,085,087,088,,,,,,,1.3,0.8,1.0*27
$GPGSA,A,3,008,010,021,022,023,027,032,,,,,,1.3,0.8,1.0*06
$GAGSA,A,3,126,,,,,,,,,,,,1.3,0.8,1.0*1D
$GPRMC,093750.60,A,4444.5456,N,03955.5363,E,000.00000,056.1,110822,,,A*51
$GPGGA,093750.80,4444.5456,N,03955.5363,E,1,14,0.8,00139.7,M,0017.2,M,,*62
$GLGSA,A,3,065,071,072,085,087,088,,,,,,,1.3,0.8,1.0*27
$GPGSA,A,3,008,010,021,022,023,027,032,,,,,,1.3,0.8,1.0*06
$GAGSA,A,3,126,,,,,,,,,,,,1.3,0.8,1.0*1D
$GPRMC,093750.80,A,4444.5456,N,03955.5363,E,000.00000,058.0,110822,,,A*50
$GPGGA,093751.00,4444.5456,N,03955.5363,E,1,14,0.8,00139.7,M,0017.2,M,,*6B
$GLGSA,A,3,065,071,072,085,087,088,,,,,,,1.3,0.8,1.0*27
$GPGSA,A,3,008,010,021,022,023,027,032,,,,,,1.3,0.8,1.0*06
$GAGSA,A,3,126,,,,,,,,,,,,1.3,0.8,1.0*1D
$GPGSV,8,1,30,001,06,295,14,008,52,281,33,010,63,047,31,014,00,339,*72
$GPGSV,8,2,30,016,00,212,,018,06,109,19,021,33,301,29,022,33,171,33*74
$GPGSV,8,3,30,023,31,059,34,024,10,056,,027,55,207,28,032,53,147,37*76
$GPGSV,8,4,30,065,15,214,25,070,08,036,,071,58,039,42,072,66,206,37*79
$GPGSV,8,5,30,078,01,308,20,079,04,355,,085,07,134,23,087,58,330,41*73
$GPGSV,8,6,30,088,12,319,42,107,48,065,,108,05,035,,112,17,301,*7F
$GPGSV,8,7,30,113,03,116,,119,17,196,,124,09,305,,126,54,106,33*79
$GPGSV,8,8,30,131,07,260,,133,69,320,*75
$GPRMC,093751.00,A,4444.5456,N,03955.5363,E,000.00000,059.1,110822,,,A*59
$GPZDA,093751.00,11,08,2022,+00,00*4E
$GPGGA,093751.20,4444.5456,N,03955.5363,E,1,14,0.8,00139.7,M,0017.2,M,,*69
$GLGSA,A,3,065,071,072,085,087,088,,,,,,,1.3,0.8,1.0*27
$GPGSA,A,3,008,010,021,022,023,027,032,,,,,,1.3,0.8,1.0*06
$GAGSA,A,3,126,,,,,,,,,,,,1.3,0.8,1.0*1D
$GPRMC,093751.20,A,4444.5456,N,03955.5363,E,000.00000,059.7,110822,,,A*5D
$GPGGA,093751.40,4444.5456,N,03955.5363,E,1,14,0.8,00139.7,M,0017.2,M,,*6F
$GLGSA,A,3,065,071,072,085,087,088,,,,,,,1.3,0.8,1.0*27
$GPGSA,A,3,008,010,021,022,023,027,032,,,,,,1.3,0.8,1.0*06
$GAGSA,A,3,126,,,,,,,,,,,,1.3,0.8,1.0*1D
$GPRMC,093751.40,A,4444.5456,N,03955.5363,E,000.00000,060.0,110822,,,A*56
$GPGGA,093751.60,4444.5456,N,03955.5363,E,1,14,0.8,00139.7,M,0017.2,M,,*6D
$GLGSA,A,3,065,071,072,085,087,088,,,,,,,1.3,0.8,1.0*27
$GPGSA,A,3,008,010,021,022,023,027,032,,,,,,1.3,0.8,1.0*06
$GAGSA,A,3,126,,,,,,,,,,,,1.3,0.8,1.0*1D
$GPRMC,093751.60,A,4444.5456,N,03955.5363,E,000.00000,060.2,110822,,,A*56
$GPGGA,093751.80,4444.5456,N,03955.5363,E,1,14,0.8,00139.7,M,0017.2,M,,*63
$GLGSA,A,3,065,071,072,085,087,088,,,,,,,1.3,0.8,1.0*27
$GPGSA,A,3,008,010,021,022,023,027,032,,,,,,1.3,0.8,1.0*06
$GAGSA,A,3,126,,,,,,,,,,,,1.3,0.8,1.0*1D
$GPRMC,093751.80,A,4444.5456,N,03955.5363,E,000.00000,060.3,110822,,,A*59
$GPGGA,093752.00,4444.5456,N,03955.5363,E,1,14,0.8,00139.7,M,0017.2,M,,*68
$GLGSA,A,3,065,071,072,085,087,088,,,,,,,1.3,0.8,1.0*27
$GPGSA,A,3,008,010,021,022,023,027,032,,,,,,1.3,0.8,1.0*06
$GAGSA,A,3,126,,,,,,,,,,,,1.3,0.8,1.0*1D
$GPGSV,8,1,30,001,06,296,13,008,52,281,33,010,63,047,31,014,00,339,*76
$GPGSV,8,2,30,016,00,212,,018,06,109,19,021,33,301,30,022,33,171,33*7C
$GPGSV,8,3,30,023,31,059,34,024,10,056,,027,55,207,28,032,53,147,37*76
$GPGSV,8,4,30,065,15,214,26,070,08,036,,071,58,039,42,072,66,206,37*7A
$GPGSV,8,5,30,078,01,308,19,079,04,355,13,085,07,134,23,087,58,330,41*7B
$GPGSV,8,6,30,088,12,319,42,107,48,065,,108,05,035,,112,17,301,*7F
$GPGSV,8,7,30,113,03,116,,119,17,196,,124,09,305,,126,54,106,33*79
$GPGSV,8,8,30,131,07,260,,133,69,320,*75
$GPRMC,093752.00,A,4444.5456,N,03955.5363,E,000.00000,060.4,110822,,,A*55
$GPZDA,093752.00,11,08,2022,+00,00*4D
$GPGGA,093752.20,4444.5456,N,03955.5363,E,1,14,0.8,00139.7,M,0017.2,M,,*6A
$GLGSA,A,3,065,071,072,085,087,088,,,,,,,1.3,0.8,1.0*27
$GPGSA,A,3,008,010,021,022,023,027,032,,,,,,1.3,0.8,1.0*06
$GAGSA,A,3,126,,,,,,,,,,,,1.3,0.8,1.0*1D
$GPRMC,093752.20,A,4444.5456,N,03955.5363,E,000.00000,060.4,110822,,,A*57
$GPGGA,093752.40,4444.5456,N,03955.5363,E,1,14,0.8,00139.7,M,0017.2,M,,*6C
$GLGSA,A,3,065,071,072,085,087,088,,,,,,,1.3,0.8,1.0*27
$GPGSA,A,3,008,010,021,022,023,027,032,,,,,,1.3,0.8,1.0*06
$GAGSA,A,3,126,,,,,,,,,,,,1.3,0.8,1.0*1D
$GPRMC,093752.40,A,4444.5456,N,03955.5363,E,000.00000,060.4,110822,,,A*51
$GPGGA,093752.60,4444.5456,N,03955.5363,E,1,14,0.8,00139.7,M,0017.2,M,,*6E
$GLGSA,A,3,065,071,072,085,087,088,,,,,,,1.3,0.8,1.0*27
$GPGSA,A,3,008,010,021,022,023,027,032,,,,,,1.3,0.8,1.0*06
$GAGSA,A,3,126,,,,,,,,,,,,1.3,0.8,1.0*1D
$GPRMC,093752.60,A,4444.5456,N,03955.5363,E,000.00000,060.4,110822,,,A*53
$GPGGA,093752.80,4444.5456,N,03955.5363,E,1,14,0.8,00139.7,M,0017.2,M,,*60
$GLGSA,A,3,065,071,072,085,087,088,,,,,,,1.3,0.8,1.0*27
$GPGSA,A,3,008,010,021,022,023,027,032,,,,,,1.3,0.8,1.0*06
$GAGSA,A,3,126,,,,,,,,,,,,1.3,0.8,1.0*1D
$GPRMC,093752.80,A,4444.5456,N,03955.5363,E,000.00000,060.5,110822,,,A*5C
$GPGGA,093753.00,4444.5456,N,03955.5363,E,1,14,0.8,00139.7,M,0017.2,M,,*69
$GLGSA,A,3,065,071,072,085,087,088,,,,,,,1.3,0.8,1.0*27
$GPGSA,A,3,008,010,021,022,023,027,032,,,,,,1.3,0.8,1.0*06
$GAGSA,A,3,126,,,,,,,,,,,,1.3,0.8,1.0*1D
$GPGSV,8,1,30,001,06,296,17,008,52,281,34,010,63,047,31,014,00,339,*75
$GPGSV,8,2,30,016,00,212,,018,06,109,19,021,33,301,30,022,33,171,32*7D
$GPGSV,8,3,30,023,31,059,34,024,10,056,,027,55,207,28,032,53,147,37*76
$GPGSV,8,4,30,065,15,214,26,070,08,036,,071,58,039,42,072,66,206,37*7A
$GPGSV,8,5,30,078,01,308,18,079,04,355,11,085,07,134,23,087,58,330,41*78
$GPGSV,8,6,30,088,12,319,42,107,48,065,,108,05,035,,112,17,301,*7F
$GPGSV,8,7,30,113,03,116,,119,17,196,,124,09,305,,126,54,106,33*79
$GPGSV,8,8,30,131,07,260,,133,69,320,*75
$GPRMC,093753.00,A,4444.5456,N,03955.5363,E,000.00000,060.5,110822,,,A*55
$GPZDA,093753.00,11,08,2022,+00,00*4C
$GPGGA,093753.20,4444.5456,N,03955.5363,E,1,14,0.8,00139.7,M,0017.2,M,,*6B
$GLGSA,A,3,065,071,072,085,087,088,,,,,,,1.3,0.8,1.0*27
$GPGSA,A,3,008,010,021,022,023,027,032,,,,,,1.3,0.8,1.0*06
$GAGSA,A,3,126,,,,,,,,,,,,1.3,0.8,1.0*1D
$GPRMC,093753.20,A,4444.5456,N,03955.5363,E,000.00000,060.5,110822,,,A*57
$GPGGA,093753.40,4444.5456,N,03955.5363,E,1,14,0.8,00139.7,M,0017.2,M,,*6D
$GLGSA,A,3,065,071,072,085,087,088,,,,,,,1.3,0.8,1.0*27
$GPGSA,A,3,008,010,021,022,023,027,032,,,,,,1.3,0.8,1.0*06
$GAGSA,A,3,126,,,,,,,,,,,,1.3,0.8,1.0*1D
$GPRMC,093753.40,A,4444.5456,N,03955.5363,E,000.00000,060.5,110822,,,A*51
$GPGGA,093753.60,4444.5456,N,03955.5363,E,1,14,0.8,00139.7,M,0017.2,M,,*6F
$GLGSA,A,3,065,071,072,085,087,088,,,,,,,1.3,0.8,1.0*27
$GPGSA,A,3,008,010,021,022,023,027,032,,,,,,1.3,0.8,1.0*06
$GAGSA,A,3,126,,,,,,,,,,,,1.3,0.8,1.0*1D
$GPRMC,093753.60,A,4444.5456,N,03955.5363,E,000.00000,060.5,110822,,,A*53
$GPGGA,093753.80,4444.5456,N,03955.5363,E,1,14,0.8,00139.7,M,0017.2,M,,*61
$GLGSA,A,3,065,071,072,085,087,088,,,,,,,1.3,0.8,1.0*27
$GPGSA,A,3,008,010,021,022,023,027,032,,,,,,1.3,0.8,1.0*06
$GAGSA,A,3,126,,,,,,,,,,,,1.3,0.8,1.0*1D
$GPRMC,093753.80,A,4444.5456,N,03955.5363,E,000.00000,060.5,110822,,,A*5D
$GPGGA,093754.00,4444.5456,N,03955.5363,E,1,14,0.8,00139.7,M,0017.2,M,,*6E
$GLGSA,A,3,065,071,072,085,087,088,,,,,,,1.3,0.8,1.0*27
$GPGSA,A,3,008,010,021,022,023,027,032,,,,,,1.3,0.8,1.0*06
$GAGSA,A,3,126,,,,,,,,,,,,1.3,0.8,1.0*1D
$GPGSV,8,1,30,001,06,296,16,008,52,281,34,010,63,047,31,014,00,339,*74
$GPGSV,8,2,30,016,00,212,,018,06,109,18,021,33,301,30,022,33,171,32*7C
$GPGSV,8,3,30,023,31,059,35,024,10,056,,027,55,207,28,032,53,147,37*77
$GPGSV,8,4,30,065,15,214,25,070,08,036,,071,58,039,41,072,66,206,37*7A
$GPGSV,8,5,30,078,01,308,15,079,04,355,09,085,07,134,22,087,58,330,40*7C
$GPGSV,8,6,30,088,12,319,41,107,48,065,,108,05,035,,112,17,301,*7C
$GPGSV,8,7,30,113,03,116,,119,17,196,,124,09,305,,126,54,106,33*79
$GPGSV,8,8,30,131,07,260,,133,69,320,*75
$GPRMC,093754.00,A,4444.5456,N,03955.5363,E,000.00000,060.5,110822,,,A*52
$GPZDA,093754.00,11,08,2022,+00,00*4B
$GPGGA,093754.20,4444.5456,N,03955.5363,E,1,14,0.8,00139.7,M,0017.2,M,,*6C
$GLGSA,A,3,065,071,072,085,087,088,,,,,,,1.3,0.8,1.0*27
$GPGSA,A,3,008,010,021,022,023,027,032,,,,,,1.3,0.8,1.0*06
$GAGSA,A,3,126,,,,,,,,,,,,1.3,0.8,1.0*1D
$GPRMC,093754.20,A,4444.5456,N,03955.5363,E,000.00000,060.5,110822,,,A*50
$GPGGA,093754.40,4444.5456,N,03955.5363,E,1,14,0.8,00139.7,M,0017.2,M,,*6A
$GLGSA,A,3,065,071,072,085,087,088,,,,,,,1.3,0.8,1.0*27
$GPGSA,A,3,008,010,021,022,023,027,032,,,,,,1.3,0.8,1.0*06
$GAGSA,A,3,126,,,,,,,,,,,,1.3,0.8,1.0*1D
$GPRMC,093754.40,A,4444.5456,N,03955.5363,E,000.00000,060.5,110822,,,A*56
$GPGGA,093754.60,4444.5456,N,03955.5363,E,1,14,0.8,00139.7,M,0017.2,M,,*68
$GLGSA,A,3,065,071,072,085,087,088,,,,,,,1.3,0.8,1.0*27
$GPGSA,A,3,008,010,021,022,023,027,032,,,,,,1.3,0.8,1.0*06
$GAGSA,A,3,126,,,,,,,,,,,,1.3,0.8,1.0*1D
$GPRMC,093754.60,A,4444.5456,N,03955.5363,E,000.00000,060.5,110822,,,A*54
$GPGGA,093754.80,4444.5456,N,03955.5363,E,1,14,0.8,00139.7,M,0017.2,M,,*66
$GLGSA,A,3,065,071,072,085,087,088,,,,,,,1.3,0.8,1.0*27
$GPGSA,A,3,008,010,021,022,023,027,032,,,,,,1.3,0.8,1.0*06
$GAGSA,A,3,126,,,,,,,,,,,,1.3,0.8,1.0*1D
$GPRMC,093754.80,A,4444.5456,N,03955.5363,E,000.00000,060.5,110822,,,A*5A
$GPGGA,093755.00,4444.5456,N,03955.5363,E,1,14,0.8,00139.7,M,0017.2,M,,*6F
$GLGSA,A,3,065,071,072,085,087,088,,,,,,,1.3,0.8,1.0*27
$GPGSA,A,3,008,010,021,022,023,027,032,,,,,,1.3,0.8,1.0*06
$GAGSA,A,3,126,,,,,,,,,,,,1.3,0.8,1.0*1D
$GPGSV,8,1,30,001,06,296,16,008,52,281,34,010,63,047,31,014,00,339,*74
$GPGSV,8,2,30,016,00,212,,018,06,109,19,021,33,301,30,022,33,171,33*7C
$GPGSV,8,3,30,023,31,059,34,024,10,056,,027,55,207,28,032,53,147,37*76
$GPGSV,8,4,30,065,15,214,23,070,08,036,,071,58,039,41,072,66,206,37*7C
$GPGSV,8,5,30,078,01,308,17,079,04,355,08,085,07,134,24,087,58,330,41*78
$GPGSV,8,6,30,088,12,319,41,107,48,065,,108,05,035,,112,17,301,*7C
$GPGSV,8,7,30,113,03,116,,119,17,196,,124,09,305,,126,54,106,33*79
$GPGSV,8,8,30,131,07,259,,133,69,320,*7F
$GPRMC,093755.00,A,4444.5456,N,03955.5363,E,000.00000,060.5,110822,,,A*53
$GPZDA,093755.00,11,08,2022,+00,00*4A
$GPGGA,093755.20,4444.5456,N,03955.5363,E,1,13,0.8,00139.7,M,0017.2,M,,*6A
$GLGSA,A,3,065,071,072,087,088,,,,,,,,1.6,0.8,1.3*1C
$GPGSA,A,3,008,010,021,022,023,027,032,,,,,,1.6,0.8,1.3*00
$GAGSA,A,3,126,,,,,,,,,,,,1.6,0.8,1.3*1B
$GPRMC,093755.20,A,4444.5456,N,03955.5363,E,000.00000,060.5,110822,,,A*51
$GPGGA,093755.40,4444.5456,N,03955.5363,E,1,14,0.8,00139.7,M,0017.2,M,,*6B
$GLGSA,A,3,065,071,072,085,087,088,,,,,,,1.3,0.8,1.0*27
$GPGSA,A,3,008,010,021,022,023,027,032,,,,,,1.3,0.8,1.0*06
$GAGSA,A,3,126,,,,,,,,,,,,1.3,0.8,1.0*1D
$GPRMC,093755.40,A,4444.5456,N,03955.5363,E,000.00000,060.5,110822,,,A*57
$GPGGA,093755.60,4444.5456,N,03955.5363,E,1,14,0.8,00139.7,M,0017.2,M,,*69
$GLGSA,A,3,065,071,072,085,087,088,,,,,,,1.3,0.8,1.0*27
$GPGSA,A,3,008,010,021,022,023,027,032,,,,,,1.3,0.8,1.0*06
$GAGSA,A,3,126,,,,,,,,,,,,1.3,0.8,1.0*1D
$GPRMC,093755.60,A,4444.5456,N,03955.5363,E,000.00000,060.5,110822,,,A*55
$GPGGA,093755.80,4444.5456,N,03955.5363,E,1,14,0.8,00139.7,M,0017.2,M,,*67
$GLGSA,A,3,065,071,072,085,087,088,,,,,,,1.3,0.8,1.0*27
$GPGSA,A,3,008,010,021,022,023,027,032,,,,,,1.3,0.8,1.0*06
$GAGSA,A,3,126,,,,,,,,,,,,1.3,0.8,1.0*1D
$GPRMC,093755.80,A,4444.5456,N,03955.5363,E,000.00000,060.5,110822,,,A*5B
$GPGGA,093756.00,4444.5456,N,03955.5363,E,1,13,0.8,00139.7,M,0017.2,M,,*6B
$GLGSA,A,3,071,072,085,087,088,,,,,,,,1.4,0.8,1.1*12
$GPGSA,A,3,008,010,021,022,023,027,032,,,,,,1.4,0.8,1.1*00
$GAGSA,A,3,126,,,,,,,,,,,,1.4,0.8,1.1*1B
$GPGSV,8,1,30,001,06,296,16,008,52,281,33,010,63,047,32,014,00,339,*70
$GPGSV,8,2,30,016,00,212,,018,06,109,19,021,33,301,30,022,33,171,33*7C
$GPGSV,8,3,30,023,31,059,34,024,10,056,,027,55,207,28,032,53,147,37*76
$GPGSV,8,4,30,065,15,214,21,070,08,036,,071,58,039,41,072,66,206,37*7E
$GPGSV,8,5,30,078,01,308,15,079,04,355,06,085,07,134,24,087,58,330,41*74
$GPGSV,8,6,30,088,12,319,42,107,48,065,,108,05,035,,112,17,301,*7F
$GPGSV,8,7,30,113,03,116,,119,17,196,,124,09,305,,126,54,106,33*79
$GPGSV,8,8,30,131,07,259,,133,69,320,*7F
$GPRMC,093756.00,A,4444.5456,N,03955.5363,E,000.00000,060.5,110822,,,A*50
$GPZDA,093756.00,11,08,2022,+00,00*49
$GPGGA,093756.20,4444.5456,N,03955.5363,E,1,14,0.8,00139.7,M,0017.2,M,,*6E
$GLGSA,A,3,065,071,072,085,087,088,,,,,,,1.3,0.8,1.0*27
$GPGSA,A,3,008,010,021,022,023,027,032,,,,,,1.3,0.8,1.0*06
$GAGSA,A,3,126,,,,,,,,,,,,1.3,0.8,1.0*1D
$GPRMC,093756.20,A,4444.5456,N,03955.5363,E,000.00000,060.5,110822,,,A*52
$GPGGA,093756.40,4444.5456,N,03955.5363,E,1,14,0.8,00139.7,M,0017.2,M,,*68
$GLGSA,A,3,065,071,072,085,087,088,,,,,,,1.3,0.8,1.0*27
$GPGSA,A,3,008,010,021,022,023,027,032,,,,,,1.3,0.8,1.0*06
$GAGSA,A,3,126,,,,,,,,,,,,1.3,0.8,1.0*1D
$GPRMC,093756.40,A,4444.5456,N,03955.5363,E,000.00000,060.5,110822,,,A*54
$GPGGA,093756.60,4444.5456,N,03955.5363,E,1,13,0.8,00139.7,M,0017.2,M,,*6D
$GLGSA,A,3,065,071,072,087,088,,,,,,,,1.6,0.8,1.3*1C
$GPGSA,A,3,008,010,021,022,023,027,032,,,,,,1.6,0.8,1.3*00
$GAGSA,A,3,126,,,,,,,,,,,,1.6,0.8,1.3*1B
$GPRMC,093756.60,A,4444.5456,N,03955.5363,E,000.00000,060.5,110822,,,A*56
$GPGGA,093756.80,4444.5456,N,03955.5363,E,1,14,0.8,00139.7,M,0017.2,M,,*64
$GLGSA,A,3,065,071,072,085,087,088,,,,,,,1.3,0.8,1.0*27
$GPGSA,A,3,008,010,021,022,023,027,032,,,,,,1.3,0.8,1.0*06
$GAGSA,A,3,126,,,,,,,,,,,,1.3,0.8,1.0*1D
$GPRMC,093756.80,A,4444.5456,N,03955.5363,E,000.00000,060.5,110822,,,A*58
$GPGGA,093757.00,4444.5456,N,03955.5363,E,1,14,0.8,00139.7,M,0017.2,M,,*6D
$GLGSA,A,3,065,071,072,085,087,088,,,,,,,1.3,0.8,1.0*27
$GPGSA,A,3,008,010,021,022,023,027,032,,,,,,1.3,0.8,1.0*06
$GAGSA,A,3,126,,,,,,,,,,,,1.3,0.8,1.0*1D
$GPGSV,8,1,30,001,06,296,14,008,52,281,34,010,63,047,32,014,00,339,*75
$GPGSV,8,2,30,016,00,212,,018,06,109,20,021,33,301,31,022,33,171,33*77
$GPGSV,8,3,30,023,31,059,34,024,10,056,,027,55,207,28,032,53,147,37*76
$GPGSV,8,4,30,065,15,214,23,070,08,036,,071,58,039,41,072,66,206,37*7C
$GPGSV,8,5,30,078,01,308,13,079,04,355,06,085,07,134,24,087,58,330,41*72
$GPGSV,8,6,30,088,12,319,42,107,48,065,,108,05,035,,112,17,301,*7F
$GPGSV,8,7,30,113,03,116,,119,17,196,,124,09,305,,126,54,106,33*79
$GPGSV,8,8,30,131,07,259,,133,69,320,*7F
$GPRMC,093757.00,A,4444.5456,N,03955.5363,E,000.00000,060.5,110822,,,A*51
$GPZDA,093757.00,11,08,2022,+00,00*48
$GPGGA,093757.20,4444.5456,N,03955.5363,E,1,14,0.8,00139.7,M,0017.2,M,,*6F
$GLGSA,A,3,065,071,072,085,087,088,,,,,,,1.3,0.8,1.0*27
$GPGSA,A,3,008,010,021,022,023,027,032,,,,,,1.3,0.8,1.0*06
$GAGSA,A,3,126,,,,,,,,,,,,1.3,0.8,1.0*1D
$GPRMC,093757.20,A,4444.5456,N,03955.5363,E,000.00000,060.5,110822,,,A*53
$GPGGA,093757.40,4444.5456,N,03955.5363,E,1,14,0.8,00139.7,M,0017.2,M,,*69
$GLGSA,A,3,065,071,072,085,087,088,,,,,,,1.3,0.8,1.0*27
$GPGSA,A,3,008,010,021,022,023,027,032,,,,,,1.3,0.8,1.0*06
$GAGSA,A,3,126,,,,,,,,,,,,1.3,0.8,1.0*1D
$GPRMC,093757.40,A,4444.5456,N,03955.5363,E,000.00000,060.5,110822,,,A*55
$GPGGA,093757.60,4444.5456,N,03955.5363,E,1,14,0.8,00139.7,M,0017.2,M,,*6B
$GLGSA,A,3,065,071,072,085,087,088,,,,,,,1.3,0.8,1.0*27
$GPGSA,A,3,008,010,021,022,023,027,032,,,,,,1.3,0.8,1.0*06
$GAGSA,A,3,126,,,,,,,,,,,,1.3,0.8,1.0*1D
$GPRMC,093757.60,A,4444.5456,N,03955.5363,E,000.00000,060.5,110822,,,A*57
$GPGGA,093757.80,4444.5456,N,03955.5363,E,1,14,0.8,00139.7,M,0017.2,M,,*65
$GLGSA,A,3,065,071,072,085,087,088,,,,,,,1.3,0.8,1.0*27
$GPGSA,A,3,008,010,021,022,023,027,032,,,,,,1.3,0.8,1.0*06
$GAGSA,A,3,126,,,,,,,,,,,,1.3,0.8,1.0*1D
$GPRMC,093757.80,A,4444.5456,N,03955.5363,E,000.00000,058.2,110822,,,A*55
$GPGGA,093758.00,4444.5456,N,03955.5363,E,1,14,0.8,00139.7,M,0017.2,M,,*62
$GLGSA,A,3,065,071,072,085,087,088,,,,,,,1.3,0.8,1.0*27
$GPGSA,A,3,008,010,021,022,023,027,032,,,,,,1.3,0.8,1.0*06
$GAGSA,A,3,126,,,,,,,,,,,,1.3,0.8,1.0*1D
$GPGSV,8,1,29,001,06,296,14,008,52,281,33,010,63,047,33,014,00,339,*7B
$GPGSV,8,2,29,018,06,109,20,021,33,301,30,022,33,171,32,023,31,059,34*71
$GPGSV,8,3,29,024,10,056,,027,55,207,29,032,53,147,37,065,15,214,23*76
$GPGSV,8,4,29,070,08,036,,071,58,039,41,072,66,206,37,078,01,308,13*72
$GPGSV,8,5,29,079,04,355,,085,07,134,24,087,58,330,41,088,12,319,42*75
$GPGSV,8,6,29,107,48,065,,108,05,035,,112,17,302,,113,03,116,*7C
$GPGSV,8,7,29,119,17,196,,124,09,305,,126,54,106,33,131,07,259,*7D
$GPGSV,8,8,29,133,69,320,*7D
$GPRMC,093758.00,A,4444.5456,N,03955.5363,E,000.00000,059.2,110822,,,A*53
$GPZDA,093758.00,11,08,2022,+00,00*47
$GPGGA,093758.20,4444.5456,N,03955.5363,E,1,14,0.8,00139.7,M,0017.2,M,,*60
$GLGSA,A,3,065,071,072,085,087,088,,,,,,,1.3,0.8,1.0*27
$GPGSA,A,3,008,010,021,022,023,027,032,,,,,,1.3,0.8,1.0*06
$GAGSA,A,3,126,,,,,,,,,,,,1.3,0.8,1.0*1D
$GPRMC,093758.20,A,4444.5456,N,03955.5363,E,000.00000,054.7,110822,,,A*59
$GPGGA,093758.40,4444.5456,N,03955.5363,E,1,14,0.8,00139.7,M,0017.2,M,,*66
$GLGSA,A,3,065,071,072,085,087,088,,,,,,,1.3,0.8,1.0*27
$GPGSA,A,3,008,010,021,022,023,027,032,,,,,,1.3,0.8,1.0*06
$GAGSA,A,3,126,,,,,,,,,,,,1.3,0.8,1.0*1D
$GPRMC,093758.40,A,4444.5456,N,03955.5363,E,000.00000,056.5,110822,,,A*5F
$GPGGA,093758.60,4444.5456,N,03955.5363,E,1,14,0.8,00139.7,M,0017.2,M,,*64
$GLGSA,A,3,065,071,072,085,087,088,,,,,,,1.3,0.8,1.0*27
$GPGSA,A,3,008,010,021,022,023,027,032,,,,,,1.3,0.8,1.0*06
$GAGSA,A,3,126,,,,,,,,,,,,1.3,0.8,1.0*1D
$GPRMC,093758.60,A,4444.5456,N,03955.5363,E,000.00000,058.2,110822,,,A*54
$GPGGA,093758.80,4444.5456,N,03955.5363,E,1,14,0.8,00139.7,M,0017.2,M,,*6A
$GLGSA,A,3,065,071,072,085,087,088,,,,,,,1.3,0.8,1.0*27
$GPGSA,A,3,008,010,021,022,023,027,032,,,,,,1.3,0.8,1.0*06
$GAGSA,A,3,126,,,,,,,,,,,,1.3,0.8,1.0*1D
$GPRMC,093758.80,A,4444.5456,N,03955.5363,E,000.00000,059.2,110822,,,A*5B
$GPGGA,093759.00,4444.5456,N,03955.5363,E,1,14,0.8,00139.7,M,0017.2,M,,*63
$GLGSA,A,3,065,071,072,085,087,088,,,,,,,1.3,0.8,1.0*27
$GPGSA,A,3,008,010,021,022,023,027,032,,,,,,1.3,0.8,1.0*06
$GAGSA,A,3,126,,,,,,,,,,,,1.3,0.8,1.0*1D
$GPGSV,8,1,29,001,06,296,11,008,52,281,33,010,63,047,33,014,00,339,*7E
$GPGSV,8,2,29,018,06,109,20,021,33,301,31,022,33,171,32,023,31,059,34*70
$GPGSV,8,3,29,024,10,056,,027,55,207,28,032,53,147,37,065,15,214,24*70
$GPGSV,8,4,29,070,08,036,,071,58,039,41,072,66,206,37,078,01,308,13*72
$GPGSV,8,5,29,079,04,355,,085,07,134,25,087,58,330,41,088,12,319,42*74
$GPGSV,8,6,29,107,48,065,,108,05,035,,112,17,302,,113,03,116,*7C
$GPGSV,8,7,29,119,17,196,,124,09,305,,126,54,106,33,131,07,259,*7D
$GPGSV,8,8,29,133,69,320,*7D
$GPRMC,093759.00,A,4444.5456,N,03955.5363,E,000.00000,061.8,110822,,,A*53
$GPZDA,093759.00,11,08,2022,+00,00*46
$GPGGA,093759.20,4444.5456,N,03955.5363,E,1,14,0.8,00139.7,M,0017.2,M,,*61
$GLGSA,A,3,065,071,072,085,087,088,,,,,,,1.3,0.8,1.0*27
$GPGSA,A,3,008,010,021,022,023,027,032,,,,,,1.3,0.8,1.0*06
$GAGSA,A,3,126,,,,,,,,,,,,1.3,0.8,1.0*1D
$GPRMC,093759.20,A,4444.5456,N,03955.5363,E,000.00000,064.6,110822,,,A*5A
$GPGGA,093759.40,4444.5456,N,03955.5363,E,1,13,0.8,00139.7,M,0017.2,M,,*60
$GLGSA,A,3,065,071,072,087,088,,,,,,,,1.6,0.8,1.3*1C
$GPGSA,A,3,008,010,021,022,023,027,032,,,,,,1.6,0.8,1.3*00
$GAGSA,A,3,126,,,,,,,,,,,,1.6,0.8,1.3*1B
$GPRMC,093759.40,A,4444.5456,N,03955.5363,E,000.00000,063.5,110822,,,A*58
$GPGGA,093759.60,4444.5456,N,03955.5363,E,1,14,0.8,00139.7,M,0017.2,M,,*65
$GLGSA,A,3,065,071,072,085,087,088,,,,,,,1.3,0.8,1.0*27
$GPGSA,A,3,008,010,021,022,023,027,032,,,,,,1.3,0.8,1.0*06
$GAGSA,A,3,126,,,,,,,,,,,,1.3,0.8,1.0*1D
$GPRMC,093759.60,A,4444.5456,N,03955.5363,E,000.00000,062.9,110822,,,A*57
$GPGGA,093759.80,4444.5456,N,03955.5363,E,1,14,0.8,00139.7,M,0017.2,M,,*6B
$GLGSA,A,3,065,071,072,085,087,088,,,,,,,1.3,0.8,1.0*27
$GPGSA,A,3,008,010,021,022,023,027,032,,,,,,1.3,0.8,1.0*06
$GAGSA,A,3,126,,,,,,,,,,,,1.3,0.8,1.0*1D
$GPRMC,093759.80,A,4444.5456,N,03955.5363,E,000.00000,061.8,110822,,,A*5B
$GPGGA,093800.00,4444.5456,N,03955.5363,E,1,14,0.8,00139.7,M,0017.2,M,,*60
$GLGSA,A,3,065,071,072,085,087,088,,,,,,,1.3,0.8,1.0*27
$GPGSA,A,3,008,010,021,022,023,027,032,,,,,,1.3,0.8,1.0*06
$GAGSA,A,3,126,,,,,,,,,,,,1.3,0.8,1.0*1D
$GPGSV,8,1,29,001,06,296,13,008,52,281,33,010,63,047,33,014,00,339,*7C
$GPGSV,8,2,29,018,06,109,19,021,33,301,31,022,33,171,33,023,31,059,34*7B
$GPGSV,8,3,29,024,10,056,,027,55,207,29,032,53,147,37,065,15,214,24*71
$GPGSV,8,4,29,070,08,036,,071,58,039,41,072,66,206,37,078,01,308,15*74
$GPGSV,8,5,29,079,04,355,,085,07,134,25,087,58,330,41,088,12,319,42*74
$GPGSV,8,6,29,107,48,065,,108,05,035,,112,17,302,,113,03,116,*7C
$GPGSV,8,7,29,119,17,196,,124,09,305,,126,54,106,33,131,07,259,*7D
$GPGSV,8,8,29,133,69,320,*7D
$GPRMC,093800.00,A,4444.5456,N,03955.5363,E,000.00000,046.6,110822,,,A*5B
$GPZDA,093800.00,11,08,2022,+00,00*45
$GPGGA,093800.20,4444.5456,N,03955.5363,E,1,14,0.8,00139.7,M,0017.2,M,,*62
$GLGSA,A,3,065,071,072,085,087,088,,,,,,,1.3,0.8,1.0*27
$GPGSA,A,3,008,010,021,022,023,027,032,,,,,,1.3,0.8,1.0*06
$GAGSA,A,3,126,,,,,,,,,,,,1.3,0.8,1.0*1D
$GPRMC,093800.20,A,4444.5456,N,03955.5363,E,000.00000,042.5,110822,,,A*5E
$GPGGA,093800.40,4444.5456,N,03955.5363,E,1,14,0.8,00139.7,M,0017.2,M,,*64
$GLGSA,A,3,065,071,072,085,087,088,,,,,,,1.3,0.8,1.0*27
$GPGSA,A,3,008,010,021,022,023,027,032,,,,,,1.3,0.8,1.0*06
$GAGSA,A,3,126,,,,,,,,,,,,1.3,0.8,1.0*1D
$GPRMC,093800.40,A,4444.5456,N,03955.5363,E,000.00000,046.1,110822,,,A*58
$GPGGA,093800.60,4444.5456,N,03955.5363,E,1,14,0.8,00139.7,M,0017.2,M,,*66
$GLGSA,A,3,065,071,072,085,087,088,,,,,,,1.3,0.8,1.0*27
$GPGSA,A,3,008,010,021,022,023,027,032,,,,,,1.3,0.8,1.0*06
$GAGSA,A,3,126,,,,,,,,,,,,1.3,0.8,1.0*1D
$GPRMC,093800.60,A,4444.5456,N,03955.5363,E,000.00000,051.0,110822,,,A*5D
$GPGGA,093800.80,4444.5456,N,03955.5363,E,1,14,0.8,00139.7,M,0017.2,M,,*68
$GLGSA,A,3,065,071,072,085,087,088,,,,,,,1.3,0.8,1.0*27
$GPGSA,A,3,008,010,021,022,023,027,032,,,,,,1.3,0.8,1.0*06
$GAGSA,A,3,126,,,,,,,,,,,,1.3,0.8,1.0*1D
$GPRMC,093800.80,A,4444.5456,N,03955.5363,E,000.00000,043.6,110822,,,A*56
$GPGGA,093801.00,4444.5456,N,03955.5363,E,1,14,0.8,00139.7,M,0017.2,M,,*61
$GLGSA,A,3,065,071,072,085,087,088,,,,,,,1.3,0.8,1.0*27
$GPGSA,A,3,008,010,021,022,023,027,032,,,,,,1.3,0.8,1.0*06
$GAGSA,A,3,126,,,,,,,,,,,,1.3,0.8,1.0*1D
$GPGSV,8,1,29,001,06,296,14,008,52,281,33,010,63,047,33,014,00,339,*7B
$GPGSV,8,2,29,018,06,109,20,021,33,301,31,022,33,171,33,023,31,059,34*71
$GPGSV,8,3,29,024,10,056,,027,55,207,29,032,53,147,37,065,15,214,22*77
$GPGSV,8,4,29,070,08,036,,071,58,039,41,072,66,206,37,078,01,308,15*74
$GPGSV,8,5,29,079,04,355,,085,07,134,25,087,58,330,41,088,12,319,42*74
$GPGSV,8,6,29,107,48,065,,108,05,035,,112,17,302,,113,03,116,*7C
$GPGSV,8,7,29,119,17,196,,124,09,305,,126,54,106,33,131,07,259,*7D
$GPGSV,8,8,29,133,69,320,*7D
$GPRMC,093801.00,A,4444.5456,N,03955.5363,E,000.00000,051.5,110822,,,A*5F
$GPZDA,093801.00,11,08,2022,+00,00*44
$GPGGA,093801.20,4444.5456,N,03955.5363,E,1,14,0.8,00139.7,M,0017.2,M,,*63
$GLGSA,A,3,065,071,072,085,087,088,,,,,,,1.3,0.8,1.0*27
$GPGSA,A,3,008,010,021,022,023,027,032,,,,,,1.3,0.8,1.0*06
$GAGSA,A,3,126,,,,,,,,,,,,1.3,0.8,1.0*1D
$GPRMC,093801.20,A,4444.5456,N,03955.5363,E,000.00000,056.7,110822,,,A*58
$GPGGA,093801.40,4444.5456,N,03955.5363,E,1,14,0.8,00139.7,M,0017.2,M,,*65
$GLGSA,A,3,065,071,072,085,087,088,,,,,,,1.3,0.8,1.0*27
$GPGSA,A,3,008,010,021,022,023,027,032,,,,,,1.3,0.8,1.0*06
$GAGSA,A,3,126,,,,,,,,,,,,1.3,0.8,1.0*1D
$GPRMC,093801.40,A,4444.5456,N,03955.5363,E,000.00000,060.5,110822,,,A*59
$GPGGA,093801.60,4444.5456,N,03955.5363,E,1,14,0.8,00139.7,M,0017.2,M,,*67
$GLGSA,A,3,065,071,072,085,087,088,,,,,,,1.3,0.8,1.0*27
$GPGSA,A,3,008,010,021,022,023,027,032,,,,,,1.3,0.8,1.0*06
$GAGSA,A,3,126,,,,,,,,,,,,1.3,0.8,1.0*1D
$GPRMC,093801.60,A,4444.5456,N,03955.5363,E,000.00000,050.2,110822,,,A*5F
$GPGGA,093801.80,4444.5456,N,03955.5363,E,1,14,0.8,00139.7,M,0017.2,M,,*69
$GLGSA,A,3,065,071,072,085,087,088,,,,,,,1.3,0.8,1.0*27
$GPGSA,A,3,008,010,021,022,023,027,032,,,,,,1.3,0.8,1.0*06
$GAGSA,A,3,126,,,,,,,,,,,,1.3,0.8,1.0*1D
$GPRMC,093801.80,A,4444.5456,N,03955.5363,E,000.00000,015.3,110822,,,A*51
$GPGGA,093802.00,4444.5456,N,03955.5363,E,1,14,0.8,00139.7,M,0017.2,M,,*62
$GLGSA,A,3,065,071,072,085,087,088,,,,,,,1.3,0.8,1.0*27
$GPGSA,A,3,008,010,021,022,023,027,032,,,,,,1.3,0.8,1.0*06
$GAGSA,A,3,126,,,,,,,,,,,,1.3,0.8,1.0*1D
$GPGSV,8,1,29,001,06,296,16,008,52,281,33,010,63,047,33,014,00,339,*79
$GPGSV,8,2,29,018,06,109,19,021,33,301,30,022,33,171,33,023,31,059,34*7A
$GPGSV,8,3,29,024,10,056,,027,55,207,28,032,53,147,37,065,15,214,19*7E
$GPGSV,8,4,29,070,08,036,,071,58,039,41,072,66,206,36,078,01,308,14*74
$GPGSV,8,5,29,079,04,355,,085,07,134,25,087,58,330,41,088,12,319,42*74
$GPGSV,8,6,29,107,48,065,,108,05,035,,112,17,302,,113,03,116,*7C
$GPGSV,8,7,29,119,17,196,,124,09,305,,126,54,106,33,131,07,259,*7D
$GPGSV,8,8,29,133,69,320,*7D
$GPRMC,093802.00,A,4444.5456,N,03955.5363,E,000.00000,020.8,110822,,,A*57
$GPZDA,093802.00,11,08,2022,+00,00*47
$GPGGA,093802.20,4444.5456,N,03955.5363,E,1,14,0.8,00139.7,M,0017.2,M,,*60
$GLGSA,A,3,065,071,072,085,087,088,,,,,,,1.3,0.8,1.0*27
$GPGSA,A,3,008,010,021,022,023,027,032,,,,,,1.3,0.8,1.0*06
$GAGSA,A,3,126,,,,,,,,,,,,1.3,0.8,1.0*1D
$GPRMC,093802.20,A,4444.5456,N,03955.5363,E,000.00000,024.4,110822,,,A*5D
$GPGGA,093802.40,4444.5456,N,03955.5363,E,1,13,0.8,00139.7,M,0017.2,M,,*61
$GLGSA,A,3,071,072,085,087,088,,,,,,,,1.4,0.8,1.1*12
$GPGSA,A,3,008,010,021,022,023,027,032,,,,,,1.4,0.8,1.1*00
$GAGSA,A,3,126,,,,,,,,,,,,1.4,0.8,1.1*1B
$GPRMC,093802.40,A,4444.5456,N,03955.5363,E,000.00000,018.8,110822,,,A*58
$GPGGA,093802.60,4444.5456,N,03955.5363,E,1,14,0.8,00139.7,M,0017.2,M,,*64
$GLGSA,A,3,065,071,072,085,087,088,,,,,,,1.3,0.8,1.0*27
$GPGSA,A,3,008,010,021,022,023,027,032,,,,,,1.3,0.8,1.0*06
$GAGSA,A,3,126,,,,,,,,,,,,1.3,0.8,1.0*1D
$GPRMC,093802.60,A,4444.5456,N,03955.5363,E,000.00000,356.6,110822,,,A*5D
$GPGGA,093802.80,4444.5456,N,03955.5363,E,1,14,0.8,00139.7,M,0017.2,M,,*6A
$GLGSA,A,3,065,071,072,085,087,088,,,,,,,1.3,0.8,1.0*27
$GPGSA,A,3,008,010,021,022,023,027,032,,,,,,1.3,0.8,1.0*06
$GAGSA,A,3,126,,,,,,,,,,,,1.3,0.8,1.0*1D
$GPRMC,093802.80,A,4444.5456,N,03955.5363,E,000.00000,328.7,110822,,,A*5B
$GPGGA,093803.00,4444.5456,N,03955.5363,E,1,14,0.8,00139.7,M,0017.2,M,,*63
$GLGSA,A,3,065,071,072,085,087,088,,,,,,,1.3,0.8,1.0*27
$GPGSA,A,3,008,010,021,022,023,027,032,,,,,,1.3,0.8,1.0*06
$GAGSA,A,3,126,,,,,,,,,,,,1.3,0.8,1.0*1D
$GPGSV,8,1,29,001,06,296,15,008,52,281,33,010,63,047,34,014,00,339,*7D
$GPGSV,8,2,29,018,06,109,19,021,33,301,30,022,33,171,32,023,31,059,34*7B
$GPGSV,8,3,29,024,10,056,,027,55,207,28,032,53,147,37,065,15,214,21*75
$GPGSV,8,4,29,070,08,036,,071,58,039,41,072,66,206,36,078,01,308,12*72
$GPGSV,8,5,29,079,04,355,12,085,07,134,25,087,58,330,41,088,12,319,42*77
$GPGSV,8,6,29,107,48,065,,108,05,035,,112,17,302,,113,03,116,*7C
$GPGSV,8,7,29,119,17,196,,124,09,305,,126,54,106,33,131,07,259,*7D
$GPGSV,8,8,29,133,69,320,*7D
$GPRMC,093803.00,A,4444.5456,N,03955.5363,E,000.00000,310.3,110822,,,A*5D
$GPZDA,093803.00,11,08,2022,+00,00*46
$GPGGA,093803.20,4444.5456,N,03955.5363,E,1,14,0.8,00139.7,M,0017.2,M,,*61
$GLGSA,A,3,065,071,072,085,087,088,,,,,,,1.3,0.8,1.0*27
$GPGSA,A,3,008,010,021,022,023,027,032,,,,,,1.3,0.8,1.0*06
$GAGSA,A,3,126,,,,,,,,,,,,1.3,0.8,1.0*1D
$GPRMC,093803.20,A,4444.5456,N,03955.5363,E,000.00000,302.1,110822,,,A*5E
$GPGGA,093803.40,4444.5456,N,03955.5363,E,1,14,0.8,00139.7,M,0017.2,M,,*67
$GLGSA,A,3,065,071,072,085,087,088,,,,,,,1.3,0.8,1.0*27
$GPGSA,A,3,008,010,021,022,023,027,032,,,,,,1.3,0.8,1.0*06
$GAGSA,A,3,126,,,,,,,,,,,,1.3,0.8,1.0*1D
$GPRMC,093803.40,A,4444.5456,N,03955.5363,E,000.00000,298.2,110822,,,A*59
$GPGGA,093803.60,4444.5456,N,03955.5363,E,1,14,0.8,00139.7,M,0017.2,M,,*65
$GLGSA,A,3,065,071,072,085,087,088,,,,,,,1.3,0.8,1.0*27
$GPGSA,A,3,008,010,021,022,023,027,032,,,,,,1.3,0.8,1.0*06
$GAGSA,A,3,126,,,,,,,,,,,,1.3,0.8,1.0*1D
$GPRMC,093803.60,A,4444.5456,N,03955.5363,E,000.00000,296.2,110822,,,A*55
$GPGGA,093803.80,4444.5456,N,03955.5363,E,1,14,0.8,00139.7,M,0017.2,M,,*6B
$GLGSA,A,3,065,071,072,085,087,088,,,,,,,1.3,0.8,1.0*27
$GPGSA,A,3,008,010,021,022,023,027,032,,,,,,1.3,0.8,1.0*06
$GAGSA,A,3,126,,,,,,,,,,,,1.3,0.8,1.0*1D
$GPRMC,093803.80,A,4444.5456,N,03955.5363,E,000.00000,295.1,110822,,,A*5B
$GPGGA,093804.00,4444.5456,N,03955.5363,E,1,14,0.8,00139.7,M,0017.2,M,,*64
$GLGSA,A,3,065,071,072,085,087,088,,,,,,,1.3,0.8,1.0*27
$GPGSA,A,3,008,010,021,022,023,027,032,,,,,,1.3,0.8,1.0*06
$GAGSA,A,3,126,,,,,,,,,,,,1.3,0.8,1.0*1D
$GPGSV,8,1,29,001,06,296,15,008,52,281,33,010,63,047,33,014,00,339,*7A
$GPGSV,8,2,29,018,06,109,20,021,33,301,30,022,33,171,32,023,31,059,34*71
$GPGSV,8,3,29,024,10,056,,027,55,207,28,032,53,147,37,065,15,214,21*75
$GPGSV,8,4,29,070,08,036,,071,58,039,41,072,66,206,36,078,01,308,11*71
$GPGSV,8,5,29,079,04,355,09,085,07,134,26,087,58,330,41,088,12,319,42*7E
$GPGSV,8,6,29,107,48,065,,108,05,035,,112,17,302,,113,03,116,*7C
$GPGSV,8,7,29,119,17,196,,124,09,305,,126,54,106,33,131,07,259,*7D
$GPGSV,8,8,29,133,69,320,*7D
$GPRMC,093804.00,A,4444.5456,N,03955.5363,E,000.00000,294.6,110822,,,A*52
$GPZDA,093804.00,11,08,2022,+00,00*41
$GPGGA,093804.20,4444.5456,N,03955.5363,E,1,14,0.8,00139.7,M,0017.2,M,,*66
$GLGSA,A,3,065,071,072,085,087,088,,,,,,,1.3,0.8,1.0*27
$GPGSA,A,3,008,010,021,022,023,027,032,,,,,,1.3,0.8,1.0*06
$GAGSA,A,3,126,,,,,,,,,,,,1.3,0.8,1.0*1D
$GPRMC,093804.20,A,4444.5456,N,03955.5363,E,000.00000,294.2,110822,,,A*54
$GPGGA,093804.40,4444.5456,N,03955.5363,E,1,14,0.8,00139.7,M,0017.2,M,,*60
$GLGSA,A,3,065,071,072,085,087,088,,,,,,,1.3,0.8,1.0*27
$GPGSA,A,3,008,010,021,022,023,027,032,,,,,,1.3,0.8,1.0*06
$GAGSA,A,3,126,,,,,,,,,,,,1.3,0.8,1.0*1D
$GPRMC,093804.40,A,4444.5456,N,03955.5363,E,000.00000,294.1,110822,,,A*51
$GPGGA,093804.60,4444.5456,N,03955.5363,E,1,14,0.8,00139.7,M,0017.2,M,,*62
$GLGSA,A,3,065,071,072,085,087,088,,,,,,,1.3,0.8,1.0*27
$GPGSA,A,3,008,010,021,022,023,027,032,,,,,,1.3,0.8,1.0*06
$GAGSA,A,3,126,,,,,,,,,,,,1.3,0.8,1.0*1D
$GPRMC,093804.60,A,4444.5456,N,03955.5363,E,000.00000,294.0,110822,,,A*52
$GPGGA,093804.80,4444.5456,N,03955.5363,E,1,14,0.8,00139.7,M,0017.2,M,,*6C
$GLGSA,A,3,065,071,072,085,087,088,,,,,,,1.3,0.8,1.0*27
$GPGSA,A,3,008,010,021,022,023,027,032,,,,,,1.3,0.8,1.0*06
$GAGSA,A,3,126,,,,,,,,,,,,1.3,0.8,1.0*1D
$GPRMC,093804.80,A,4444.5456,N,03955.5363,E,000.00000,293.9,110822,,,A*52
$GPGGA,093805.00,4444.5456,N,03955.5363,E,1,14,0.8,00139.7,M,0017.2,M,,*65
$GLGSA,A,3,065,071,072,085,087,088,,,,,,,1.3,0.8,1.0*27
$GPGSA,A,3,008,010,021,022,023,027,032,,,,,,1.3,0.8,1.0*06
$GAGSA,A,3,126,,,,,,,,,,,,1.3,0.8,1.0*1D
$GPGSV,8,1,29,001,06,296,16,008,52,281,33,010,63,047,34,014,00,338,*7F
$GPGSV,8,2,29,018,06,109,20,021,33,301,31,022,33,171,32,023,31,059,34*70
$GPGSV,8,3,29,024,10,056,,027,55,207,28,032,53,147,37,065,15,214,22*76
$GPGSV,8,4,29,070,08,036,,071,58,039,41,072,66,206,36,078,01,308,09*78
$GPGSV,8,5,29,079,04,355,08,085,07,134,26,087,58,330,41,088,12,319,42*7F
$GPGSV,8,6,29,107,48,065,,108,05,035,,112,17,302,,113,03,116,*7C
$GPGSV,8,7,29,119,17,196,,124,09,305,,126,54,106,33,131,07,259,*7D
$GPGSV,8,8,29,133,69,320,*7D
$GPRMC,093805.00,A,4444.5456,N,03955.5363,E,000.00000,293.9,110822,,,A*5B
$GPZDA,093805.00,11,08,2022,+00,00*40
$GPGGA,093805.20,4444.5456,N,03955.5363,E,1,14,0.8,00139.7,M,0017.2,M,,*67
$GLGSA,A,3,065,071,072,085,087,088,,,,,,,1.3,0.8,1.0*27
$GPGSA,A,3,008,010,021,022,023,027,032,,,,,,1.3,0.8,1.0*06
$GAGSA,A,3,126,,,,,,,,,,,,1.3,0.8,1.0*1D
$GPRMC,093805.20,A,4444.5456,N,03955.5363,E,000.00000,291.8,110822,,,A*5A
$GPGGA,093805.40,4444.5456,N,03955.5363,E,1,14,0.8,00139.7,M,0017.2,M,,*61
$GLGSA,A,3,065,071,072,085,087,088,,,,,,,1.3,0.8,1.0*27
$GPGSA,A,3,008,010,021,022,023,027,032,,,,,,1.3,0.8,1.0*06
$GAGSA,A,3,126,,,,,,,,,,,,1.3,0.8,1.0*1D
$GPRMC,093805.40,A,4444.5456,N,03955.5363,E,000.00000,294.2,110822,,,A*53
$GPGGA,093805.60,4444.5456,N,03955.5363,E,1,14,0.8,00139.7,M,0017.2,M,,*63
$GLGSA,A,3,065,071,072,085,087,088,,,,,,,1.3,0.8,1.0*27
$GPGSA,A,3,008,010,021,022,023,027,032,,,,,,1.3,0.8,1.0*06
$GAGSA,A,3,126,,,,,,,,,,,,1.3,0.8,1.0*1D
$GPRMC,093805.60,A,4444.5456,N,03955.5363,E,000.00000,295.8,110822,,,A*5A
$GPGGA,093805.80,4444.5456,N,03955.5363,E,1,14,0.8,00139.7,M,0017.2,M,,*6D
$GLGSA,A,3,065,071,072,085,087,088,,,,,,,1.3,0.8,1.0*27
$GPGSA,A,3,008,010,021,022,023,027,032,,,,,,1.3,0.8,1.0*06
$GAGSA,A,3,126,,,,,,,,,,,,1.3,0.8,1.0*1D
$GPRMC,093805.80,A,4444.5456,N,03955.5363,E,000.00000,298.4,110822,,,A*55
$GPGGA,093806.00,4444.5456,N,03955.5363,E,1,14,0.8,00139.7,M,0017.2,M,,*66
$GLGSA,A,3,065,071,072,085,087,088,,,,,,,1.3,0.8,1.0*27
$GPGSA,A,3,008,010,021,022,023,027,032,,,,,,1.3,0.8,1.0*06
$GAGSA,A,3,126,,,,,,,,,,,,1.3,0.8,1.0*1D
$GPGSV,8,1,29,001,06,296,,008,52,281,33,010,63,047,33,014,00,338,*7F
$GPGSV,8,2,29,018,05,109,19,021,33,301,30,022,33,171,33,023,31,059,34*79
$GPGSV,8,3,29,024,10,056,,027,55,207,28,032,53,147,37,065,15,214,24*70
$GPGSV,8,4,29,070,08,036,,071,58,039,40,072,66,206,36,078,01,308,10*71
$GPGSV,8,5,29,079,04,355,06,085,07,134,25,087,58,330,41,088,12,319,42*72
$GPGSV,8,6,29,107,48,065,,108,05,035,,112,17,302,,113,03,116,*7C
$GPGSV,8,7,29,119,17,196,,124,09,305,,126,54,106,34,131,07,259,*7A
$GPGSV,8,8,29,133,69,320,*7D
$GPRMC,093806.00,A,4444.5456,N,03955.5363,E,000.00000,303.2,110822,,,A*5B
$GPZDA,093806.00,11,08,2022,+00,00*43
$GPGGA,093806.20,4444.5456,N,03955.5363,E,1,14,0.8,00139.7,M,0017.2,M,,*64
$GLGSA,A,3,065,071,072,085,087,088,,,,,,,1.3,0.8,1.0*27
$GPGSA,A,3,008,010,021,022,023,027,032,,,,,,1.3,0.8,1.0*06
$GAGSA,A,3,126,,,,,,,,,,,,1.3,0.8,1.0*1D
$GPRMC,093806.20,A,4444.5456,N,03955.5363,E,000.00000,336.9,110822,,,A*54
$GPGGA,093806.40,4444.5456,N,03955.5363,E,1,14,0.8,00139.7,M,0017.2,M,,*62
$GLGSA,A,3,065,071,072,085,087,088,,,,,,,1.3,0.8,1.0*27
$GPGSA,A,3,008,010,021,022,023,027,032,,,,,,1.3,0.8,1.0*06
$GAGSA,A,3,126,,,,,,,,,,,,1.3,0.8,1.0*1D
$GPRMC,093806.40,A,4444.5456,N,03955.5363,E,000.00000,312.4,110822,,,A*59
$GPGGA,093806.60,4444.5456,N,03955.5363,E,1,14,0.8,00139.7,M,0017.2,M,,*60
$GLGSA,A,3,065,071,072,085,087,088,,,,,,,1.3,0.8,1.0*27
$GPGSA,A,3,008,010,021,022,023,027,032,,,,,,1.3,0.8,1.0*06
$GAGSA,A,3,126,,,,,,,,,,,,1.3,0.8,1.0*1D
$GPRMC,093806.60,A,4444.5456,N,03955.5363,E,000.00000,320.9,110822,,,A*57
$GPGGA,093806.80,4444.5456,N,03955.5363,E,1,14,0.8,00139.7,M,0017.2,M,,*6E
$GLGSA,A,3,065,071,072,085,087,088,,,,,,,1.3,0.8,1.0*27
$GPGSA,A,3,008,010,021,022,023,027,032,,,,,,1.3,0.8,1.0*06
$GAGSA,A,3,126,,,,,,,,,,,,1.3,0.8,1.0*1D
$GPRMC,093806.80,A,4444.5456,N,03955.5363,E,000.00000,336.3,110822,,,A*54
$GPGGA,093807.00,4444.5456,N,03955.5363,E,1,14,0.8,00139.7,M,0017.2,M,,*67
$GLGSA,A,3,065,071,072,085,087,088,,,,,,,1.3,0.8,1.0*27
$GPGSA,A,3,008,010,021,022,023,027,032,,,,,,1.3,0.8,1.0*06
$GAGSA,A,3,126,,,,,,,,,,,,1.3,0.8,1.0*1D
$GPGSV,8,1,29,001,06,296,,008,52,281,33,010,63,047,34,014,00,338,*78
$GPGSV,8,2,29,018,05,109,20,021,33,301,31,022,33,171,33,023,31,059,34*72
$GPGSV,8,3,29,024,10,056,,027,55,207,28,032,53,147,38,065,15,214,23*78
$GPGSV,8,4,29,070,08,036,,071,58,039,40,072,66,206,36,078,01,308,07*77
$GPGSV,8,5,29,079,04,355,07,085,07,134,23,087,58,330,41,088,12,319,42*75
$GPGSV,8,6,29,107,48,065,,108,05,035,,112,17,302,,113,03,116,*7C
$GPGSV,8,7,29,119,17,196,,124,09,305,,126,54,106,34,131,07,259,*7A
$GPGSV,8,8,29,133,69,320,*7D
$GPRMC,093807.00,A,4444.5456,N,03955.5363,E,000.00000,035.8,110822,,,A*56
$GPZDA,093807.00,11,08,2022,+00,00*42
$GPGGA,093807.20,4444.5456,N,03955.5363,E,1,14,0.8,00139.7,M,0017.2,M,,*65
$GLGSA,A,3,065,071,072,085,087,088,,,,,,,1.3,0.8,1.0*27
$GPGSA,A,3,008,010,021,022,023,027,032,,,,,,1.3,0.8,1.0*06
$GAGSA,A,3,126,,,,,,,,,,,,1.3,0.8,1.0*1D
$GPRMC,093807.20,A,4444.5456,N,03955.5363,E,000.00000,061.3,110822,,,A*5E
$GPGGA,093807.40,4444.5456,N,03955.5363,E,1,14,0.8,00139.7,M,0017.2,M,,*63
$GLGSA,A,3,065,071,072,085,087,088,,,,,,,1.3,0.8,1.0*27
$GPGSA,A,3,008,010,021,022,023,027,032,,,,,,1.3,0.8,1.0*06
$GAGSA,A,3,126,,,,,,,,,,,,1.3,0.8,1.0*1D
$GPRMC,093807.40,A,4444.5456,N,03955.5363,E,000.00000,069.4,110822,,,A*57
$GPGGA,093807.60,4444.5456,N,03955.5363,E,1,14,0.8,00139.7,M,0017.2,M,,*61
$GLGSA,A,3,065,071,072,085,087,088,,,,,,,1.3,0.8,1.0*27
$GPGSA,A,3,008,010,021,022,023,027,032,,,,,,1.3,0.8,1.0*06
$GAGSA,A,3,126,,,,,,,,,,,,1.3,0.8,1.0*1D
$GPRMC,093807.60,A,4444.5456,N,03955.5363,E,000.00000,309.0,110822,,,A*54
$GPGGA,093807.80,4444.5456,N,03955.5363,E,1,14,0.8,00139.7,M,0017.2,M,,*6F
$GLGSA,A,3,065,071,072,085,087,088,,,,,,,1.3,0.8,1.0*27
$GPGSA,A,3,008,010,021,022,023,027,032,,,,,,1.3,0.8,1.0*06
$GAGSA,A,3,126,,,,,,,,,,,,1.3,0.8,1.0*1D
$GPRMC,093807.80,A,4444.5456,N,03955.5363,E,000.00000,291.5,110822,,,A*5F
$GPGGA,093808.00,4444.5456,N,03955.5363,E,1,14,0.8,00139.7,M,0017.2,M,,*68
$GLGSA,A,3,065,071,072,085,087,088,,,,,,,1.3,0.8,1.0*27
$GPGSA,A,3,008,010,021,022,023,027,032,,,,,,1.3,0.8,1.0*06
$GAGSA,A,3,126,,,,,,,,,,,,1.3,0.8,1.0*1D
$GPGSV,8,1,29,001,06,296,,008,52,281,33,010,63,047,34,014,00,338,*78
$GPGSV,8,2,29,018,05,109,20,021,33,301,30,022,33,171,33,023,31,059,34*73
$GPGSV,8,3,29,024,10,056,,027,55,207,28,032,53,147,38,065,15,214,21*7A
$GPGSV,8,4,29,070,08,036,,071,57,039,40,072,66,206,36,078,01,308,*7F
