$GPGGA,095507.00,4444.5639,N,03955.5176,E,1,14,0.8,00143.6,M,0017.1,M,,*6E
$GLGSA,A,3,065,071,072,087,088,,,,,,,,1.5,0.8,1.3*1F
$GPGSA,A,3,001,008,010,021,022,023,027,032,,,,,1.5,0.8,1.3*32
$GAGSA,A,3,126,,,,,,,,,,,,1.5,0.8,1.3*18
$GPGSV,7,1,26,001,12,299,23,008,53,268,30,010,56,052,36,014,01,333,*7C
$GPGSV,7,2,26,018,00,114,,021,40,304,28,022,41,168,33,023,25,063,28*7C
$GPGSV,7,3,26,024,10,049,,027,47,201,20,032,60,137,41,065,23,218,30*79
$GPGSV,7,4,26,070,00,038,,071,49,036,40,072,76,217,37,079,04,347,*76
$GPGSV,7,5,26,085,00,139,,087,68,333,39,088,20,321,40,107,44,058,11*7C
$GPGSV,7,6,26,112,22,304,,119,23,197,,124,07,299,,126,49,114,27*75
$GPGSV,7,7,26,131,03,255,,133,75,326,*7B
$GPRMC,095507.00,A,4444.5639,N,03955.5176,E,000.00000,296.0,110822,,,A*53
$GPZDA,095507.00,11,08,2022,+00,00*49
$GPGGA,095507.20,4444.5639,N,03955.5176,E,1,15,0.8,00143.6,M,0017.1,M,,*6D
$GLGSA,A,3,065,071,072,087,088,,,,,,,,1.5,0.8,1.3*1F
$GPGSA,A,3,001,008,010,021,022,023,027,032,,,,,1.5,0.8,1.3*32
$GAGSA,A,3,107,126,,,,,,,,,,,1.5,0.8,1.3*2E
$GPRMC,095507.20,A,4444.5639,N,03955.5176,E,000.00000,295.0,110822,,,A*52
$GPGGA,095507.40,4444.5639,N,03955.5176,E,1,14,0.8,00143.6,M,0017.1,M,,*6A
$GLGSA,A,3,065,071,072,087,088,,,,,,,,1.5,0.8,1.3*1F
$GPGSA,A,3,001,008,010,021,022,023,027,032,,,,,1.5,0.8,1.3*32
$GAGSA,A,3,126,,,,,,,,,,,,1.5,0.8,1.3*18
$GPRMC,095507.40,A,4444.5639,N,03955.5176,E,000.00000,294.5,110822,,,A*50
$GPGGA,095507.60,4444.5639,N,03955.5176,E,1,14,0.8,00143.6,M,0017.1,M,,*68
$GLGSA,A,3,065,071,072,087,088,,,,,,,,1.5,0.8,1.3*1F
$GPGSA,A,3,001,008,010,021,022,023,027,032,,,,,1.5,0.8,1.3*32
$GAGSA,A,3,126,,,,,,,,,,,,1.5,0.8,1.3*18
$GPRMC,095507.60,A,4444.5639,N,03955.5176,E,000.00000,294.2,110822,,,A*55
$GPGGA,095507.80,4444.5639,N,03955.5176,E,1,15,0.8,00143.6,M,0017.1,M,,*67
$GLGSA,A,3,065,071,072,087,088,,,,,,,,1.5,0.8,1.3*1F
$GPGSA,A,3,001,008,010,021,022,023,027,032,,,,,1.5,0.8,1.3*32
$GAGSA,A,3,107,126,,,,,,,,,,,1.5,0.8,1.3*2E
$GPRMC,095507.80,A,4444.5639,N,03955.5176,E,000.00000,294.0,110822,,,A*59
$GPGGA,095508.00,4444.5639,N,03955.5176,E,1,15,0.8,00143.6,M,0017.1,M,,*60
$GLGSA,A,3,065,071,072,087,088,,,,,,,,1.5,0.8,1.3*1F
$GPGSA,A,3,001,008,010,021,022,023,027,032,,,,,1.5,0.8,1.3*32
$GAGSA,A,3,107,126,,,,,,,,,,,1.5,0.8,1.3*2E
$GPGSV,7,1,26,001,12,299,25,008,53,268,32,010,56,052,36,014,01,332,*79
$GPGSV,7,2,26,018,00,114,,021,40,304,28,022,41,168,33,023,25,063,29*7D
$GPGSV,7,3,26,024,10,049,,027,47,201,23,032,60,137,41,065,23,218,29*72
$GPGSV,7,4,26,070,00,038,,071,49,036,40,072,76,217,36,079,04,347,*77
$GPGSV,7,5,26,085,00,139,14,087,68,333,39,088,20,321,40,107,44,058,11*79
$GPGSV,7,6,26,112,22,304,,119,23,197,,124,07,299,,126,49,114,28*7A
$GPGSV,7,7,26,131,03,255,,133,75,326,*7B
$GPRMC,095508.00,A,4444.5639,N,03955.5176,E,000.00000,294.0,110822,,,A*5E
$GPZDA,095508.00,11,08,2022,+00,00*46
$GPGGA,095508.20,4444.5639,N,03955.5176,E,1,15,0.8,00143.6,M,0017.1,M,,*62
$GLGSA,A,3,065,071,072,087,088,,,,,,,,1.5,0.8,1.3*1F
$GPGSA,A,3,001,008,010,021,022,023,027,032,,,,,1.5,0.8,1.3*32
$GAGSA,A,3,107,126,,,,,,,,,,,1.5,0.8,1.3*2E
$GPRMC,095508.20,A,4444.5639,N,03955.5176,E,000.00000,293.9,110822,,,A*52
$GPGGA,095508.40,4444.5639,N,03955.5176,E,1,14,0.8,00143.6,M,0017.1,M,,*65
$GLGSA,A,3,065,071,072,087,088,,,,,,,,1.5,0.8,1.3*1F
$GPGSA,A,3,001,008,010,021,022,023,027,032,,,,,1.5,0.8,1.3*32
$GAGSA,A,3,126,,,,,,,,,,,,1.5,0.8,1.3*18
$GPRMC,095508.40,A,4444.5639,N,03955.5176,E,000.00000,293.9,110822,,,A*54
$GPGGA,095508.60,4444.5639,N,03955.5176,E,1,14,0.8,00143.6,M,0017.1,M,,*67
$GLGSA,A,3,065,071,072,087,088,,,,,,,,1.5,0.8,1.3*1F
$GPGSA,A,3,001,008,010,021,022,023,027,032,,,,,1.5,0.8,1.3*32
$GAGSA,A,3,126,,,,,,,,,,,,1.5,0.8,1.3*18
$GPRMC,095508.60,A,4444.5639,N,03955.5176,E,000.00000,293.9,110822,,,A*56
$GPGGA,095508.80,4444.5639,N,03955.5176,E,1,15,0.8,00143.6,M,0017.1,M,,*68
$GLGSA,A,3,065,071,072,087,088,,,,,,,,1.5,0.8,1.3*1F
$GPGSA,A,3,001,008,010,021,022,023,027,032,,,,,1.5,0.8,1.3*32
$GAGSA,A,3,107,126,,,,,,,,,,,1.5,0.8,1.3*2E
$GPRMC,095508.80,A,4444.5639,N,03955.5176,E,000.00000,293.8,110822,,,A*59
$GPGGA,095509.00,4444.5639,N,03955.5176,E,1,15,0.8,00143.6,M,0017.1,M,,*61
$GLGSA,A,3,065,071,072,087,088,,,,,,,,1.5,0.8,1.3*1F
$GPGSA,A,3,001,008,010,021,022,023,027,032,,,,,1.5,0.8,1.3*32
$GAGSA,A,3,107,126,,,,,,,,,,,1.5,0.8,1.3*2E
$GPGSV,7,1,26,001,12,299,25,008,53,268,30,010,56,052,36,014,01,332,*7B
$GPGSV,7,2,26,018,00,114,,021,40,304,28,022,41,168,33,023,24,063,27*72
$GPGSV,7,3,26,024,10,049,,027,47,201,25,032,60,137,41,065,23,218,27*7A
$GPGSV,7,4,26,070,00,038,,071,49,036,40,072,76,217,37,079,04,347,*76
$GPGSV,7,5,26,085,00,139,14,087,68,333,39,088,20,321,39,107,44,058,11*77
$GPGSV,7,6,26,112,22,304,,119,23,197,,124,07,299,,126,49,114,27*75
$GPGSV,7,7,26,131,03,255,,133,75,326,*7B
$GPRMC,095509.00,A,4444.5639,N,03955.5176,E,000.00000,293.8,110822,,,A*50
$GPZDA,095509.00,11,08,2022,+00,00*47
$GPGGA,095509.20,4444.5639,N,03955.5176,E,1,14,0.8,00143.6,M,0017.1,M,,*62
$GLGSA,A,3,065,071,072,087,088,,,,,,,,1.5,0.8,1.3*1F
$GPGSA,A,3,001,008,010,021,022,023,027,032,,,,,1.5,0.8,1.3*32
$GAGSA,A,3,126,,,,,,,,,,,,1.5,0.8,1.3*18
$GPRMC,095509.20,A,4444.5639,N,03955.5176,E,000.00000,293.8,110822,,,A*52
$GPGGA,095509.40,4444.5639,N,03955.5176,E,1,15,0.8,00143.6,M,0017.1,M,,*65
$GLGSA,A,3,065,071,072,087,088,,,,,,,,1.5,0.8,1.3*1F
$GPGSA,A,3,001,008,010,021,022,023,027,032,,,,,1.5,0.8,1.3*32
$GAGSA,A,3,107,126,,,,,,,,,,,1.5,0.8,1.3*2E
$GPRMC,095509.40,A,4444.5639,N,03955.5176,E,000.00000,293.8,110822,,,A*54
$GPGGA,095509.60,4444.5639,N,03955.5176,E,1,15,0.8,00143.6,M,0017.1,M,,*67
$GLGSA,A,3,065,071,072,087,088,,,,,,,,1.5,0.8,1.3*1F
$GPGSA,A,3,001,008,010,021,022,023,027,032,,,,,1.5,0.8,1.3*32
$GAGSA,A,3,107,126,,,,,,,,,,,1.5,0.8,1.3*2E
$GPRMC,095509.60,A,4444.5639,N,03955.5176,E,000.00000,293.8,110822,,,A*56
$GPGGA,095509.80,4444.5639,N,03955.5176,E,1,15,0.8,00143.6,M,0017.1,M,,*69
$GLGSA,A,3,065,071,072,087,088,,,,,,,,1.5,0.8,1.3*1F
$GPGSA,A,3,001,008,010,021,022,023,027,032,,,,,1.5,0.8,1.3*32
$GAGSA,A,3,107,126,,,,,,,,,,,1.5,0.8,1.3*2E
$GPRMC,095509.80,A,4444.5639,N,03955.5176,E,000.00000,293.8,110822,,,A*58
$GPGGA,095510.00,4444.5639,N,03955.5176,E,1,15,0.8,00143.6,M,0017.1,M,,*69
$GLGSA,A,3,065,071,072,087,088,,,,,,,,1.5,0.8,1.3*1F
$GPGSA,A,3,001,008,010,021,022,023,027,032,,,,,1.5,0.8,1.3*32
$GAGSA,A,3,107,126,,,,,,,,,,,1.5,0.8,1.3*2E
$GPGSV,7,1,26,001,12,299,26,008,53,268,30,010,56,052,37,014,01,332,*79
$GPGSV,7,2,26,018,00,114,,021,40,304,26,022,41,168,33,023,24,063,28*73
$GPGSV,7,3,26,024,10,049,,027,47,201,28,032,60,137,42,065,23,218,27*74
$GPGSV,7,4,26,070,00,038,,071,49,036,40,072,76,217,36,079,04,347,*77
$GPGSV,7,5,26,085,00,139,15,087,68,333,39,088,20,321,39,107,44,058,13*74
$GPGSV,7,6,26,112,22,304,,119,23,197,,124,07,299,,126,49,114,28*7A
$GPGSV,7,7,26,131,03,255,,133,75,326,*7B
$GPRMC,095510.00,A,4444.5639,N,03955.5176,E,000.00000,293.8,110822,,,A*58
$GPZDA,095510.00,11,08,2022,+00,00*4F
$GPGGA,095510.20,4444.5639,N,03955.5176,E,1,14,0.8,00143.6,M,0017.1,M,,*6A
$GLGSA,A,3,065,071,072,087,088,,,,,,,,1.6,0.8,1.3*1C
$GPGSA,A,3,001,008,010,022,023,027,032,,,,,,1.6,0.8,1.3*02
$GAGSA,A,3,107,126,,,,,,,,,,,1.6,0.8,1.3*2D
$GPRMC,095510.20,A,4444.5639,N,03955.5176,E,000.00000,293.8,110822,,,A*5A
$GPGGA,095510.40,4444.5639,N,03955.5176,E,1,15,0.8,00143.6,M,0017.1,M,,*6D
$GLGSA,A,3,065,071,072,087,088,,,,,,,,1.5,0.8,1.3*1F
$GPGSA,A,3,001,008,010,021,022,023,027,032,,,,,1.5,0.8,1.3*32
$GAGSA,A,3,107,126,,,,,,,,,,,1.5,0.8,1.3*2E
$GPRMC,095510.40,A,4444.5639,N,03955.5176,E,000.00000,293.8,110822,,,A*5C
$GPGGA,095510.60,4444.5639,N,03955.5176,E,1,14,0.8,00143.6,M,0017.1,M,,*6E
$GLGSA,A,3,065,071,072,087,088,,,,,,,,1.5,0.8,1.3*1F
$GPGSA,A,3,001,008,010,021,022,023,027,032,,,,,1.5,0.8,1.3*32
$GAGSA,A,3,126,,,,,,,,,,,,1.5,0.8,1.3*18
$GPRMC,095510.60,A,4444.5639,N,03955.5176,E,000.00000,284.1,110822,,,A*51
$GPGGA,095510.80,4444.5639,N,03955.5176,E,1,15,0.8,00143.6,M,0017.1,M,,*61
$GLGSA,A,3,065,071,072,087,088,,,,,,,,1.5,0.8,1.3*1F
$GPGSA,A,3,001,008,010,021,022,023,027,032,,,,,1.5,0.8,1.3*32
$GAGSA,A,3,107,126,,,,,,,,,,,1.5,0.8,1.3*2E
$GPRMC,095510.80,A,4444.5639,N,03955.5176,E,000.00000,288.5,110822,,,A*57
$GPGGA,095511.00,4444.5639,N,03955.5176,E,1,15,0.8,00143.6,M,0017.1,M,,*68
$GLGSA,A,3,065,071,072,087,088,,,,,,,,1.5,0.8,1.3*1F
$GPGSA,A,3,001,008,010,021,022,023,027,032,,,,,1.5,0.8,1.3*32
$GAGSA,A,3,107,126,,,,,,,,,,,1.5,0.8,1.3*2E
$GPGSV,7,1,26,001,12,299,25,008,53,268,29,010,56,052,36,014,01,332,*73
$GPGSV,7,2,26,018,00,114,,021,40,304,25,022,41,168,32,023,24,063,28*71
$GPGSV,7,3,26,024,10,049,,027,47,201,26,032,60,137,41,065,23,218,31*7E
$GPGSV,7,4,26,070,00,038,,071,48,036,40,072,76,217,36,079,04,347,*76
$GPGSV,7,5,26,085,00,139,15,087,68,333,39,088,20,321,39,107,44,058,10*77
$GPGSV,7,6,26,112,22,304,,119,23,197,,124,07,299,,126,49,114,28*7A
$GPGSV,7,7,26,131,03,255,,133,75,326,*7B
$GPRMC,095511.00,A,4444.5639,N,03955.5176,E,000.00000,290.9,110822,,,A*5B
$GPZDA,095511.00,11,08,2022,+00,00*4E
$GPGGA,095511.20,4444.5639,N,03955.5176,E,1,15,0.8,00143.6,M,0017.1,M,,*6A
$GLGSA,A,3,065,071,072,087,088,,,,,,,,1.5,0.8,1.3*1F
$GPGSA,A,3,001,008,010,021,022,023,027,032,,,,,1.5,0.8,1.3*32
$GAGSA,A,3,107,126,,,,,,,,,,,1.5,0.8,1.3*2E
$GPRMC,095511.20,A,4444.5639,N,03955.5176,E,000.00000,281.0,110822,,,A*50
$GPGGA,095511.40,4444.5639,N,03955.5176,E,1,15,0.8,00143.6,M,0017.1,M,,*6C
$GLGSA,A,3,065,071,072,087,088,,,,,,,,1.5,0.8,1.3*1F
$GPGSA,A,3,001,008,010,021,022,023,027,032,,,,,1.5,0.8,1.3*32
$GAGSA,A,3,107,126,,,,,,,,,,,1.5,0.8,1.3*2E
$GPRMC,095511.40,A,4444.5639,N,03955.5176,E,000.00000,286.7,110822,,,A*56
$GPGGA,095511.60,4444.5639,N,03955.5176,E,1,15,0.8,00143.6,M,0017.1,M,,*6E
$GLGSA,A,3,065,071,072,087,088,,,,,,,,1.5,0.8,1.3*1F
$GPGSA,A,3,001,008,010,021,022,023,027,032,,,,,1.5,0.8,1.3*32
$GAGSA,A,3,107,126,,,,,,,,,,,1.5,0.8,1.3*2E
$GPRMC,095511.60,A,4444.5639,N,03955.5176,E,000.00000,289.9,110822,,,A*55
$GPGGA,095511.80,4444.5639,N,03955.5176,E,1,15,0.8,00143.6,M,0017.1,M,,*60
$GLGSA,A,3,065,071,072,087,088,,,,,,,,1.5,0.8,1.3*1F
$GPGSA,A,3,001,008,010,021,022,023,027,032,,,,,1.5,0.8,1.3*32
$GAGSA,A,3,107,126,,,,,,,,,,,1.5,0.8,1.3*2E
$GPRMC,095511.80,A,4444.5639,N,03955.5176,E,000.00000,291.6,110822,,,A*5D
$GPGGA,095512.00,4444.5639,N,03955.5176,E,1,14,0.8,00143.6,M,0017.1,M,,*6A
$GLGSA,A,3,065,071,072,087,088,,,,,,,,1.5,0.8,1.3*1F
$GPGSA,A,3,001,008,010,021,022,023,027,032,,,,,1.5,0.8,1.3*32
$GAGSA,A,3,126,,,,,,,,,,,,1.5,0.8,1.3*18
$GPGSV,7,1,26,001,12,299,24,008,53,268,30,010,56,052,37,014,01,332,*7B
$GPGSV,7,2,26,018,00,114,,021,40,304,26,022,41,168,33,023,24,063,28*73
$GPGSV,7,3,26,024,10,049,,027,47,201,27,032,60,137,41,065,23,218,31*7F
$GPGSV,7,4,26,070,00,038,,071,48,036,40,072,76,217,35,079,04,347,13*77
$GPGSV,7,5,26,085,00,139,13,087,68,333,39,088,20,321,38,107,44,058,12*72
$GPGSV,7,6,26,112,22,304,,119,23,197,,124,07,299,,126,49,114,27*75
$GPGSV,7,7,26,131,03,255,,133,75,326,*7B
$GPRMC,095512.00,A,4444.5639,N,03955.5176,E,000.00000,267.8,110822,,,A*51
$GPZDA,095512.00,11,08,2022,+00,00*4D
$GPGGA,095512.20,4444.5639,N,03955.5176,E,1,15,0.8,00143.6,M,0017.1,M,,*69
$GLGSA,A,3,065,071,072,087,088,,,,,,,,1.5,0.8,1.3*1F
$GPGSA,A,3,001,008,010,021,022,023,027,032,,,,,1.5,0.8,1.3*32
$GAGSA,A,3,107,126,,,,,,,,,,,1.5,0.8,1.3*2E
$GPRMC,095512.20,A,4444.5639,N,03955.5176,E,000.00000,279.7,110822,,,A*53
$GPGGA,095512.40,4444.5639,N,03955.5176,E,1,15,0.8,00143.6,M,0017.1,M,,*6F
$GLGSA,A,3,065,071,072,087,088,,,,,,,,1.5,0.8,1.3*1F
$GPGSA,A,3,001,008,010,021,022,023,027,032,,,,,1.5,0.8,1.3*32
$GAGSA,A,3,107,126,,,,,,,,,,,1.5,0.8,1.3*2E
$GPRMC,095512.40,A,4444.5639,N,03955.5176,E,000.00000,285.0,110822,,,A*51
$GPGGA,095512.60,4444.5639,N,03955.5176,E,1,15,0.8,00143.6,M,0017.1,M,,*6D
$GLGSA,A,3,065,071,072,087,088,,,,,,,,1.5,0.8,1.3*1F
$GPGSA,A,3,001,008,010,021,022,023,027,032,,,,,1.5,0.8,1.3*32
$GAGSA,A,3,107,126,,,,,,,,,,,1.5,0.8,1.3*2E
$GPRMC,095512.60,A,4444.5639,N,03955.5176,E,000.00000,276.2,110822,,,A*5D
$GPGGA,095512.80,4444.5639,N,03955.5176,E,1,14,0.8,00143.6,M,0017.1,M,,*62
$GLGSA,A,3,065,071,072,087,088,,,,,,,,1.5,0.8,1.3*1F
$GPGSA,A,3,001,008,010,021,022,023,027,032,,,,,1.5,0.8,1.3*32
$GAGSA,A,3,107,,,,,,,,,,,,1.5,0.8,1.3*1B
$GPRMC,095512.80,A,4444.5639,N,03955.5176,E,000.00000,262.5,110822,,,A*51
$GPGGA,095513.00,4444.5639,N,03955.5176,E,1,14,0.8,00143.6,M,0017.1,M,,*6B
$GLGSA,A,3,065,071,072,087,088,,,,,,,,1.5,0.8,1.3*1F
$GPGSA,A,3,001,008,010,021,022,023,027,032,,,,,1.5,0.8,1.3*32
$GAGSA,A,3,126,,,,,,,,,,,,1.5,0.8,1.3*18
$GPGSV,7,1,26,001,12,299,22,008,53,268,30,010,56,052,37,014,01,332,*7D
$GPGSV,7,2,26,018,00,114,,021,40,304,26,022,41,168,33,023,24,063,27*7C
$GPGSV,7,3,26,024,10,049,,027,47,201,26,032,60,137,41,065,23,218,33*7C
$GPGSV,7,4,26,070,00,038,,071,48,036,40,072,76,217,35,079,04,347,08*7D
$GPGSV,7,5,26,085,00,139,16,087,68,333,38,088,20,321,38,107,44,058,12*76
$GPGSV,7,6,26,112,22,304,,119,23,197,,124,07,299,,126,49,114,26*74
$GPGSV,7,7,26,131,03,255,,133,75,326,*7B
$GPRMC,095513.00,A,4444.5639,N,03955.5176,E,000.00000,252.8,110822,,,A*56
$GPZDA,095513.00,11,08,2022,+00,00*4C
$GPGGA,095513.20,4444.5639,N,03955.5176,E,1,14,0.8,00143.6,M,0017.1,M,,*69
$GLGSA,A,3,065,071,072,087,088,,,,,,,,1.5,0.8,1.3*1F
$GPGSA,A,3,001,008,010,021,022,023,027,032,,,,,1.5,0.8,1.3*32
$GAGSA,A,3,107,,,,,,,,,,,,1.5,0.8,1.3*1B
$GPRMC,095513.20,A,4444.5639,N,03955.5176,E,000.00000,247.1,110822,,,A*59
$GPGGA,095513.40,4444.5639,N,03955.5176,E,1,15,0.8,00143.6,M,0017.1,M,,*6E
$GLGSA,A,3,065,071,072,087,088,,,,,,,,1.5,0.8,1.3*1F
$GPGSA,A,3,001,008,010,021,022,023,027,032,,,,,1.5,0.8,1.3*32
$GAGSA,A,3,107,126,,,,,,,,,,,1.5,0.8,1.3*2E
$GPRMC,095513.40,A,4444.5639,N,03955.5176,E,000.00000,244.1,110822,,,A*5C
$GPGGA,095513.60,4444.5639,N,03955.5176,E,1,15,0.8,00143.6,M,0017.1,M,,*6C
$GLGSA,A,3,065,071,072,087,088,,,,,,,,1.5,0.8,1.3*1F
$GPGSA,A,3,001,008,010,021,022,023,027,032,,,,,1.5,0.8,1.3*32
$GAGSA,A,3,107,126,,,,,,,,,,,1.5,0.8,1.3*2E
$GPRMC,095513.60,A,4444.5639,N,03955.5176,E,000.00000,242.5,110822,,,A*5C
$GPGGA,095513.80,4444.5639,N,03955.5176,E,1,15,0.8,00143.6,M,0017.1,M,,*62
$GLGSA,A,3,065,071,072,087,088,,,,,,,,1.5,0.8,1.3*1F
$GPGSA,A,3,001,008,010,021,022,023,027,032,,,,,1.5,0.8,1.3*32
$GAGSA,A,3,107,126,,,,,,,,,,,1.5,0.8,1.3*2E
$GPRMC,095513.80,A,4444.5639,N,03955.5176,E,000.00000,241.6,110822,,,A*52
$GPGGA,095514.00,4444.5639,N,03955.5176,E,1,15,0.8,00143.6,M,0017.1,M,,*6D
$GLGSA,A,3,065,071,072,087,088,,,,,,,,1.5,0.8,1.3*1F
$GPGSA,A,3,001,008,010,021,022,023,027,032,,,,,1.5,0.8,1.3*32
$GAGSA,A,3,107,126,,,,,,,,,,,1.5,0.8,1.3*2E
$GPGSV,7,1,26,001,12,299,21,008,53,268,31,010,56,052,38,014,01,332,*70
$GPGSV,7,2,26,018,00,114,,021,40,304,26,022,41,168,34,023,24,063,28*74
$GPGSV,7,3,26,024,10,049,,027,47,201,27,032,60,137,42,065,23,218,35*78
$GPGSV,7,4,26,070,00,038,,071,48,036,40,072,76,217,35,079,04,347,11*75
$GPGSV,7,5,26,085,00,139,15,087,68,333,38,088,20,321,39,107,44,058,16*70
$GPGSV,7,6,26,112,22,304,,119,23,197,,124,07,299,,126,49,114,27*75
$GPGSV,7,7,26,131,03,255,,133,75,326,*7B
$GPRMC,095514.00,A,4444.5639,N,03955.5176,E,000.00000,241.1,110822,,,A*5A
$GPZDA,095514.00,11,08,2022,+00,00*4B
$GPGGA,095514.20,4444.5639,N,03955.5176,E,1,15,0.8,00143.6,M,0017.1,M,,*6F
$GLGSA,A,3,065,071,072,087,088,,,,,,,,1.5,0.8,1.3*1F
$GPGSA,A,3,001,008,010,021,022,023,027,032,,,,,1.5,0.8,1.3*32
$GAGSA,A,3,107,126,,,,,,,,,,,1.5,0.8,1.3*2E
$GPRMC,095514.20,A,4444.5639,N,03955.5176,E,000.00000,240.8,110822,,,A*50
$GPGGA,095514.40,4444.5639,N,03955.5176,E,1,15,0.8,00143.6,M,0017.1,M,,*69
$GLGSA,A,3,065,071,072,087,088,,,,,,,,1.5,0.8,1.3*1F
$GPGSA,A,3,001,008,010,021,022,023,027,032,,,,,1.5,0.8,1.3*32
$GAGSA,A,3,107,126,,,,,,,,,,,1.5,0.8,1.3*2E
$GPRMC,095514.40,A,4444.5639,N,03955.5176,E,000.00000,240.7,110822,,,A*59
$GPGGA,095514.60,4444.5639,N,03955.5176,E,1,14,0.8,00143.6,M,0017.1,M,,*6A
$GLGSA,A,3,065,071,072,087,088,,,,,,,,1.5,0.8,1.3*1F
$GPGSA,A,3,001,008,010,021,022,023,027,032,,,,,1.5,0.8,1.3*32
$GAGSA,A,3,126,,,,,,,,,,,,1.5,0.8,1.3*18
$GPRMC,095514.60,A,4444.5639,N,03955.5176,E,000.00000,240.6,110822,,,A*5A
$GPGGA,095514.80,4444.5639,N,03955.5176,E,1,15,0.8,00143.6,M,0017.1,M,,*65
$GLGSA,A,3,065,071,072,087,088,,,,,,,,1.5,0.8,1.3*1F
$GPGSA,A,3,001,008,010,021,022,023,027,032,,,,,1.5,0.8,1.3*32
$GAGSA,A,3,107,126,,,,,,,,,,,1.5,0.8,1.3*2E
$GPRMC,095514.80,A,4444.5639,N,03955.5176,E,000.00000,240.5,110822,,,A*57
$GPGGA,095515.00,4444.5639,N,03955.5176,E,1,14,0.8,00143.6,M,0017.1,M,,*6D
$GLGSA,A,3,065,071,072,087,088,,,,,,,,1.5,0.8,1.3*1F
$GPGSA,A,3,001,008,010,021,022,023,027,032,,,,,1.5,0.8,1.3*32
$GAGSA,A,3,126,,,,,,,,,,,,1.5,0.8,1.3*18
$GPGSV,7,1,26,001,12,299,20,008,53,268,30,010,56,052,37,014,01,332,*7F
$GPGSV,7,2,26,018,00,114,,021,40,304,26,022,41,168,33,023,24,063,27*7C
$GPGSV,7,3,26,024,10,049,,027,47,201,28,032,60,137,41,065,23,218,35*74
$GPGSV,7,4,26,070,00,038,,071,48,036,40,072,76,217,35,079,04,347,08*7D
$GPGSV,7,5,26,085,00,139,15,087,68,333,38,088,20,321,39,107,44,058,14*72
$GPGSV,7,6,26,112,22,304,,119,23,197,,124,07,299,,126,49,114,27*75
$GPGSV,7,7,26,131,03,255,,133,75,326,*7B
$GPRMC,095515.00,A,4444.5639,N,03955.5176,E,000.00000,240.5,110822,,,A*5E
$GPZDA,095515.00,11,08,2022,+00,00*4A
$GPGGA,095515.20,4444.5639,N,03955.5176,E,1,14,0.8,00143.6,M,0017.1,M,,*6F
$GLGSA,A,3,065,071,072,087,088,,,,,,,,1.7,0.8,1.5*1B
$GPGSA,A,3,008,010,021,022,023,027,032,,,,,,1.7,0.8,1.5*07
$GAGSA,A,3,107,126,,,,,,,,,,,1.7,0.8,1.5*2A
$GPRMC,095515.20,A,4444.5639,N,03955.5176,E,000.00000,265.1,110822,,,A*5F
$GPGGA,095515.40,4444.5639,N,03955.5176,E,1,15,0.8,00143.6,M,0017.1,M,,*68
$GLGSA,A,3,065,071,072,087,088,,,,,,,,1.5,0.8,1.3*1F
$GPGSA,A,3,001,008,010,021,022,023,027,032,,,,,1.5,0.8,1.3*32
$GAGSA,A,3,107,126,,,,,,,,,,,1.5,0.8,1.3*2E
$GPRMC,095515.40,A,4444.5639,N,03955.5176,E,000.00000,260.9,110822,,,A*54
$GPGGA,095515.60,4444.5639,N,03955.5176,E,1,15,0.8,00143.6,M,0017.1,M,,*6A
$GLGSA,A,3,065,071,072,087,088,,,,,,,,1.5,0.8,1.3*1F
$GPGSA,A,3,001,008,010,021,022,023,027,032,,,,,1.5,0.8,1.3*32
$GAGSA,A,3,107,126,,,,,,,,,,,1.5,0.8,1.3*2E
$GPRMC,095515.60,A,4444.5639,N,03955.5176,E,000.00000,259.5,110822,,,A*50
$GPGGA,095515.80,4444.5639,N,03955.5176,E,1,15,0.8,00143.6,M,0017.1,M,,*64
$GLGSA,A,3,065,071,072,087,088,,,,,,,,1.5,0.8,1.3*1F
$GPGSA,A,3,001,008,010,021,022,023,027,032,,,,,1.5,0.8,1.3*32
$GAGSA,A,3,107,126,,,,,,,,,,,1.5,0.8,1.3*2E
$GPRMC,095515.80,A,4444.5639,N,03955.5176,E,000.00000,257.5,110822,,,A*50
$GPGGA,095516.00,4444.5639,N,03955.5176,E,1,15,0.8,00143.6,M,0017.1,M,,*6F
$GLGSA,A,3,065,071,072,087,088,,,,,,,,1.5,0.8,1.3*1F
$GPGSA,A,3,001,008,010,021,022,023,027,032,,,,,1.5,0.8,1.3*32
$GAGSA,A,3,107,126,,,,,,,,,,,1.5,0.8,1.3*2E
$GPGSV,7,1,26,001,12,299,21,008,53,268,30,010,56,052,38,014,01,332,*71
$GPGSV,7,2,26,018,00,114,,021,40,304,26,022,41,168,33,023,24,063,28*73
$GPGSV,7,3,26,024,10,049,,027,47,201,29,032,60,137,42,065,23,218,35*76
$GPGSV,7,4,26,070,00,038,,071,48,036,40,072,76,217,35,079,04,347,11*75
$GPGSV,7,5,26,085,00,139,14,087,68,333,38,088,20,321,39,107,44,058,17*70
$GPGSV,7,6,26,112,22,304,,119,23,197,,124,07,299,,126,49,114,28*7A
$GPGSV,7,7,26,131,03,255,,133,75,326,*7B
$GPRMC,095516.00,A,4444.5639,N,03955.5176,E,000.00000,252.5,110822,,,A*5E
$GPZDA,095516.00,11,08,2022,+00,00*49
$GPGGA,095516.20,4444.5639,N,03955.5176,E,1,15,0.8,00143.6,M,0017.1,M,,*6D
$GLGSA,A,3,065,071,072,087,088,,,,,,,,1.5,0.8,1.3*1F
$GPGSA,A,3,001,008,010,021,022,023,027,032,,,,,1.5,0.8,1.3*32
$GAGSA,A,3,107,126,,,,,,,,,,,1.5,0.8,1.3*2E
$GPRMC,095516.20,A,4444.5639,N,03955.5176,E,000.00000,252.1,110822,,,A*58
$GPGGA,095516.40,4444.5639,N,03955.5176,E,1,15,0.8,00143.6,M,0017.1,M,,*6B
$GLGSA,A,3,065,071,072,087,088,,,,,,,,1.5,0.8,1.3*1F
$GPGSA,A,3,001,008,010,021,022,023,027,032,,,,,1.5,0.8,1.3*32
$GAGSA,A,3,107,126,,,,,,,,,,,1.5,0.8,1.3*2E
$GPRMC,095516.40,A,4444.5639,N,03955.5176,E,000.00000,263.9,110822,,,A*54
$GPGGA,095516.60,4444.5639,N,03955.5176,E,1,15,0.8,00143.6,M,0017.1,M,,*69
$GLGSA,A,3,065,071,072,087,088,,,,,,,,1.5,0.8,1.3*1F
$GPGSA,A,3,001,008,010,021,022,023,027,032,,,,,1.5,0.8,1.3*32
$GAGSA,A,3,107,126,,,,,,,,,,,1.5,0.8,1.3*2E
$GPRMC,095516.60,A,4444.5639,N,03955.5176,E,000.00000,268.6,110822,,,A*52
$GPGGA,095516.80,4444.5639,N,03955.5176,E,1,15,0.8,00143.6,M,0017.1,M,,*67
$GLGSA,A,3,065,071,072,087,088,,,,,,,,1.5,0.8,1.3*1F
$GPGSA,A,3,001,008,010,021,022,023,027,032,,,,,1.5,0.8,1.3*32
$GAGSA,A,3,107,126,,,,,,,,,,,1.5,0.8,1.3*2E
$GPRMC,095516.80,A,4444.5639,N,03955.5176,E,000.00000,272.1,110822,,,A*50
$GPGGA,095517.00,4444.5639,N,03955.5176,E,1,14,0.8,00143.6,M,0017.1,M,,*6F
$GLGSA,A,3,065,071,072,087,088,,,,,,,,1.5,0.8,1.3*1F
$GPGSA,A,3,001,008,010,021,022,023,027,032,,,,,1.5,0.8,1.3*32
$GAGSA,A,3,126,,,,,,,,,,,,1.5,0.8,1.3*18
$GPGSV,7,1,26,001,12,299,20,008,53,268,30,010,56,052,37,014,01,332,*7F
$GPGSV,7,2,26,018,00,114,,021,40,304,25,022,41,168,33,023,24,063,27*7F
$GPGSV,7,3,26,024,10,049,,027,47,201,29,032,60,137,41,065,23,218,35*75
$GPGSV,7,4,26,070,00,038,,071,48,036,40,072,76,217,36,079,04,347,07*71
$GPGSV,7,5,26,085,00,139,13,087,68,333,37,088,20,321,39,107,44,058,17*78
$GPGSV,7,6,26,112,22,304,,119,23,197,,124,07,299,,126,49,114,27*75
$GPGSV,7,7,26,131,03,255,,133,75,326,*7B
$GPRMC,095517.00,A,4444.5639,N,03955.5176,E,000.00000,267.8,110822,,,A*54
$GPZDA,095517.00,11,08,2022,+00,00*48
$GPGGA,095517.20,4444.5639,N,03955.5176,E,1,15,0.8,00143.6,M,0017.1,M,,*6C
$GLGSA,A,3,065,071,072,087,088,,,,,,,,1.5,0.8,1.3*1F
$GPGSA,A,3,001,008,010,021,022,023,027,032,,,,,1.5,0.8,1.3*32
$GAGSA,A,3,107,126,,,,,,,,,,,1.5,0.8,1.3*2E
$GPRMC,095517.20,A,4444.5639,N,03955.5176,E,000.00000,273.0,110822,,,A*5B
$GPGGA,095517.40,4444.5639,N,03955.5176,E,1,15,0.8,00143.6,M,0017.1,M,,*6A
$GLGSA,A,3,065,071,072,087,088,,,,,,,,1.5,0.8,1.3*1F
$GPGSA,A,3,001,008,010,021,022,023,027,032,,,,,1.5,0.8,1.3*32
$GAGSA,A,3,107,126,,,,,,,,,,,1.5,0.8,1.3*2E
$GPRMC,095517.40,A,4444.5639,N,03955.5176,E,000.00000,278.0,110822,,,A*56
$GPGGA,095517.60,4444.5639,N,03955.5176,E,1,15,0.8,00143.6,M,0017.1,M,,*68
$GLGSA,A,3,065,071,072,087,088,,,,,,,,1.5,0.8,1.3*1F
$GPGSA,A,3,001,008,010,021,022,023,027,032,,,,,1.5,0.8,1.3*32
$GAGSA,A,3,107,126,,,,,,,,,,,1.5,0.8,1.3*2E
$GPRMC,095517.60,A,4444.5639,N,03955.5176,E,000.00000,277.7,110822,,,A*5C
$GPGGA,095517.80,4444.5639,N,03955.5176,E,1,14,0.8,00143.6,M,0017.1,M,,*67
$GLGSA,A,3,065,071,072,087,088,,,,,,,,1.7,0.8,1.5*1B
$GPGSA,A,3,008,010,021,022,023,027,032,,,,,,1.7,0.8,1.5*07
$GAGSA,A,3,107,126,,,,,,,,,,,1.7,0.8,1.5*2A
$GPRMC,095517.80,A,4444.5639,N,03955.5176,E,000.00000,283.7,110822,,,A*59
$GPGGA,095518.00,4444.5639,N,03955.5176,E,1,15,0.8,00143.6,M,0017.1,M,,*61
$GLGSA,A,3,065,071,072,087,088,,,,,,,,1.5,0.8,1.3*1F
$GPGSA,A,3,001,008,010,021,022,023,027,032,,,,,1.5,0.8,1.3*32
$GAGSA,A,3,107,126,,,,,,,,,,,1.5,0.8,1.3*2E
$GPGSV,7,1,26,001,12,299,19,008,53,268,31,010,56,052,38,014,01,332,*7B
$GPGSV,7,2,26,018,00,114,,021,40,304,26,022,41,168,33,023,24,063,28*73
$GPGSV,7,3,26,024,10,049,,027,47,201,29,032,60,137,42,065,23,218,35*76
$GPGSV,7,4,26,070,00,038,,071,48,036,40,072,76,217,36,079,04,347,09*7F
$GPGSV,7,5,26,085,00,139,15,087,68,333,37,088,20,321,39,107,44,058,17*7E
$GPGSV,7,6,26,112,22,304,,119,23,197,,124,07,299,,126,49,114,28*7A
$GPGSV,7,7,26,131,03,255,,133,75,326,*7B
$GPRMC,095518.00,A,4444.5639,N,03955.5176,E,000.00000,288.3,110822,,,A*51
$GPZDA,095518.00,11,08,2022,+00,00*47
$GPGGA,095518.20,4444.5639,N,03955.5175,E,1,14,0.8,00143.7,M,0017.1,M,,*60
$GLGSA,A,3,065,071,072,087,088,,,,,,,,1.7,0.8,1.5*1B
$GPGSA,A,3,008,010,021,022,023,027,032,,,,,,1.7,0.8,1.5*07
$GAGSA,A,3,107,126,,,,,,,,,,,1.7,0.8,1.5*2A
$GPRMC,095518.20,A,4444.5639,N,03955.5175,E,000.00000,293.8,110822,,,A*51
$GPGGA,095518.40,4444.5639,N,03955.5175,E,1,15,0.8,00143.7,M,0017.1,M,,*67
$GLGSA,A,3,065,071,072,087,088,,,,,,,,1.5,0.8,1.3*1F
$GPGSA,A,3,001,008,010,021,022,023,027,032,,,,,1.5,0.8,1.3*32
$GAGSA,A,3,107,126,,,,,,,,,,,1.5,0.8,1.3*2E
$GPRMC,095518.40,A,4444.5639,N,03955.5175,E,000.00000,293.8,110822,,,A*57
$GPGGA,095518.60,4444.5639,N,03955.5175,E,1,14,0.8,00143.7,M,0017.1,M,,*64
$GLGSA,A,3,065,071,072,087,088,,,,,,,,1.5,0.8,1.3*1F
$GPGSA,A,3,001,008,010,021,022,023,027,032,,,,,1.5,0.8,1.3*32
$GAGSA,A,3,126,,,,,,,,,,,,1.5,0.8,1.3*18
$GPRMC,095518.60,A,4444.5639,N,03955.5175,E,000.00000,293.8,110822,,,A*55
$GPGGA,095518.80,4444.5639,N,03955.5175,E,1,15,0.8,00143.7,M,0017.1,M,,*6B
$GLGSA,A,3,065,071,072,087,088,,,,,,,,1.5,0.8,1.3*1F
$GPGSA,A,3,001,008,010,021,022,023,027,032,,,,,1.5,0.8,1.3*32
$GAGSA,A,3,107,126,,,,,,,,,,,1.5,0.8,1.3*2E
$GPRMC,095518.80,A,4444.5639,N,03955.5175,E,000.00000,293.8,110822,,,A*5B
$GPGGA,095519.00,4444.5639,N,03955.5175,E,1,14,0.8,00143.7,M,0017.1,M,,*63
$GLGSA,A,3,065,071,072,087,088,,,,,,,,1.5,0.8,1.3*1F
$GPGSA,A,3,001,008,010,021,022,023,027,032,,,,,1.5,0.8,1.3*32
$GAGSA,A,3,126,,,,,,,,,,,,1.5,0.8,1.3*18
$GPGSV,7,1,26,001,12,299,19,008,53,268,30,010,56,052,37,014,01,332,*75
$GPGSV,7,2,26,018,00,114,,021,40,304,25,022,41,168,33,023,24,063,27*7F
$GPGSV,7,3,26,024,10,049,,027,47,201,29,032,60,137,41,065,23,218,35*75
$GPGSV,7,4,26,070,00,038,,071,48,036,40,072,76,217,36,079,04,347,06*70
$GPGSV,7,5,26,085,00,139,17,087,68,333,37,088,20,321,39,107,44,058,17*7C
$GPGSV,7,6,26,112,22,304,,119,23,197,,124,07,299,,126,49,114,27*75
$GPGSV,7,7,26,131,03,255,,133,75,326,*7B
$GPRMC,095519.00,A,4444.5639,N,03955.5175,E,000.00000,293.8,110822,,,A*52
$GPZDA,095519.00,11,08,2022,+00,00*46
$GPGGA,095519.20,4444.5639,N,03955.5175,E,1,15,0.8,00143.7,M,0017.1,M,,*60
$GLGSA,A,3,065,071,072,087,088,,,,,,,,1.5,0.8,1.3*1F
$GPGSA,A,3,001,008,010,021,022,023,027,032,,,,,1.5,0.8,1.3*32
$GAGSA,A,3,107,126,,,,,,,,,,,1.5,0.8,1.3*2E
$GPRMC,095519.20,A,4444.5639,N,03955.5175,E,000.00000,293.8,110822,,,A*50
$GPGGA,095519.40,4444.5639,N,03955.5175,E,1,14,0.8,00143.7,M,0017.1,M,,*67
$GLGSA,A,3,065,071,072,087,088,,,,,,,,1.5,0.8,1.3*1F
$GPGSA,A,3,001,008,010,021,022,023,027,032,,,,,1.5,0.8,1.3*32
$GAGSA,A,3,126,,,,,,,,,,,,1.5,0.8,1.3*18
$GPRMC,095519.40,A,4444.5639,N,03955.5175,E,000.00000,293.8,110822,,,A*56
$GPGGA,095519.60,4444.5639,N,03955.5175,E,1,14,0.8,00143.7,M,0017.1,M,,*65
$GLGSA,A,3,065,071,072,087,088,,,,,,,,1.7,0.8,1.5*1B
$GPGSA,A,3,008,010,021,022,023,027,032,,,,,,1.7,0.8,1.5*07
$GAGSA,A,3,107,126,,,,,,,,,,,1.7,0.8,1.5*2A
$GPRMC,095519.60,A,4444.5639,N,03955.5175,E,000.00000,293.8,110822,,,A*54
$GPGGA,095519.80,4444.5639,N,03955.5175,E,1,15,0.8,00143.7,M,0017.1,M,,*6A
$GLGSA,A,3,065,071,072,087,088,,,,,,,,1.5,0.8,1.3*1F
$GPGSA,A,3,001,008,010,021,022,023,027,032,,,,,1.5,0.8,1.3*32
$GAGSA,A,3,107,126,,,,,,,,,,,1.5,0.8,1.3*2E
$GPRMC,095519.80,A,4444.5639,N,03955.5175,E,000.00000,293.8,110822,,,A*5A
$GPGGA,095520.00,4444.5639,N,03955.5175,E,1,15,0.8,00143.7,M,0017.1,M,,*68
$GLGSA,A,3,065,071,072,087,088,,,,,,,,1.5,0.8,1.3*1F
$GPGSA,A,3,001,008,010,021,022,023,027,032,,,,,1.5,0.8,1.3*32
$GAGSA,A,3,107,126,,,,,,,,,,,1.5,0.8,1.3*2E
$GPGSV,7,1,26,001,12,299,19,008,53,268,31,010,56,052,38,014,01,332,*7B
$GPGSV,7,2,26,018,00,114,,021,40,304,25,022,41,168,34,023,24,063,27*78
$GPGSV,7,3,26,024,10,049,,027,47,201,29,032,60,137,41,065,23,218,35*75
$GPGSV,7,4,26,070,00,038,,071,48,036,40,072,76,217,36,079,04,347,*76
$GPGSV,7,5,26,085,00,139,16,087,68,333,37,088,20,321,39,107,44,058,18*72
$GPGSV,7,6,26,112,22,304,,119,23,197,,124,07,299,,126,49,114,28*7A
$GPGSV,7,7,26,131,03,255,,133,75,326,*7B
$GPRMC,095520.00,A,4444.5639,N,03955.5175,E,000.00000,293.8,110822,,,A*58
$GPZDA,095520.00,11,08,2022,+00,00*4C
$GPGGA,095520.20,4444.5639,N,03955.5175,E,1,15,0.8,00143.7,M,0017.1,M,,*6A
$GLGSA,A,3,065,071,072,087,088,,,,,,,,1.5,0.8,1.3*1F
$GPGSA,A,3,001,008,010,021,022,023,027,032,,,,,1.5,0.8,1.3*32
$GAGSA,A,3,107,126,,,,,,,,,,,1.5,0.8,1.3*2E
$GPRMC,095520.20,A,4444.5639,N,03955.5175,E,000.00000,293.8,110822,,,A*5A
$GPGGA,095520.40,4444.5639,N,03955.5175,E,1,15,0.8,00143.7,M,0017.1,M,,*6C
$GLGSA,A,3,065,071,072,087,088,,,,,,,,1.5,0.8,1.3*1F
$GPGSA,A,3,001,008,010,021,022,023,027,032,,,,,1.5,0.8,1.3*32
$GAGSA,A,3,107,126,,,,,,,,,,,1.5,0.8,1.3*2E
$GPRMC,095520.40,A,4444.5639,N,03955.5175,E,000.00000,293.8,110822,,,A*5C
$GPGGA,095520.60,4444.5639,N,03955.5175,E,1,15,0.8,00143.7,M,0017.1,M,,*6E
$GLGSA,A,3,065,071,072,087,088,,,,,,,,1.5,0.8,1.3*1F
$GPGSA,A,3,001,008,010,021,022,023,027,032,,,,,1.5,0.8,1.3*32
$GAGSA,A,3,107,126,,,,,,,,,,,1.5,0.8,1.3*2E
$GPRMC,095520.60,A,4444.5639,N,03955.5175,E,000.00000,293.8,110822,,,A*5E
$GPGGA,095520.80,4444.5639,N,03955.5175,E,1,15,0.8,00143.7,M,0017.1,M,,*60
$GLGSA,A,3,065,071,072,087,088,,,,,,,,1.5,0.8,1.3*1F
$GPGSA,A,3,001,008,010,021,022,023,027,032,,,,,1.5,0.8,1.3*32
$GAGSA,A,3,107,126,,,,,,,,,,,1.5,0.8,1.3*2E
$GPRMC,095520.80,A,4444.5639,N,03955.5175,E,000.00000,293.8,110822,,,A*50
$GPGGA,095521.00,4444.5639,N,03955.5175,E,1,14,0.8,00143.7,M,0017.1,M,,*68
$GLGSA,A,3,065,071,072,087,088,,,,,,,,1.5,0.8,1.3*1F
$GPGSA,A,3,001,008,010,021,022,023,027,032,,,,,1.5,0.8,1.3*32
$GAGSA,A,3,126,,,,,,,,,,,,1.5,0.8,1.3*18
$GPGSV,7,1,26,001,12,299,17,008,53,268,31,010,56,052,37,014,01,332,*7A
$GPGSV,7,2,26,018,00,114,,021,40,304,24,022,41,168,34,023,24,063,26*78
$GPGSV,7,3,26,024,10,049,,027,47,201,29,032,60,137,41,065,23,218,35*75
$GPGSV,7,4,26,070,00,038,,071,48,036,40,072,76,217,36,079,04,347,*76
$GPGSV,7,5,26,085,00,139,16,087,68,333,37,088,20,321,39,107,44,058,18*72
$GPGSV,7,6,26,112,22,304,,119,23,197,,124,07,299,,126,49,114,27*75
$GPGSV,7,7,26,131,03,255,,133,75,326,*7B
$GPRMC,095521.00,A,4444.5639,N,03955.5175,E,000.00000,293.8,110822,,,A*59
$GPZDA,095521.00,11,08,2022,+00,00*4D
$GPGGA,095521.20,4444.5639,N,03955.5175,E,1,15,0.8,00143.7,M,0017.1,M,,*6B
$GLGSA,A,3,065,071,072,087,088,,,,,,,,1.5,0.8,1.3*1F
$GPGSA,A,3,001,008,010,021,022,023,027,032,,,,,1.5,0.8,1.3*32
$GAGSA,A,3,107,126,,,,,,,,,,,1.5,0.8,1.3*2E
$GPRMC,095521.20,A,4444.5639,N,03955.5175,E,000.00000,293.8,110822,,,A*5B
$GPGGA,095521.40,4444.5639,N,03955.5175,E,1,15,0.8,00143.7,M,0017.1,M,,*6D
$GLGSA,A,3,065,071,072,087,088,,,,,,,,1.5,0.8,1.3*1F
$GPGSA,A,3,001,008,010,021,022,023,027,032,,,,,1.5,0.8,1.3*32
$GAGSA,A,3,107,126,,,,,,,,,,,1.5,0.8,1.3*2E
$GPRMC,095521.40,A,4444.5639,N,03955.5175,E,000.00000,293.8,110822,,,A*5D
$GPGGA,095521.60,4444.5639,N,03955.5175,E,1,15,0.8,00143.7,M,0017.1,M,,*6F
$GLGSA,A,3,065,071,072,087,088,,,,,,,,1.5,0.8,1.3*1F
$GPGSA,A,3,001,008,010,021,022,023,027,032,,,,,1.5,0.8,1.3*32
$GAGSA,A,3,107,126,,,,,,,,,,,1.5,0.8,1.3*2E
$GPRMC,095521.60,A,4444.5639,N,03955.5175,E,000.00000,293.8,110822,,,A*5F
$GPGGA,095521.80,4444.5639,N,03955.5175,E,1,14,0.8,00143.7,M,0017.1,M,,*60
$GLGSA,A,3,065,071,072,087,088,,,,,,,,1.5,0.8,1.3*1F
$GPGSA,A,3,001,008,010,021,022,023,027,032,,,,,1.5,0.8,1.3*32
$GAGSA,A,3,126,,,,,,,,,,,,1.5,0.8,1.3*18
$GPRMC,095521.80,A,4444.5639,N,03955.5175,E,000.00000,293.8,110822,,,A*51
$GPGGA,095522.00,4444.5639,N,03955.5175,E,1,15,0.8,00143.7,M,0017.1,M,,*6A
$GLGSA,A,3,065,071,072,087,088,,,,,,,,1.5,0.8,1.3*1F
$GPGSA,A,3,001,008,010,021,022,023,027,032,,,,,1.5,0.8,1.3*32
$GAGSA,A,3,107,126,,,,,,,,,,,1.5,0.8,1.3*2E
$GPGSV,7,1,26,001,12,299,18,008,53,268,31,010,56,052,38,014,01,332,*7A
$GPGSV,7,2,26,018,00,114,,021,40,304,25,022,41,168,34,023,24,063,27*78
$GPGSV,7,3,26,024,10,049,,027,47,201,30,032,60,137,41,065,23,218,35*7D
$GPGSV,7,4,26,070,00,038,,071,48,036,40,072,76,217,36,079,04,347,11*76
$GPGSV,7,5,26,085,00,139,16,087,68,333,37,088,20,321,39,107,44,058,18*72
$GPGSV,7,6,26,112,22,304,,119,23,197,,124,07,299,,126,49,114,28*7A
$GPGSV,7,7,26,131,03,255,,133,75,326,*7B
$GPRMC,095522.00,A,4444.5639,N,03955.5175,E,000.00000,293.8,110822,,,A*5A
$GPZDA,095522.00,11,08,2022,+00,00*4E
$GPGGA,095522.20,4444.5639,N,03955.5175,E,1,14,0.8,00143.7,M,0017.1,M,,*69
$GLGSA,A,3,065,071,072,087,088,,,,,,,,1.7,0.8,1.5*1B
$GPGSA,A,3,008,010,021,022,023,027,032,,,,,,1.7,0.8,1.5*07
$GAGSA,A,3,107,126,,,,,,,,,,,1.7,0.8,1.5*2A
$GPRMC,095522.20,A,4444.5639,N,03955.5175,E,000.00000,293.8,110822,,,A*58
$GPGGA,095522.40,4444.5639,N,03955.5175,E,1,15,0.8,00143.7,M,0017.1,M,,*6E
$GLGSA,A,3,065,071,072,087,088,,,,,,,,1.5,0.8,1.3*1F
$GPGSA,A,3,001,008,010,021,022,023,027,032,,,,,1.5,0.8,1.3*32
$GAGSA,A,3,107,126,,,,,,,,,,,1.5,0.8,1.3*2E
$GPRMC,095522.40,A,4444.5639,N,03955.5175,E,000.00000,293.8,110822,,,A*5E
$GPGGA,095522.60,4444.5639,N,03955.5175,E,1,14,0.8,00143.7,M,0017.1,M,,*6D
$GLGSA,A,3,065,071,072,087,088,,,,,,,,1.5,0.8,1.3*1F
$GPGSA,A,3,001,008,010,021,022,023,027,032,,,,,1.5,0.8,1.3*32
$GAGSA,A,3,126,,,,,,,,,,,,1.5,0.8,1.3*18
$GPRMC,095522.60,A,4444.5639,N,03955.5175,E,000.00000,293.8,110822,,,A*5C
$GPGGA,095522.80,4444.5639,N,03955.5175,E,1,13,0.8,00143.7,M,0017.1,M,,*64
$GLGSA,A,3,065,071,072,087,088,,,,,,,,1.7,0.8,1.5*1B
$GPGSA,A,3,008,010,021,022,023,027,032,,,,,,1.7,0.8,1.5*07
$GAGSA,A,3,126,,,,,,,,,,,,1.7,0.8,1.5*1C
$GPRMC,095522.80,A,4444.5639,N,03955.5175,E,000.00000,293.8,110822,,,A*52
$GPGGA,095523.00,4444.5639,N,03955.5175,E,1,15,0.8,00143.7,M,0017.1,M,,*6B
$GLGSA,A,3,065,071,072,087,088,,,,,,,,1.5,0.8,1.3*1F
$GPGSA,A,3,001,008,010,021,022,023,027,032,,,,,1.5,0.8,1.3*32
$GAGSA,A,3,107,126,,,,,,,,,,,1.5,0.8,1.3*2E
$GPGSV,7,1,26,001,12,299,17,008,53,268,31,010,56,052,37,014,01,332,*7A
$GPGSV,7,2,26,018,00,114,,021,40,304,24,022,41,168,34,023,24,063,26*78
$GPGSV,7,3,26,024,10,049,,027,47,201,29,032,60,137,40,065,23,218,35*74
$GPGSV,7,4,26,070,00,038,,071,48,036,40,072,76,217,36,079,04,347,10*77
$GPGSV,7,5,26,085,00,139,15,087,68,333,37,088,20,321,39,107,44,058,17*7E
$GPGSV,7,6,26,112,22,304,,119,23,197,,124,07,299,,126,49,114,27*75
$GPGSV,7,7,26,131,03,255,,133,75,326,*7B
$GPRMC,095523.00,A,4444.5639,N,03955.5175,E,000.00000,293.8,110822,,,A*5B
$GPZDA,095523.00,11,08,2022,+00,00*4F
$GPGGA,095523.20,4444.5639,N,03955.5175,E,1,14,0.8,00143.7,M,0017.1,M,,*68
$GLGSA,A,3,065,071,072,087,088,,,,,,,,1.5,0.8,1.3*1F
$GPGSA,A,3,001,008,010,021,022,023,027,032,,,,,1.5,0.8,1.3*32
$GAGSA,A,3,126,,,,,,,,,,,,1.5,0.8,1.3*18
$GPRMC,095523.20,A,4444.5639,N,03955.5175,E,000.00000,293.8,110822,,,A*59
$GPGGA,095523.40,4444.5639,N,03955.5175,E,1,14,0.8,00143.7,M,0017.1,M,,*6E
$GLGSA,A,3,065,071,072,087,088,,,,,,,,1.7,0.8,1.5*1B
$GPGSA,A,3,008,010,021,022,023,027,032,,,,,,1.7,0.8,1.5*07
$GAGSA,A,3,107,126,,,,,,,,,,,1.7,0.8,1.5*2A
$GPRMC,095523.40,A,4444.5639,N,03955.5175,E,000.00000,293.8,110822,,,A*5F
$GPGGA,095523.60,4444.5639,N,03955.5175,E,1,15,0.8,00143.7,M,0017.1,M,,*6D
$GLGSA,A,3,065,071,072,087,088,,,,,,,,1.5,0.8,1.3*1F
$GPGSA,A,3,001,008,010,021,022,023,027,032,,,,,1.5,0.8,1.3*32
$GAGSA,A,3,107,126,,,,,,,,,,,1.5,0.8,1.3*2E
$GPRMC,095523.60,A,4444.5639,N,03955.5175,E,000.00000,293.8,110822,,,A*5D
$GPGGA,095523.80,4444.5639,N,03955.5175,E,1,15,0.8,00143.7,M,0017.1,M,,*63
$GLGSA,A,3,065,071,072,087,088,,,,,,,,1.5,0.8,1.3*1F
$GPGSA,A,3,001,008,010,021,022,023,027,032,,,,,1.5,0.8,1.3*32
$GAGSA,A,3,107,126,,,,,,,,,,,1.5,0.8,1.3*2E
$GPRMC,095523.80,A,4444.5639,N,03955.5175,E,000.00000,293.8,110822,,,A*53
$GPGGA,095524.00,4444.5639,N,03955.5175,E,1,15,0.8,00143.7,M,0017.1,M,,*6C
$GLGSA,A,3,065,071,072,087,088,,,,,,,,1.5,0.8,1.3*1F
$GPGSA,A,3,001,008,010,021,022,023,027,032,,,,,1.5,0.8,1.3*32
$GAGSA,A,3,107,126,,,,,,,,,,,1.5,0.8,1.3*2E
$GPGSV,7,1,26,001,12,299,18,008,53,268,32,010,56,052,38,014,01,332,*79
$GPGSV,7,2,26,018,00,114,,021,40,304,25,022,41,168,34,023,24,063,27*78
$GPGSV,7,3,26,024,10,049,,027,47,201,30,032,60,137,41,065,23,218,35*7D
$GPGSV,7,4,26,070,00,038,,071,48,036,40,072,76,217,36,079,04,347,13*74
$GPGSV,7,5,26,085,00,139,14,087,68,333,37,088,20,321,39,107,44,058,20*7B
$GPGSV,7,6,26,112,22,304,,119,23,197,,124,07,299,,126,49,114,28*7A
$GPGSV,7,7,26,131,03,255,,133,75,326,*7B
$GPRMC,095524.00,A,4444.5639,N,03955.5175,E,000.00000,293.8,110822,,,A*5C
$GPZDA,095524.00,11,08,2022,+00,00*48
$GPGGA,095524.20,4444.5639,N,03955.5175,E,1,15,0.8,00143.7,M,0017.1,M,,*6E
$GLGSA,A,3,065,071,072,087,088,,,,,,,,1.5,0.8,1.3*1F
$GPGSA,A,3,001,008,010,021,022,023,027,032,,,,,1.5,0.8,1.3*32
$GAGSA,A,3,107,126,,,,,,,,,,,1.5,0.8,1.3*2E
$GPRMC,095524.20,A,4444.5639,N,03955.5175,E,000.00000,293.8,110822,,,A*5E
$GPGGA,095524.40,4444.5639,N,03955.5175,E,1,14,0.8,00143.7,M,0017.1,M,,*69
$GLGSA,A,3,065,071,072,087,088,,,,,,,,1.5,0.8,1.3*1F
$GPGSA,A,3,001,008,010,021,022,023,027,032,,,,,1.5,0.8,1.3*32
$GAGSA,A,3,126,,,,,,,,,,,,1.5,0.8,1.3*18
$GPRMC,095524.40,A,4444.5639,N,03955.5175,E,000.00000,293.8,110822,,,A*58
$GPGGA,095524.60,4444.5639,N,03955.5175,E,1,15,0.8,00143.7,M,0017.1,M,,*6A
$GLGSA,A,3,065,071,072,087,088,,,,,,,,1.5,0.8,1.3*1F
$GPGSA,A,3,001,008,010,021,022,023,027,032,,,,,1.5,0.8,1.3*32
$GAGSA,A,3,107,126,,,,,,,,,,,1.5,0.8,1.3*2E
$GPRMC,095524.60,A,4444.5639,N,03955.5175,E,000.00000,293.8,110822,,,A*5A
$GPGGA,095524.80,4444.5639,N,03955.5175,E,1,14,0.8,00143.7,M,0017.1,M,,*65
$GLGSA,A,3,065,071,072,087,088,,,,,,,,1.5,0.8,1.3*1F
$GPGSA,A,3,001,008,010,021,022,023,027,032,,,,,1.5,0.8,1.3*32
$GAGSA,A,3,126,,,,,,,,,,,,1.5,0.8,1.3*18
$GPRMC,095524.80,A,4444.5639,N,03955.5175,E,000.00000,293.8,110822,,,A*54
$GPGGA,095525.00,4444.5639,N,03955.5175,E,1,15,0.8,00143.7,M,0017.1,M,,*6D
$GLGSA,A,3,065,071,072,087,088,,,,,,,,1.5,0.8,1.3*1F
$GPGSA,A,3,001,008,010,021,022,023,027,032,,,,,1.5,0.8,1.3*32
$GAGSA,A,3,107,126,,,,,,,,,,,1.5,0.8,1.3*2E
$GPGSV,7,1,26,001,12,299,19,008,53,268,31,010,56,052,37,014,02,332,*77
$GPGSV,7,2,26,018,00,114,,021,40,304,25,022,41,168,33,023,24,063,26*7E
$GPGSV,7,3,26,024,10,049,,027,47,201,30,032,60,137,40,065,23,218,35*7C
$GPGSV,7,4,26,070,00,038,,071,48,036,40,072,76,217,36,079,04,347,09*7F
$GPGSV,7,5,26,085,00,139,18,087,68,333,37,088,20,321,39,107,44,058,18*7C
$GPGSV,7,6,26,112,22,304,,119,23,197,,124,07,299,,126,49,114,28*7A
$GPGSV,7,7,26,131,03,255,,133,75,326,*7B
$GPRMC,095525.00,A,4444.5639,N,03955.5175,E,000.00000,293.8,110822,,,A*5D
$GPZDA,095525.00,11,08,2022,+00,00*49
$GPGGA,095525.20,4444.5639,N,03955.5175,E,1,15,0.8,00143.7,M,0017.1,M,,*6F
$GLGSA,A,3,065,071,072,087,088,,,,,,,,1.5,0.8,1.3*1F
$GPGSA,A,3,001,008,010,021,022,023,027,032,,,,,1.5,0.8,1.3*32
$GAGSA,A,3,107,126,,,,,,,,,,,1.5,0.8,1.3*2E
$GPRMC,095525.20,A,4444.5639,N,03955.5175,E,000.00000,293.8,110822,,,A*5F
$GPGGA,095525.40,4444.5639,N,03955.5175,E,1,14,0.8,00143.7,M,0017.1,M,,*68
$GLGSA,A,3,065,071,072,087,088,,,,,,,,1.5,0.8,1.3*1F
$GPGSA,A,3,001,008,010,021,022,023,027,032,,,,,1.5,0.8,1.3*32
$GAGSA,A,3,126,,,,,,,,,,,,1.5,0.8,1.3*18
$GPRMC,095525.40,A,4444.5639,N,03955.5175,E,000.00000,293.8,110822,,,A*59
$GPGGA,095525.60,4444.5639,N,03955.5175,E,1,15,0.8,00143.7,M,0017.1,M,,*6B
$GLGSA,A,3,065,071,072,087,088,,,,,,,,1.5,0.8,1.3*1F
$GPGSA,A,3,001,008,010,021,022,023,027,032,,,,,1.5,0.8,1.3*32
$GAGSA,A,3,107,126,,,,,,,,,,,1.5,0.8,1.3*2E
$GPRMC,095525.60,A,4444.5639,N,03955.5175,E,000.00000,293.8,110822,,,A*5B
$GPGGA,095525.80,4444.5639,N,03955.5175,E,1,15,0.8,00143.7,M,0017.1,M,,*65
$GLGSA,A,3,065,071,072,087,088,,,,,,,,1.5,0.8,1.3*1F
$GPGSA,A,3,001,008,010,021,022,023,027,032,,,,,1.5,0.8,1.3*32
$GAGSA,A,3,107,126,,,,,,,,,,,1.5,0.8,1.3*2E
$GPRMC,095525.80,A,4444.5639,N,03955.5175,E,000.00000,293.8,110822,,,A*55
$GPGGA,095526.00,4444.5639,N,03955.5175,E,1,15,0.8,00143.7,M,0017.1,M,,*6E
$GLGSA,A,3,065,071,072,087,088,,,,,,,,1.5,0.8,1.3*1F
$GPGSA,A,3,001,008,010,021,022,023,027,032,,,,,1.5,0.8,1.3*32
$GAGSA,A,3,107,126,,,,,,,,,,,1.5,0.8,1.3*2E
$GPGSV,7,1,26,001,12,299,19,008,53,268,32,010,56,052,37,014,02,332,*74
$GPGSV,7,2,26,018,00,114,,021,40,304,25,022,41,168,34,023,24,063,26*79
$GPGSV,7,3,26,024,10,049,,027,47,201,30,032,60,137,41,065,23,218,35*7D
$GPGSV,7,4,26,070,00,038,,071,48,036,40,072,76,217,37,079,04,347,08*7F
$GPGSV,7,5,26,085,00,139,14,087,68,333,37,088,20,321,39,107,44,058,19*71
$GPGSV,7,6,26,112,22,305,,119,23,197,,124,07,299,,126,49,114,29*7A
$GPGSV,7,7,26,131,03,255,,133,75,326,*7B
$GPRMC,095526.00,A,4444.5639,N,03955.5175,E,000.00000,294.3,110822,,,A*52
$GPZDA,095526.00,11,08,2022,+00,00*4A
$GPGGA,095526.20,4444.5639,N,03955.5175,E,1,15,0.8,00143.7,M,0017.1,M,,*6C
$GLGSA,A,3,065,071,072,087,088,,,,,,,,1.5,0.8,1.3*1F
$GPGSA,A,3,001,008,010,021,022,023,027,032,,,,,1.5,0.8,1.3*32
$GAGSA,A,3,107,126,,,,,,,,,,,1.5,0.8,1.3*2E
$GPRMC,095526.20,A,4444.5639,N,03955.5175,E,000.00000,295.2,110822,,,A*50
$GPGGA,095526.40,4444.5639,N,03955.5175,E,1,15,0.8,00143.7,M,0017.1,M,,*6A
$GLGSA,A,3,065,071,072,087,088,,,,,,,,1.5,0.8,1.3*1F
$GPGSA,A,3,001,008,010,021,022,023,027,032,,,,,1.5,0.8,1.3*32
$GAGSA,A,3,107,126,,,,,,,,,,,1.5,0.8,1.3*2E
$GPRMC,095526.40,A,4444.5639,N,03955.5175,E,000.00000,309.5,110822,,,A*55
$GPGGA,095526.60,4444.5639,N,03955.5175,E,1,13,0.8,00143.7,M,0017.1,M,,*6E
$GLGSA,A,3,065,071,072,087,088,,,,,,,,1.7,0.8,1.5*1B
$GPGSA,A,3,008,010,021,022,023,027,032,,,,,,1.7,0.8,1.5*07
$GAGSA,A,3,126,,,,,,,,,,,,1.7,0.8,1.5*1C
$GPRMC,095526.60,A,4444.5639,N,03955.5175,E,000.00000,310.3,110822,,,A*59
$GPGGA,095526.80,4444.5639,N,03955.5175,E,1,15,0.8,00143.7,M,0017.1,M,,*66
$GLGSA,A,3,065,071,072,087,088,,,,,,,,1.5,0.8,1.3*1F
$GPGSA,A,3,001,008,010,021,022,023,027,032,,,,,1.5,0.8,1.3*32
$GAGSA,A,3,107,126,,,,,,,,,,,1.5,0.8,1.3*2E
$GPRMC,095526.80,A,4444.5639,N,03955.5175,E,000.00000,314.7,110822,,,A*57
$GPGGA,095527.00,4444.5639,N,03955.5175,E,1,15,0.8,00143.7,M,0017.1,M,,*6F
$GLGSA,A,3,065,071,072,087,088,,,,,,,,1.5,0.8,1.3*1F
$GPGSA,A,3,001,008,010,021,022,023,027,032,,,,,1.5,0.8,1.3*32
$GAGSA,A,3,107,126,,,,,,,,,,,1.5,0.8,1.3*2E
$GPGSV,7,1,26,001,12,299,19,008,53,268,31,010,56,052,37,014,02,332,*77
$GPGSV,7,2,26,018,00,114,,021,40,304,24,022,41,168,33,023,24,063,26*7F
$GPGSV,7,3,26,024,10,049,,027,47,201,29,032,60,137,40,065,23,218,35*74
$GPGSV,7,4,26,070,00,038,,071,48,036,40,072,76,217,37,079,04,347,09*7E
$GPGSV,7,5,26,085,00,139,15,087,68,333,37,088,20,321,39,107,44,058,19*70
$GPGSV,7,6,26,112,22,305,,119,23,197,,124,07,299,,126,49,114,28*7B
$GPGSV,7,7,26,131,02,255,,133,75,326,*7A
$GPRMC,095527.00,A,4444.5639,N,03955.5175,E,000.00000,327.4,110822,,,A*5D
$GPZDA,095527.00,11,08,2022,+00,00*4B
$GPGGA,095527.20,4444.5639,N,03955.5175,E,1,15,0.8,00143.7,M,0017.1,M,,*6D
$GLGSA,A,3,065,071,072,087,088,,,,,,,,1.5,0.8,1.3*1F
$GPGSA,A,3,001,008,010,021,022,023,027,032,,,,,1.5,0.8,1.3*32
$GAGSA,A,3,107,126,,,,,,,,,,,1.5,0.8,1.3*2E
$GPRMC,095527.20,A,4444.5639,N,03955.5175,E,000.00000,322.0,110822,,,A*5E
$GPGGA,095527.40,4444.5639,N,03955.5175,E,1,15,0.8,00143.7,M,0017.1,M,,*6B
$GLGSA,A,3,065,071,072,087,088,,,,,,,,1.5,0.8,1.3*1F
$GPGSA,A,3,001,008,010,021,022,023,027,032,,,,,1.5,0.8,1.3*32
$GAGSA,A,3,107,126,,,,,,,,,,,1.5,0.8,1.3*2E
$GPRMC,095527.40,A,4444.5639,N,03955.5175,E,000.00000,313.3,110822,,,A*59
$GPGGA,095527.60,4444.5639,N,03955.5175,E,1,15,0.8,00143.7,M,0017.1,M,,*69
$GLGSA,A,3,065,071,072,087,088,,,,,,,,1.5,0.8,1.3*1F
$GPGSA,A,3,001,008,010,021,022,023,027,032,,,,,1.5,0.8,1.3*32
$GAGSA,A,3,107,126,,,,,,,,,,,1.5,0.8,1.3*2E
$GPRMC,095527.60,A,4444.5639,N,03955.5175,E,000.00000,304.3,110822,,,A*5D
$GPGGA,095527.80,4444.5639,N,03955.5175,E,1,15,0.8,00143.7,M,0017.1,M,,*67
$GLGSA,A,3,065,071,072,087,088,,,,,,,,1.5,0.8,1.3*1F
$GPGSA,A,3,001,008,010,021,022,023,027,032,,,,,1.5,0.8,1.3*32
$GAGSA,A,3,107,126,,,,,,,,,,,1.5,0.8,1.3*2E
$GPRMC,095527.80,A,4444.5639,N,03955.5175,E,000.00000,299.9,110822,,,A*5C
$GPGGA,095528.00,4444.5639,N,03955.5175,E,1,15,0.8,00143.7,M,0017.1,M,,*60
$GLGSA,A,3,065,071,072,087,088,,,,,,,,1.5,0.8,1.3*1F
$GPGSA,A,3,001,008,010,021,022,023,027,032,,,,,1.5,0.8,1.3*32
$GAGSA,A,3,107,126,,,,,,,,,,,1.5,0.8,1.3*2E
$GPGSV,7,1,26,001,12,299,20,008,53,268,32,010,56,052,37,014,02,332,*7E
$GPGSV,7,2,26,018,00,114,,021,40,304,24,022,41,168,34,023,24,063,26*78
$GPGSV,7,3,26,024,10,049,,027,47,201,30,032,60,137,41,065,23,218,35*7D
$GPGSV,7,4,26,070,00,038,,071,48,036,40,072,76,217,37,079,04,347,11*77
$GPGSV,7,5,26,085,00,139,,087,68,333,37,088,20,321,39,107,44,058,20*7E
$GPGSV,7,6,26,112,22,305,,119,23,197,,124,07,299,,126,49,114,28*7B
$GPGSV,7,7,26,131,02,255,,133,75,326,*7A
$GPRMC,095528.00,A,4444.5639,N,03955.5175,E,000.00000,309.7,110822,,,A*5D
$GPZDA,095528.00,11,08,2022,+00,00*44
$GPGGA,095528.20,4444.5639,N,03955.5175,E,1,15,0.8,00143.7,M,0017.1,M,,*62
$GLGSA,A,3,065,071,072,087,088,,,,,,,,1.5,0.8,1.3*1F
$GPGSA,A,3,001,008,010,021,022,023,027,032,,,,,1.5,0.8,1.3*32
$GAGSA,A,3,107,126,,,,,,,,,,,1.5,0.8,1.3*2E
$GPRMC,095528.20,A,4444.5639,N,03955.5175,E,000.00000,308.6,110822,,,A*5F
$GPGGA,095528.40,4444.5639,N,03955.5175,E,1,15,0.8,00143.7,M,0017.1,M,,*64
$GLGSA,A,3,065,071,072,087,088,,,,,,,,1.5,0.8,1.3*1F
$GPGSA,A,3,001,008,010,021,022,023,027,032,,,,,1.5,0.8,1.3*32
$GAGSA,A,3,107,126,,,,,,,,,,,1.5,0.8,1.3*2E
$GPRMC,095528.40,A,4444.5639,N,03955.5175,E,000.00000,315.1,110822,,,A*52
$GPGGA,095528.60,4444.5639,N,03955.5175,E,1,15,0.8,00143.7,M,0017.1,M,,*66
$GLGSA,A,3,065,071,072,087,088,,,,,,,,1.5,0.8,1.3*1F
$GPGSA,A,3,001,008,010,021,022,023,027,032,,,,,1.5,0.8,1.3*32
$GAGSA,A,3,107,126,,,,,,,,,,,1.5,0.8,1.3*2E
$GPRMC,095528.60,A,4444.5639,N,03955.5175,E,000.00000,313.1,110822,,,A*56
$GPGGA,095528.80,4444.5639,N,03955.5175,E,1,14,0.8,00143.7,M,0017.1,M,,*69
$GLGSA,A,3,065,071,072,087,088,,,,,,,,1.5,0.8,1.3*1F
$GPGSA,A,3,001,008,010,021,022,023,027,032,,,,,1.5,0.8,1.3*32
$GAGSA,A,3,126,,,,,,,,,,,,1.5,0.8,1.3*18
$GPRMC,095528.80,A,4444.5639,N,03955.5175,E,000.00000,312.6,110822,,,A*5E
$GPGGA,095529.00,4444.5639,N,03955.5175,E,1,15,0.8,00143.7,M,0017.1,M,,*61
$GLGSA,A,3,065,071,072,087,088,,,,,,,,1.5,0.8,1.3*1F
$GPGSA,A,3,001,008,010,021,022,023,027,032,,,,,1.5,0.8,1.3*32
$GAGSA,A,3,107,126,,,,,,,,,,,1.5,0.8,1.3*2E
$GPGSV,7,1,26,001,12,299,19,008,53,268,31,010,56,052,37,014,02,332,*77
$GPGSV,7,2,26,018,00,114,,021,40,304,24,022,41,168,33,023,24,063,25*7C
$GPGSV,7,3,26,024,10,049,,027,47,201,29,032,60,137,40,065,23,218,35*74
$GPGSV,7,4,26,070,00,038,,071,48,036,40,072,76,217,37,079,04,347,10*76
$GPGSV,7,5,26,085,00,139,,087,68,333,37,088,20,321,38,107,44,058,18*74
$GPGSV,7,6,26,112,22,305,,119,23,197,,124,07,299,,126,49,114,28*7B
$GPGSV,7,7,26,131,02,255,,133,75,326,*7A
$GPRMC,095529.00,A,4444.5639,N,03955.5175,E,000.00000,310.1,110822,,,A*52
$GPZDA,095529.00,11,08,2022,+00,00*45
$GPGGA,095529.20,4444.5639,N,03955.5175,E,1,14,0.8,00143.7,M,0017.1,M,,*62
$GLGSA,A,3,065,071,072,087,088,,,,,,,,1.5,0.8,1.3*1F
$GPGSA,A,3,001,008,010,021,022,023,027,032,,,,,1.5,0.8,1.3*32
$GAGSA,A,3,126,,,,,,,,,,,,1.5,0.8,1.3*18
$GPRMC,095529.20,A,4444.5639,N,03955.5175,E,000.00000,308.0,110822,,,A*58
$GPGGA,095529.40,4444.5639,N,03955.5175,E,1,15,0.8,00143.7,M,0017.1,M,,*65
$GLGSA,A,3,065,071,072,087,088,,,,,,,,1.5,0.8,1.3*1F
$GPGSA,A,3,001,008,010,021,022,023,027,032,,,,,1.5,0.8,1.3*32
$GAGSA,A,3,107,126,,,,,,,,,,,1.5,0.8,1.3*2E
$GPRMC,095529.40,A,4444.5639,N,03955.5175,E,000.00000,303.7,110822,,,A*52
$GPGGA,095529.60,4444.5639,N,03955.5175,E,1,15,0.8,00143.7,M,0017.1,M,,*67
$GLGSA,A,3,065,071,072,087,088,,,,,,,,1.5,0.8,1.3*1F
$GPGSA,A,3,001,008,010,021,022,023,027,032,,,,,1.5,0.8,1.3*32
$GAGSA,A,3,107,126,,,,,,,,,,,1.5,0.8,1.3*2E
$GPRMC,095529.60,A,4444.5639,N,03955.5175,E,000.00000,303.5,110822,,,A*52
$GPGGA,095529.80,4444.5639,N,03955.5175,E,1,14,0.8,00143.7,M,0017.1,M,,*68
$GLGSA,A,3,065,071,072,087,088,,,,,,,,1.5,0.8,1.3*1F
$GPGSA,A,3,001,008,010,021,022,023,027,032,,,,,1.5,0.8,1.3*32
$GAGSA,A,3,126,,,,,,,,,,,,1.5,0.8,1.3*18
$GPRMC,095529.80,A,4444.5639,N,03955.5175,E,000.00000,304.4,110822,,,A*5A
$GPGGA,095530.00,4444.5639,N,03955.5175,E,1,15,0.8,00143.7,M,0017.1,M,,*69
$GLGSA,A,3,065,071,072,087,088,,,,,,,,1.5,0.8,1.3*1F
$GPGSA,A,3,001,008,010,021,022,023,027,032,,,,,1.5,0.8,1.3*32
$GAGSA,A,3,107,126,,,,,,,,,,,1.5,0.8,1.3*2E
$GPGSV,7,1,26,001,12,299,21,008,53,267,31,010,56,052,37,014,02,332,*73
$GPGSV,7,2,26,018,00,114,,021,40,304,24,022,41,168,34,023,24,063,26*78
$GPGSV,7,3,26,024,10,049,,027,47,201,30,032,60,137,41,065,23,218,35*7D
$GPGSV,7,4,26,070,00,038,,071,48,036,39,072,76,217,36,079,04,347,09*71
$GPGSV,7,5,26,085,00,139,,087,68,333,37,088,20,321,38,107,44,058,20*7F
$GPGSV,7,6,26,112,22,305,,119,24,197,,124,07,299,,126,49,114,28*7C
$GPGSV,7,7,26,131,02,255,,133,75,326,*7A
$GPRMC,095530.00,A,4444.5639,N,03955.5175,E,000.00000,299.6,110822,,,A*5D
$GPZDA,095530.00,11,08,2022,+00,00*4D
$GPGGA,095530.20,4444.5639,N,03955.5175,E,1,15,0.8,00143.7,M,0017.1,M,,*6B
$GLGSA,A,3,065,071,072,087,088,,,,,,,,1.5,0.8,1.3*1F
$GPGSA,A,3,001,008,010,021,022,023,027,032,,,,,1.5,0.8,1.3*32
$GAGSA,A,3,107,126,,,,,,,,,,,1.5,0.8,1.3*2E
$GPRMC,095530.20,A,4444.5639,N,03955.5175,E,000.00000,297.0,110822,,,A*57
$GPGGA,095530.40,4444.5639,N,03955.5175,E,1,15,0.8,00143.7,M,0017.1,M,,*6D
$GLGSA,A,3,065,071,072,087,088,,,,,,,,1.5,0.8,1.3*1F
$GPGSA,A,3,001,008,010,021,022,023,027,032,,,,,1.5,0.8,1.3*32
$GAGSA,A,3,107,126,,,,,,,,,,,1.5,0.8,1.3*2E
$GPRMC,095530.40,A,4444.5639,N,03955.5175,E,000.00000,295.6,110822,,,A*55
$GPGGA,095530.60,4444.5639,N,03955.5175,E,1,15,0.8,00143.7,M,0017.1,M,,*6F
$GLGSA,A,3,065,071,072,087,088,,,,,,,,1.5,0.8,1.3*1F
$GPGSA,A,3,001,008,010,021,022,023,027,032,,,,,1.5,0.8,1.3*32
$GAGSA,A,3,107,126,,,,,,,,,,,1.5,0.8,1.3*2E
$GPRMC,095530.60,A,4444.5639,N,03955.5175,E,000.00000,294.8,110822,,,A*58
$GPGGA,095530.80,4444.5639,N,03955.5175,E,1,15,0.8,00143.7,M,0017.1,M,,*61
$GLGSA,A,3,065,071,072,087,088,,,,,,,,1.5,0.8,1.3*1F
$GPGSA,A,3,001,008,010,021,022,023,027,032,,,,,1.5,0.8,1.3*32
$GAGSA,A,3,107,126,,,,,,,,,,,1.5,0.8,1.3*2E
$GPRMC,095530.80,A,4444.5639,N,03955.5175,E,000.00000,294.4,110822,,,A*5A
$GPGGA,095531.00,4444.5639,N,03955.5175,E,1,15,0.8,00143.7,M,0017.1,M,,*68
$GLGSA,A,3,065,071,072,087,088,,,,,,,,1.5,0.8,1.3*1F
$GPGSA,A,3,001,008,010,021,022,023,027,032,,,,,1.5,0.8,1.3*32
$GAGSA,A,3,107,126,,,,,,,,,,,1.5,0.8,1.3*2E
$GPGSV,7,1,26,001,12,299,19,008,53,267,30,010,56,052,37,014,02,332,*79
$GPGSV,7,2,26,018,00,114,,021,40,304,24,022,41,168,33,023,24,063,26*7F
$GPGSV,7,3,26,024,10,049,,027,47,201,29,032,60,137,40,065,23,218,35*74
$GPGSV,7,4,26,070,00,038,,071,48,036,40,072,76,217,37,079,04,347,09*7E
$GPGSV,7,5,26,085,00,139,,087,68,333,37,088,20,321,39,107,44,058,19*74
$GPGSV,7,6,26,112,22,305,,119,24,197,,124,07,299,,126,49,114,28*7C
$GPGSV,7,7,26,131,02,255,,133,75,326,*7A
$GPRMC,095531.00,A,4444.5639,N,03955.5175,E,000.00000,294.1,110822,,,A*56
$GPZDA,095531.00,11,08,2022,+00,00*4C
$GPGGA,095531.20,4444.5639,N,03955.5175,E,1,15,0.8,00143.7,M,0017.1,M,,*6A
$GLGSA,A,3,065,071,072,087,088,,,,,,,,1.5,0.8,1.3*1F
$GPGSA,A,3,001,008,010,021,022,023,027,032,,,,,1.5,0.8,1.3*32
$GAGSA,A,3,107,126,,,,,,,,,,,1.5,0.8,1.3*2E
$GPRMC,095531.20,A,4444.5639,N,03955.5175,E,000.00000,294.0,110822,,,A*55
$GPGGA,095531.40,4444.5639,N,03955.5175,E,1,15,0.8,00143.7,M,0017.1,M,,*6C
$GLGSA,A,3,065,071,072,087,088,,,,,,,,1.5,0.8,1.3*1F
$GPGSA,A,3,001,008,010,021,022,023,027,032,,,,,1.5,0.8,1.3*32
$GAGSA,A,3,107,126,,,,,,,,,,,1.5,0.8,1.3*2E
$GPRMC,095531.40,A,4444.5639,N,03955.5175,E,000.00000,293.9,110822,,,A*5D
$GPGGA,095531.60,4444.5639,N,03955.5175,E,1,15,0.8,00143.7,M,0017.1,M,,*6E
$GLGSA,A,3,065,071,072,087,088,,,,,,,,1.5,0.8,1.3*1F
$GPGSA,A,3,001,008,010,021,022,023,027,032,,,,,1.5,0.8,1.3*32
$GAGSA,A,3,107,126,,,,,,,,,,,1.5,0.8,1.3*2E
$GPRMC,095531.60,A,4444.5639,N,03955.5175,E,000.00000,293.9,110822,,,A*5F
$GPGGA,095531.80,4444.5639,N,03955.5175,E,1,15,0.8,00143.7,M,0017.1,M,,*60
$GLGSA,A,3,065,071,072,087,088,,,,,,,,1.5,0.8,1.3*1F
$GPGSA,A,3,001,008,010,021,022,023,027,032,,,,,1.5,0.8,1.3*32
$GAGSA,A,3,107,126,,,,,,,,,,,1.5,0.8,1.3*2E
$GPRMC,095531.80,A,4444.5639,N,03955.5175,E,000.00000,293.9,110822,,,A*51
$GPGGA,095532.00,4444.5639,N,03955.5175,E,1,15,0.8,00143.7,M,0017.1,M,,*6B
$GLGSA,A,3,065,071,072,087,088,,,,,,,,1.5,0.8,1.3*1F
$GPGSA,A,3,001,008,010,021,022,023,027,032,,,,,1.5,0.8,1.3*32
$GAGSA,A,3,107,126,,,,,,,,,,,1.5,0.8,1.3*2E
$GPGSV,7,1,26,001,12,299,19,008,53,267,31,010,55,052,37,014,02,332,*7B
$GPGSV,7,2,26,018,00,114,,021,40,304,24,022,41,168,34,023,24,063,27*79
$GPGSV,7,3,26,024,10,049,,027,47,201,30,032,60,137,41,065,23,218,36*7E
$GPGSV,7,4,26,070,00,038,,071,48,036,40,072,76,217,37,079,04,347,08*7F
$GPGSV,7,5,26,085,00,139,13,087,68,333,37,088,20,321,39,107,44,058,20*7C
$GPGSV,7,6,26,112,22,305,,119,24,197,,124,07,299,,126,49,114,28*7C
$GPGSV,7,7,26,131,02,255,,133,75,326,*7A
$GPRMC,095532.00,A,4444.5639,N,03955.5175,E,000.00000,293.8,110822,,,A*5B
$GPZDA,095532.00,11,08,2022,+00,00*4F
$GPGGA,095532.20,4444.5639,N,03955.5175,E,1,15,0.8,00143.7,M,0017.1,M,,*69
$GLGSA,A,3,065,071,072,087,088,,,,,,,,1.5,0.8,1.3*1F
$GPGSA,A,3,001,008,010,021,022,023,027,032,,,,,1.5,0.8,1.3*32
$GAGSA,A,3,107,126,,,,,,,,,,,1.5,0.8,1.3*2E
$GPRMC,095532.20,A,4444.5639,N,03955.5175,E,000.00000,293.8,110822,,,A*59
$GPGGA,095532.40,4444.5639,N,03955.5175,E,1,15,0.8,00143.7,M,0017.1,M,,*6F
$GLGSA,A,3,065,071,072,087,088,,,,,,,,1.5,0.8,1.3*1F
$GPGSA,A,3,001,008,010,021,022,023,027,032,,,,,1.5,0.8,1.3*32
$GAGSA,A,3,107,126,,,,,,,,,,,1.5,0.8,1.3*2E
$GPRMC,095532.40,A,4444.5639,N,03955.5175,E,000.00000,299.1,110822,,,A*5C
$GPGGA,095532.60,4444.5639,N,03955.5175,E,1,15,0.8,00143.7,M,0017.1,M,,*6D
$GLGSA,A,3,065,071,072,087,088,,,,,,,,1.5,0.8,1.3*1F
$GPGSA,A,3,001,008,010,021,022,023,027,032,,,,,1.5,0.8,1.3*32
$GAGSA,A,3,107,126,,,,,,,,,,,1.5,0.8,1.3*2E
$GPRMC,095532.60,A,4444.5639,N,03955.5175,E,000.00000,306.7,110822,,,A*5F
$GPGGA,095532.80,4444.5639,N,03955.5175,E,1,15,0.8,00143.7,M,0017.1,M,,*63
$GLGSA,A,3,065,071,072,087,088,,,,,,,,1.5,0.8,1.3*1F
$GPGSA,A,3,001,008,010,021,022,023,027,032,,,,,1.5,0.8,1.3*32
$GAGSA,A,3,107,126,,,,,,,,,,,1.5,0.8,1.3*2E
$GPRMC,095532.80,A,4444.5639,N,03955.5175,E,000.00000,314.4,110822,,,A*51
$GPGGA,095533.00,4444.5639,N,03955.5175,E,1,15,0.8,00143.7,M,0017.1,M,,*6A
$GLGSA,A,3,065,071,072,087,088,,,,,,,,1.5,0.8,1.3*1F
$GPGSA,A,3,001,008,010,021,022,023,027,032,,,,,1.5,0.8,1.3*32
$GAGSA,A,3,107,126,,,,,,,,,,,1.5,0.8,1.3*2E
$GPGSV,7,1,26,001,12,299,18,008,53,267,30,010,55,052,37,014,02,332,*7B
$GPGSV,7,2,26,018,00,114,,021,40,304,24,022,41,168,33,023,24,063,26*7F
$GPGSV,7,3,26,024,10,049,,027,47,201,30,032,60,137,40,065,23,218,36*7F
$GPGSV,7,4,26,070,00,038,,071,48,036,40,072,76,217,37,079,04,347,07*70
$GPGSV,7,5,26,085,00,139,12,087,68,333,38,088,20,321,38,107,44,058,20*73
$GPGSV,7,6,26,112,22,305,,119,24,197,,124,07,299,,126,49,114,28*7C
$GPGSV,7,7,26,131,02,255,,133,75,326,*7A
$GPRMC,095533.00,A,4444.5639,N,03955.5175,E,000.00000,319.9,110822,,,A*58
$GPZDA,095533.00,11,08,2022,+00,00*4E
$GPGGA,095533.20,4444.5639,N,03955.5175,E,1,15,0.8,00143.7,M,0017.1,M,,*68
$GLGSA,A,3,065,071,072,087,088,,,,,,,,1.5,0.8,1.3*1F
$GPGSA,A,3,001,008,010,021,022,023,027,032,,,,,1.5,0.8,1.3*32
$GAGSA,A,3,107,126,,,,,,,,,,,1.5,0.8,1.3*2E
$GPRMC,095533.20,A,4444.5639,N,03955.5175,E,000.00000,309.6,110822,,,A*54
$GPGGA,095533.40,4444.5639,N,03955.5175,E,1,15,0.8,00143.7,M,0017.1,M,,*6E
$GLGSA,A,3,065,071,072,087,088,,,,,,,,1.5,0.8,1.3*1F
$GPGSA,A,3,001,008,010,021,022,023,027,032,,,,,1.5,0.8,1.3*32
$GAGSA,A,3,107,126,,,,,,,,,,,1.5,0.8,1.3*2E
$GPRMC,095533.40,A,4444.5639,N,03955.5175,E,000.00000,308.0,110822,,,A*55
$GPGGA,095533.60,4444.5639,N,03955.5175,E,1,15,0.8,00143.7,M,0017.1,M,,*6C
$GLGSA,A,3,065,071,072,087,088,,,,,,,,1.5,0.8,1.3*1F
$GPGSA,A,3,001,008,010,021,022,023,027,032,,,,,1.5,0.8,1.3*32
$GAGSA,A,3,107,126,,,,,,,,,,,1.5,0.8,1.3*2E
$GPRMC,095533.60,A,4444.5639,N,03955.5175,E,000.00000,309.9,110822,,,A*5F
$GPGGA,095533.80,4444.5639,N,03955.5175,E,1,15,0.8,00143.7,M,0017.1,M,,*62
$GLGSA,A,3,065,071,072,087,088,,,,,,,,1.5,0.8,1.3*1F
$GPGSA,A,3,001,008,010,021,022,023,027,032,,,,,1.5,0.8,1.3*32
$GAGSA,A,3,107,126,,,,,,,,,,,1.5,0.8,1.3*2E
$GPRMC,095533.80,A,4444.5639,N,03955.5175,E,000.00000,324.8,110822,,,A*5F
$GPGGA,095534.00,4444.5639,N,03955.5175,E,1,14,0.8,00143.7,M,0017.1,M,,*6C
$GLGSA,A,3,065,071,072,087,088,,,,,,,,1.5,0.8,1.3*1F
$GPGSA,A,3,001,008,010,021,022,023,027,032,,,,,1.5,0.8,1.3*32
$GAGSA,A,3,126,,,,,,,,,,,,1.5,0.8,1.3*18
$GPGSV,7,1,26,001,12,299,20,008,53,267,31,010,55,052,37,014,02,332,*71
$GPGSV,7,2,26,018,00,114,,021,40,304,24,022,41,168,34,023,24,063,27*79
$GPGSV,7,3,26,024,10,049,,027,47,201,30,032,60,137,41,065,23,218,36*7E
$GPGSV,7,4,26,070,00,038,,071,48,036,40,072,76,217,38,079,04,347,10*79
$GPGSV,7,5,26,085,00,139,10,087,68,333,38,088,20,321,38,107,44,058,21*70
$GPGSV,7,6,26,112,22,305,,119,24,197,,124,07,299,,126,49,114,29*7D
$GPGSV,7,7,26,131,02,255,,133,75,326,*7A
$GPRMC,095534.00,A,4444.5639,N,03955.5175,E,000.00000,329.2,110822,,,A*57
$GPZDA,095534.00,11,08,2022,+00,00*49
$GPGGA,095534.20,4444.5639,N,03955.5175,E,1,15,0.8,00143.7,M,0017.1,M,,*6F
$GLGSA,A,3,065,071,072,087,088,,,,,,,,1.5,0.8,1.3*1F
$GPGSA,A,3,001,008,010,021,022,023,027,032,,,,,1.5,0.8,1.3*32
$GAGSA,A,3,107,126,,,,,,,,,,,1.5,0.8,1.3*2E
$GPRMC,095534.20,A,4444.5639,N,03955.5175,E,000.00000,341.6,110822,,,A*5F
$GPGGA,095534.40,4444.5639,N,03955.5175,E,1,15,0.8,00143.7,M,0017.1,M,,*69
$GLGSA,A,3,065,071,072,087,088,,,,,,,,1.5,0.8,1.3*1F
$GPGSA,A,3,001,008,010,021,022,023,027,032,,,,,1.5,0.8,1.3*32
$GAGSA,A,3,107,126,,,,,,,,,,,1.5,0.8,1.3*2E
$GPRMC,095534.40,A,4444.5639,N,03955.5175,E,000.00000,348.3,110822,,,A*55
$GPGGA,095534.60,4444.5639,N,03955.5175,E,1,15,0.8,00143.7,M,0017.1,M,,*6B
$GLGSA,A,3,065,071,072,087,088,,,,,,,,1.5,0.8,1.3*1F
$GPGSA,A,3,001,008,010,021,022,023,027,032,,,,,1.5,0.8,1.3*32
$GAGSA,A,3,107,126,,,,,,,,,,,1.5,0.8,1.3*2E
$GPRMC,095534.60,A,4444.5639,N,03955.5175,E,000.00000,351.7,110822,,,A*5B
$GPGGA,095534.80,4444.5639,N,03955.5175,E,1,15,0.8,00143.7,M,0017.1,M,,*65
$GLGSA,A,3,065,071,072,087,088,,,,,,,,1.5,0.8,1.3*1F
$GPGSA,A,3,001,008,010,021,022,023,027,032,,,,,1.5,0.8,1.3*32
$GAGSA,A,3,107,126,,,,,,,,,,,1.5,0.8,1.3*2E
$GPRMC,095534.80,A,4444.5639,N,03955.5175,E,000.00000,353.6,110822,,,A*56
$GPGGA,095535.00,4444.5639,N,03955.5175,E,1,15,0.8,00143.7,M,0017.1,M,,*6C
$GLGSA,A,3,065,071,072,087,088,,,,,,,,1.5,0.8,1.3*1F
$GPGSA,A,3,001,008,010,021,022,023,027,032,,,,,1.5,0.8,1.3*32
$GAGSA,A,3,107,126,,,,,,,,,,,1.5,0.8,1.3*2E
$GPGSV,7,1,26,001,12,299,19,008,53,267,30,010,55,052,37,014,02,332,*7A
$GPGSV,7,2,26,018,00,114,,021,40,304,24,022,41,168,33,023,24,063,26*7F
$GPGSV,7,3,26,024,10,049,,027,47,201,30,032,60,137,40,065,23,218,36*7F
$GPGSV,7,4,26,070,00,038,,071,48,036,40,072,76,217,38,079,04,347,09*71
$GPGSV,7,5,26,085,00,139,09,087,68,333,38,088,20,321,38,107,44,058,20*79
$GPGSV,7,6,26,112,22,305,,119,24,197,,124,07,299,,126,49,114,28*7C
$GPGSV,7,7,26,131,02,255,,133,75,326,*7A
$GPRMC,095535.00,A,4444.5639,N,03955.5175,E,000.00000,354.5,110822,,,A*5B
$GPZDA,095535.00,11,08,2022,+00,00*48
$GPGGA,095535.20,4444.5639,N,03955.5175,E,1,15,0.8,00143.7,M,0017.1,M,,*6E
$GLGSA,A,3,065,071,072,087,088,,,,,,,,1.5,0.8,1.3*1F
$GPGSA,A,3,001,008,010,021,022,023,027,032,,,,,1.5,0.8,1.3*32
$GAGSA,A,3,107,126,,,,,,,,,,,1.5,0.8,1.3*2E
