$GPGGA,102239.20,4444.5546,N,03955.5285,E,1,15,0.8,00147.7,M,0017.2,M,,*6A
$GLGSA,A,3,065,071,072,087,088,,,,,,,,1.7,0.8,1.5*1B
$GPGSA,A,3,001,008,010,021,022,027,032,,,,,,1.7,0.8,1.5*07
$GAGSA,A,3,107,126,133,,,,,,,,,,1.7,0.8,1.5*1B
$GPRMC,102239.20,A,4444.5546,N,03955.5285,E,000.00000,261.2,110822,,,A*5A
$GPGGA,102239.40,4444.5546,N,03955.5285,E,1,15,0.8,00147.7,M,0017.2,M,,*6C
$GLGSA,A,3,065,071,072,087,088,,,,,,,,1.7,0.8,1.5*1B
$GPGSA,A,3,001,008,010,021,022,027,032,,,,,,1.7,0.8,1.5*07
$GAGSA,A,3,107,126,133,,,,,,,,,,1.7,0.8,1.5*1B
$GPRMC,102239.40,A,4444.5546,N,03955.5285,E,000.00000,258.7,110822,,,A*53
$GPGGA,102239.60,4444.5546,N,03955.5285,E,1,15,0.8,00147.7,M,0017.2,M,,*6E
$GLGSA,A,3,065,071,072,087,088,,,,,,,,1.7,0.8,1.5*1B
$GPGSA,A,3,001,008,010,021,022,027,032,,,,,,1.7,0.8,1.5*07
$GAGSA,A,3,107,126,133,,,,,,,,,,1.7,0.8,1.5*1B
$GPRMC,102239.60,A,4444.5546,N,03955.5285,E,000.00000,255.9,110822,,,A*52
$GPGGA,102239.80,4444.5546,N,03955.5285,E,1,15,0.8,00147.7,M,0017.2,M,,*60
$GLGSA,A,3,065,071,072,087,088,,,,,,,,1.7,0.8,1.5*1B
$GPGSA,A,3,001,008,010,021,022,027,032,,,,,,1.7,0.8,1.5*07
$GAGSA,A,3,107,126,133,,,,,,,,,,1.7,0.8,1.5*1B
$GPRMC,102239.80,A,4444.5546,N,03955.5285,E,000.00000,252.2,110822,,,A*50
$GPGGA,102240.00,4444.5546,N,03955.5285,E,1,15,0.8,00147.7,M,0017.2,M,,*66
$GLGSA,A,3,065,071,072,087,088,,,,,,,,1.7,0.8,1.5*1B
$GPGSA,A,3,001,008,010,021,022,027,032,,,,,,1.7,0.8,1.5*07
$GAGSA,A,3,107,126,133,,,,,,,,,,1.7,0.8,1.5*1B
$GPGSV,7,1,25,001,23,304,33,003,03,256,20,008,50,247,37,010,44,060,41*76
$GPGSV,7,2,25,014,02,322,,021,51,306,31,022,54,162,41,023,15,069,23*75
$GPGSV,7,3,25,024,08,038,21,027,34,196,32,032,66,110,40,065,36,228,26*7E
$GPGSV,7,4,25,071,35,037,43,072,84,331,36,079,01,335,08,087,84,324,35*71
$GPGSV,7,5,25,088,33,323,48,107,37,051,31,110,06,307,,112,31,308,*7F
$GPGSV,7,6,25,119,34,200,,124,02,291,,125,00,340,,126,40,124,26*7F
$GPGSV,7,7,25,133,85,342,34*70
$GPRMC,102240.00,A,4444.5546,N,03955.5285,E,000.00000,250.1,110822,,,A*57
$GPZDA,102240.00,11,08,2022,+00,00*42
$GPGGA,102240.20,4444.5546,N,03955.5285,E,1,15,0.8,00147.7,M,0017.2,M,,*64
$GLGSA,A,3,065,071,072,087,088,,,,,,,,1.7,0.8,1.5*1B
$GPGSA,A,3,001,008,010,021,022,027,032,,,,,,1.7,0.8,1.5*07
$GAGSA,A,3,107,126,133,,,,,,,,,,1.7,0.8,1.5*1B
$GPRMC,102240.20,A,4444.5546,N,03955.5285,E,000.00000,252.7,110822,,,A*51
$GPGGA,102240.40,4444.5546,N,03955.5285,E,1,15,0.8,00147.7,M,0017.2,M,,*62
$GLGSA,A,3,065,071,072,087,088,,,,,,,,1.7,0.8,1.5*1B
$GPGSA,A,3,001,008,010,021,022,027,032,,,,,,1.7,0.8,1.5*07
$GAGSA,A,3,107,126,133,,,,,,,,,,1.7,0.8,1.5*1B
$GPRMC,102240.40,A,4444.5546,N,03955.5285,E,000.00000,256.1,110822,,,A*55
$GPGGA,102240.60,4444.5546,N,03955.5285,E,1,15,0.8,00147.7,M,0017.2,M,,*60
$GLGSA,A,3,065,071,072,087,088,,,,,,,,1.7,0.8,1.5*1B
$GPGSA,A,3,001,008,010,021,022,027,032,,,,,,1.7,0.8,1.5*07
$GAGSA,A,3,107,126,133,,,,,,,,,,1.7,0.8,1.5*1B
$GPRMC,102240.60,A,4444.5546,N,03955.5285,E,000.00000,262.7,110822,,,A*56
$GPGGA,102240.80,4444.5546,N,03955.5285,E,1,15,0.8,00147.7,M,0017.2,M,,*6E
$GLGSA,A,3,065,071,072,087,088,,,,,,,,1.7,0.8,1.5*1B
$GPGSA,A,3,001,008,010,021,022,027,032,,,,,,1.7,0.8,1.5*07
$GAGSA,A,3,107,126,133,,,,,,,,,,1.7,0.8,1.5*1B
$GPRMC,102240.80,A,4444.5546,N,03955.5285,E,000.00000,262.2,110822,,,A*5D
$GPGGA,102241.00,4444.5546,N,03955.5285,E,1,15,0.8,00147.7,M,0017.2,M,,*67
$GLGSA,A,3,065,071,072,087,088,,,,,,,,1.7,0.8,1.5*1B
$GPGSA,A,3,001,008,010,021,022,027,032,,,,,,1.7,0.8,1.5*07
$GAGSA,A,3,107,126,133,,,,,,,,,,1.7,0.8,1.5*1B
$GPGSV,7,1,25,001,23,304,33,003,04,256,20,008,50,247,37,010,44,060,41*71
$GPGSV,7,2,25,014,02,322,,021,51,306,30,022,54,162,41,023,15,069,22*75
$GPGSV,7,3,25,024,08,038,22,027,34,196,33,032,66,110,41,065,36,228,27*7C
$GPGSV,7,4,25,071,35,037,43,072,84,331,36,079,01,335,12,087,84,324,36*79
$GPGSV,7,5,25,088,33,323,48,107,37,051,31,110,06,307,,112,31,308,*7F
$GPGSV,7,6,25,119,34,200,,124,02,291,,125,00,340,,126,40,124,26*7F
$GPGSV,7,7,25,133,85,342,34*70
$GPRMC,102241.00,A,4444.5546,N,03955.5285,E,000.00000,260.8,110822,,,A*5C
$GPZDA,102241.00,11,08,2022,+00,00*43
$GPGGA,102241.20,4444.5546,N,03955.5285,E,1,15,0.8,00147.7,M,0017.2,M,,*65
$GLGSA,A,3,065,071,072,087,088,,,,,,,,1.7,0.8,1.5*1B
$GPGSA,A,3,001,008,010,021,022,027,032,,,,,,1.7,0.8,1.5*07
$GAGSA,A,3,107,126,133,,,,,,,,,,1.7,0.8,1.5*1B
$GPRMC,102241.20,A,4444.5546,N,03955.5285,E,000.00000,259.4,110822,,,A*58
$GPGGA,102241.40,4444.5546,N,03955.5285,E,1,15,0.8,00147.7,M,0017.2,M,,*63
$GLGSA,A,3,065,071,072,087,088,,,,,,,,1.7,0.8,1.5*1B
$GPGSA,A,3,001,008,010,021,022,027,032,,,,,,1.7,0.8,1.5*07
$GAGSA,A,3,107,126,133,,,,,,,,,,1.7,0.8,1.5*1B
$GPRMC,102241.40,A,4444.5546,N,03955.5285,E,000.00000,255.4,110822,,,A*52
$GPGGA,102241.60,4444.5546,N,03955.5285,E,1,14,0.9,00147.7,M,0017.2,M,,*61
$GLGSA,A,3,065,071,072,087,088,,,,,,,,1.8,0.9,1.5*15
$GPGSA,A,3,001,008,010,021,022,027,032,,,,,,1.8,0.9,1.5*09
$GAGSA,A,3,107,133,,,,,,,,,,,1.8,0.9,1.5*20
$GPRMC,102241.60,A,4444.5546,N,03955.5285,E,000.00000,251.1,110822,,,A*51
$GPGGA,102241.80,4444.5546,N,03955.5285,E,1,14,0.9,00147.7,M,0017.2,M,,*6F
$GLGSA,A,3,065,071,072,087,088,,,,,,,,1.8,0.9,1.5*15
$GPGSA,A,3,001,008,010,021,022,027,032,,,,,,1.8,0.9,1.5*09
$GAGSA,A,3,107,133,,,,,,,,,,,1.8,0.9,1.5*20
$GPRMC,102241.80,A,4444.5546,N,03955.5285,E,000.00000,248.4,110822,,,A*52
$GPGGA,102242.00,4444.5546,N,03955.5285,E,1,15,0.8,00147.7,M,0017.2,M,,*64
$GLGSA,A,3,065,071,072,087,088,,,,,,,,1.7,0.8,1.5*1B
$GPGSA,A,3,001,008,010,021,022,027,032,,,,,,1.7,0.8,1.5*07
$GAGSA,A,3,107,126,133,,,,,,,,,,1.7,0.8,1.5*1B
$GPGSV,7,1,25,001,23,304,32,003,04,256,20,008,50,247,36,010,44,060,40*70
$GPGSV,7,2,25,014,02,322,,021,51,306,29,022,54,162,40,023,15,069,22*7C
$GPGSV,7,3,25,024,08,038,21,027,34,196,33,032,66,110,40,065,36,228,29*70
$GPGSV,7,4,25,071,34,037,43,072,84,332,36,079,01,335,13,087,84,324,35*79
$GPGSV,7,5,25,088,33,323,48,107,37,051,30,110,06,307,,112,31,308,*7E
$GPGSV,7,6,25,119,34,200,,124,02,291,,125,00,340,,126,40,124,26*7F
$GPGSV,7,7,25,133,85,342,33*77
$GPRMC,102242.00,A,4444.5546,N,03955.5285,E,000.00000,246.5,110822,,,A*56
$GPZDA,102242.00,11,08,2022,+00,00*40
$GPGGA,102242.20,4444.5546,N,03955.5285,E,1,15,0.8,00147.7,M,0017.2,M,,*66
$GLGSA,A,3,065,071,072,087,088,,,,,,,,1.7,0.8,1.5*1B
$GPGSA,A,3,001,008,010,021,022,027,032,,,,,,1.7,0.8,1.5*07
$GAGSA,A,3,107,126,133,,,,,,,,,,1.7,0.8,1.5*1B
$GPRMC,102242.20,A,4444.5546,N,03955.5285,E,000.00000,244.6,110822,,,A*55
$GPGGA,102242.40,4444.5546,N,03955.5285,E,1,15,0.8,00147.7,M,0017.2,M,,*60
$GLGSA,A,3,065,071,072,087,088,,,,,,,,1.7,0.8,1.5*1B
$GPGSA,A,3,001,008,010,021,022,027,032,,,,,,1.7,0.8,1.5*07
$GAGSA,A,3,107,126,133,,,,,,,,,,1.7,0.8,1.5*1B
$GPRMC,102242.40,A,4444.5546,N,03955.5285,E,000.00000,242.8,110822,,,A*5B
$GPGGA,102242.60,4444.5546,N,03955.5285,E,1,15,0.8,00147.7,M,0017.2,M,,*62
$GLGSA,A,3,065,071,072,087,088,,,,,,,,1.7,0.8,1.5*1B
$GPGSA,A,3,001,008,010,021,022,027,032,,,,,,1.7,0.8,1.5*07
$GAGSA,A,3,107,126,133,,,,,,,,,,1.7,0.8,1.5*1B
$GPRMC,102242.60,A,4444.5546,N,03955.5285,E,000.00000,241.7,110822,,,A*55
$GPGGA,102242.80,4444.5546,N,03955.5285,E,1,15,0.8,00147.7,M,0017.2,M,,*6C
$GLGSA,A,3,065,071,072,087,088,,,,,,,,1.7,0.8,1.5*1B
$GPGSA,A,3,001,008,010,021,022,027,032,,,,,,1.7,0.8,1.5*07
$GAGSA,A,3,107,126,133,,,,,,,,,,1.7,0.8,1.5*1B
$GPRMC,102242.80,A,4444.5546,N,03955.5285,E,000.00000,241.3,110822,,,A*5F
$GPGGA,102243.00,4444.5546,N,03955.5285,E,1,15,0.8,00147.7,M,0017.2,M,,*65
$GLGSA,A,3,065,071,072,087,088,,,,,,,,1.7,0.8,1.5*1B
$GPGSA,A,3,001,008,010,021,022,027,032,,,,,,1.7,0.8,1.5*07
$GAGSA,A,3,107,126,133,,,,,,,,,,1.7,0.8,1.5*1B
$GPGSV,7,1,25,001,23,304,33,003,04,256,21,008,50,247,37,010,44,060,41*70
$GPGSV,7,2,25,014,02,322,,021,51,306,30,022,54,162,41,023,14,069,23*75
$GPGSV,7,3,25,024,08,038,22,027,34,196,34,032,66,110,40,065,36,228,31*7D
$GPGSV,7,4,25,071,34,037,43,072,84,332,37,079,01,335,12,087,84,324,35*79
$GPGSV,7,5,25,088,33,323,48,107,37,051,31,110,06,307,,112,31,308,*7F
$GPGSV,7,6,25,119,34,200,,124,02,291,,125,00,340,,126,40,124,26*7F
$GPGSV,7,7,25,133,85,342,33*77
$GPRMC,102243.00,A,4444.5546,N,03955.5285,E,000.00000,243.9,110822,,,A*5E
$GPZDA,102243.00,11,08,2022,+00,00*41
$GPGGA,102243.20,4444.5546,N,03955.5285,E,1,15,0.8,00147.7,M,0017.2,M,,*67
$GLGSA,A,3,065,071,072,087,088,,,,,,,,1.7,0.8,1.5*1B
$GPGSA,A,3,001,008,010,021,022,027,032,,,,,,1.7,0.8,1.5*07
$GAGSA,A,3,107,126,133,,,,,,,,,,1.7,0.8,1.5*1B
$GPRMC,102243.20,A,4444.5546,N,03955.5285,E,000.00000,246.0,110822,,,A*50
$GPGGA,102243.40,4444.5546,N,03955.5285,E,1,15,0.8,00147.7,M,0017.2,M,,*61
$GLGSA,A,3,065,071,072,087,088,,,,,,,,1.7,0.8,1.5*1B
$GPGSA,A,3,001,008,010,021,022,027,032,,,,,,1.7,0.8,1.5*07
$GAGSA,A,3,107,126,133,,,,,,,,,,1.7,0.8,1.5*1B
$GPRMC,102243.40,A,4444.5546,N,03955.5285,E,000.00000,244.1,110822,,,A*55
$GPGGA,102243.60,4444.5546,N,03955.5285,E,1,15,0.8,00147.7,M,0017.2,M,,*63
$GLGSA,A,3,065,071,072,087,088,,,,,,,,1.7,0.8,1.5*1B
$GPGSA,A,3,001,008,010,021,022,027,032,,,,,,1.7,0.8,1.5*07
$GAGSA,A,3,107,126,133,,,,,,,,,,1.7,0.8,1.5*1B
$GPRMC,102243.60,A,4444.5546,N,03955.5285,E,000.00000,248.4,110822,,,A*5E
$GPGGA,102243.80,4444.5546,N,03955.5285,E,1,15,0.8,00147.7,M,0017.2,M,,*6D
$GLGSA,A,3,065,071,072,087,088,,,,,,,,1.7,0.8,1.5*1B
$GPGSA,A,3,001,008,010,021,022,027,032,,,,,,1.7,0.8,1.5*07
$GAGSA,A,3,107,126,133,,,,,,,,,,1.7,0.8,1.5*1B
$GPRMC,102243.80,A,4444.5546,N,03955.5285,E,000.00000,249.0,110822,,,A*55
$GPGGA,102244.00,4444.5546,N,03955.5285,E,1,15,0.8,00147.7,M,0017.2,M,,*62
$GLGSA,A,3,065,071,072,087,088,,,,,,,,1.7,0.8,1.5*1B
$GPGSA,A,3,001,008,010,021,022,027,032,,,,,,1.7,0.8,1.5*07
$GAGSA,A,3,107,126,133,,,,,,,,,,1.7,0.8,1.5*1B
$GPGSV,7,1,25,001,23,304,33,003,04,256,20,008,50,247,37,010,44,060,41*71
$GPGSV,7,2,25,014,02,322,,021,51,306,30,022,54,162,41,023,14,069,22*74
$GPGSV,7,3,25,024,08,038,21,027,34,196,35,032,66,110,41,065,36,228,32*7D
$GPGSV,7,4,25,071,34,037,44,072,84,332,36,079,01,335,10,087,84,324,35*7D
$GPGSV,7,5,25,088,33,323,49,107,37,051,31,110,06,307,,112,31,308,*7E
$GPGSV,7,6,25,119,34,200,,124,02,291,,125,00,340,,126,40,124,26*7F
$GPGSV,7,7,25,133,85,342,34*70
$GPRMC,102244.00,A,4444.5546,N,03955.5285,E,000.00000,253.1,110822,,,A*50
$GPZDA,102244.00,11,08,2022,+00,00*46
$GPGGA,102244.20,4444.5546,N,03955.5285,E,1,15,0.8,00147.7,M,0017.2,M,,*60
$GLGSA,A,3,065,071,072,087,088,,,,,,,,1.7,0.8,1.5*1B
$GPGSA,A,3,001,008,010,021,022,027,032,,,,,,1.7,0.8,1.5*07
$GAGSA,A,3,107,126,133,,,,,,,,,,1.7,0.8,1.5*1B
$GPRMC,102244.20,A,4444.5546,N,03955.5285,E,000.00000,255.6,110822,,,A*53
$GPGGA,102244.40,4444.5546,N,03955.5285,E,1,15,0.8,00147.7,M,0017.2,M,,*66
$GLGSA,A,3,065,071,072,087,088,,,,,,,,1.7,0.8,1.5*1B
$GPGSA,A,3,001,008,010,021,022,027,032,,,,,,1.7,0.8,1.5*07
$GAGSA,A,3,107,126,133,,,,,,,,,,1.7,0.8,1.5*1B
$GPRMC,102244.40,A,4444.5546,N,03955.5285,E,000.00000,255.3,110822,,,A*50
$GPGGA,102244.60,4444.5546,N,03955.5285,E,1,15,0.8,00147.7,M,0017.2,M,,*64
$GLGSA,A,3,065,071,072,087,088,,,,,,,,1.7,0.8,1.5*1B
$GPGSA,A,3,001,008,010,021,022,027,032,,,,,,1.7,0.8,1.5*07
$GAGSA,A,3,107,126,133,,,,,,,,,,1.7,0.8,1.5*1B
$GPRMC,102244.60,A,4444.5546,N,03955.5285,E,000.00000,252.9,110822,,,A*5F
$GPGGA,102244.80,4444.5546,N,03955.5285,E,1,15,0.8,00147.7,M,0017.2,M,,*6A
$GLGSA,A,3,065,071,072,087,088,,,,,,,,1.7,0.8,1.5*1B
$GPGSA,A,3,001,008,010,021,022,027,032,,,,,,1.7,0.8,1.5*07
$GAGSA,A,3,107,126,133,,,,,,,,,,1.7,0.8,1.5*1B
$GPRMC,102244.80,A,4444.5546,N,03955.5285,E,000.00000,250.5,110822,,,A*5F
$GPGGA,102245.00,4444.5546,N,03955.5285,E,1,15,0.8,00147.7,M,0017.2,M,,*63
$GLGSA,A,3,065,071,072,087,088,,,,,,,,1.7,0.8,1.5*1B
$GPGSA,A,3,001,008,010,021,022,027,032,,,,,,1.7,0.8,1.5*07
$GAGSA,A,3,107,126,133,,,,,,,,,,1.7,0.8,1.5*1B
$GPGSV,7,1,25,001,23,304,32,003,04,256,19,008,50,247,36,010,44,060,40*7A
$GPGSV,7,2,25,014,02,322,,021,51,306,29,022,54,162,40,023,14,069,21*7E
$GPGSV,7,3,25,024,08,038,18,027,34,196,34,032,66,110,40,065,36,228,31*74
$GPGSV,7,4,25,071,34,037,43,072,84,332,36,079,01,335,09,087,84,324,34*73
$GPGSV,7,5,25,088,33,323,49,107,37,051,30,110,06,307,,112,31,308,*7F
$GPGSV,7,6,25,119,34,200,,124,02,291,,125,00,340,,126,40,124,24*7D
$GPGSV,7,7,25,133,85,342,33*77
$GPRMC,102245.00,A,4444.5546,N,03955.5285,E,000.00000,248.3,110822,,,A*59
$GPZDA,102245.00,11,08,2022,+00,00*47
$GPGGA,102245.20,4444.5546,N,03955.5285,E,1,15,0.8,00147.7,M,0017.2,M,,*61
$GLGSA,A,3,065,071,072,087,088,,,,,,,,1.7,0.8,1.5*1B
$GPGSA,A,3,001,008,010,021,022,027,032,,,,,,1.7,0.8,1.5*07
$GAGSA,A,3,107,126,133,,,,,,,,,,1.7,0.8,1.5*1B
$GPRMC,102245.20,A,4444.5546,N,03955.5285,E,000.00000,247.6,110822,,,A*51
$GPGGA,102245.40,4444.5546,N,03955.5285,E,1,15,0.8,00147.7,M,0017.2,M,,*67
$GLGSA,A,3,065,071,072,087,088,,,,,,,,1.7,0.8,1.5*1B
$GPGSA,A,3,001,008,010,021,022,027,032,,,,,,1.7,0.8,1.5*07
$GAGSA,A,3,107,126,133,,,,,,,,,,1.7,0.8,1.5*1B
$GPRMC,102245.40,A,4444.5546,N,03955.5285,E,000.00000,245.9,110822,,,A*5A
$GPGGA,102245.60,4444.5546,N,03955.5285,E,1,15,0.8,00147.7,M,0017.2,M,,*65
$GLGSA,A,3,065,071,072,087,088,,,,,,,,1.7,0.8,1.5*1B
$GPGSA,A,3,001,008,010,021,022,027,032,,,,,,1.7,0.8,1.5*07
$GAGSA,A,3,107,126,133,,,,,,,,,,1.7,0.8,1.5*1B
$GPRMC,102245.60,A,4444.5546,N,03955.5285,E,000.00000,243.6,110822,,,A*51
$GPGGA,102245.80,4444.5546,N,03955.5285,E,1,15,0.8,00147.7,M,0017.2,M,,*6B
$GLGSA,A,3,065,071,072,087,088,,,,,,,,1.7,0.8,1.5*1B
$GPGSA,A,3,001,008,010,021,022,027,032,,,,,,1.7,0.8,1.5*07
$GAGSA,A,3,107,126,133,,,,,,,,,,1.7,0.8,1.5*1B
$GPRMC,102245.80,A,4444.5546,N,03955.5285,E,000.00000,245.7,110822,,,A*58
$GPGGA,102246.00,4444.5546,N,03955.5285,E,1,15,0.8,00147.7,M,0017.2,M,,*60
$GLGSA,A,3,065,071,072,087,088,,,,,,,,1.7,0.8,1.5*1B
$GPGSA,A,3,001,008,010,021,022,027,032,,,,,,1.7,0.8,1.5*07
$GAGSA,A,3,107,126,133,,,,,,,,,,1.7,0.8,1.5*1B
$GPGSV,7,1,25,001,23,304,32,003,04,256,19,008,50,247,37,010,44,060,41*7A
$GPGSV,7,2,25,014,02,322,,021,51,306,30,022,54,162,40,023,14,069,22*75
$GPGSV,7,3,25,024,08,038,20,027,34,196,35,032,66,110,41,065,36,228,32*7C
$GPGSV,7,4,25,071,34,037,44,072,84,332,35,079,01,335,09,087,84,324,33*70
$GPGSV,7,5,25,088,33,323,49,107,37,051,31,110,06,307,,112,31,308,*7E
$GPGSV,7,6,25,119,34,200,,124,02,291,,125,00,340,,126,40,124,25*7C
$GPGSV,7,7,25,133,85,342,33*77
$GPRMC,102246.00,A,4444.5546,N,03955.5285,E,000.00000,244.6,110822,,,A*53
$GPZDA,102246.00,11,08,2022,+00,00*44
$GPGGA,102246.20,4444.5546,N,03955.5285,E,1,15,0.8,00147.7,M,0017.2,M,,*62
$GLGSA,A,3,065,071,072,087,088,,,,,,,,1.7,0.8,1.5*1B
$GPGSA,A,3,001,008,010,021,022,027,032,,,,,,1.7,0.8,1.5*07
$GAGSA,A,3,107,126,133,,,,,,,,,,1.7,0.8,1.5*1B
$GPRMC,102246.20,A,4444.5546,N,03955.5285,E,000.00000,247.4,110822,,,A*50
$GPGGA,102246.40,4444.5546,N,03955.5285,E,1,15,0.8,00147.7,M,0017.2,M,,*64
$GLGSA,A,3,065,071,072,087,088,,,,,,,,1.7,0.8,1.5*1B
$GPGSA,A,3,001,008,010,021,022,027,032,,,,,,1.7,0.8,1.5*07
$GAGSA,A,3,107,126,133,,,,,,,,,,1.7,0.8,1.5*1B
$GPRMC,102246.40,A,4444.5546,N,03955.5285,E,000.00000,253.3,110822,,,A*54
$GPGGA,102246.60,4444.5546,N,03955.5285,E,1,15,0.8,00147.7,M,0017.2,M,,*66
$GLGSA,A,3,065,071,072,087,088,,,,,,,,1.7,0.8,1.5*1B
$GPGSA,A,3,001,008,010,021,022,027,032,,,,,,1.7,0.8,1.5*07
$GAGSA,A,3,107,126,133,,,,,,,,,,1.7,0.8,1.5*1B
$GPRMC,102246.60,A,4444.5546,N,03955.5285,E,000.00000,259.6,110822,,,A*59
$GPGGA,102246.80,4444.5546,N,03955.5285,E,1,15,0.8,00147.7,M,0017.2,M,,*68
$GLGSA,A,3,065,071,072,087,088,,,,,,,,1.7,0.8,1.5*1B
$GPGSA,A,3,001,008,010,021,022,027,032,,,,,,1.7,0.8,1.5*07
$GAGSA,A,3,107,126,133,,,,,,,,,,1.7,0.8,1.5*1B
$GPRMC,102246.80,A,4444.5546,N,03955.5285,E,000.00000,257.9,110822,,,A*56
$GPGGA,102247.00,4444.5546,N,03955.5285,E,1,15,0.8,00147.7,M,0017.2,M,,*61
$GLGSA,A,3,065,071,072,087,088,,,,,,,,1.7,0.8,1.5*1B
$GPGSA,A,3,001,008,010,021,022,027,032,,,,,,1.7,0.8,1.5*07
$GAGSA,A,3,107,126,133,,,,,,,,,,1.7,0.8,1.5*1B
$GPGSV,7,1,25,001,23,304,32,003,04,256,20,008,50,247,37,010,44,060,41*70
$GPGSV,7,2,25,014,02,322,,021,51,306,30,022,54,162,41,023,14,069,22*74
$GPGSV,7,3,25,024,08,038,21,027,34,196,35,032,66,110,41,065,36,228,32*7D
$GPGSV,7,4,25,071,34,037,43,072,84,332,35,079,01,335,08,087,84,324,33*76
$GPGSV,7,5,25,088,33,323,49,107,37,051,31,110,06,307,,112,31,308,*7E
$GPGSV,7,6,25,119,34,200,,124,02,291,,125,00,340,,126,40,124,26*7F
$GPGSV,7,7,25,133,85,342,34*70
$GPRMC,102247.00,A,4444.5546,N,03955.5285,E,000.00000,280.1,110822,,,A*5D
$GPZDA,102247.00,11,08,2022,+00,00*45
$GPGGA,102247.20,4444.5546,N,03955.5285,E,1,15,0.8,00147.7,M,0017.2,M,,*63
$GLGSA,A,3,065,071,072,087,088,,,,,,,,1.7,0.8,1.5*1B
$GPGSA,A,3,001,008,010,021,022,027,032,,,,,,1.7,0.8,1.5*07
$GAGSA,A,3,107,126,133,,,,,,,,,,1.7,0.8,1.5*1B
$GPRMC,102247.20,A,4444.5546,N,03955.5285,E,000.00000,284.7,110822,,,A*5D
$GPGGA,102247.40,4444.5546,N,03955.5285,E,1,15,0.8,00147.7,M,0017.2,M,,*65
$GLGSA,A,3,065,071,072,087,088,,,,,,,,1.7,0.8,1.5*1B
$GPGSA,A,3,001,008,010,021,022,027,032,,,,,,1.7,0.8,1.5*07
$GAGSA,A,3,107,126,133,,,,,,,,,,1.7,0.8,1.5*1B
$GPRMC,102247.40,A,4444.5546,N,03955.5285,E,000.00000,275.9,110822,,,A*5B
$GPGGA,102247.60,4444.5546,N,03955.5285,E,1,15,0.8,00147.7,M,0017.2,M,,*67
$GLGSA,A,3,065,071,072,087,088,,,,,,,,1.7,0.8,1.5*1B
$GPGSA,A,3,001,008,010,021,022,027,032,,,,,,1.7,0.8,1.5*07
$GAGSA,A,3,107,126,133,,,,,,,,,,1.7,0.8,1.5*1B
$GPRMC,102247.60,A,4444.5546,N,03955.5285,E,000.00000,293.4,110822,,,A*5C
$GPGGA,102247.80,4444.5546,N,03955.5285,E,1,15,0.8,00147.7,M,0017.2,M,,*69
$GLGSA,A,3,065,071,072,087,088,,,,,,,,1.7,0.8,1.5*1B
$GPGSA,A,3,001,008,010,021,022,027,032,,,,,,1.7,0.8,1.5*07
$GAGSA,A,3,107,126,133,,,,,,,,,,1.7,0.8,1.5*1B
$GPRMC,102247.80,A,4444.5546,N,03955.5285,E,000.00000,343.1,110822,,,A*5B
$GPGGA,102248.00,4444.5546,N,03955.5285,E,1,15,0.8,00147.7,M,0017.2,M,,*6E
$GLGSA,A,3,065,071,072,087,088,,,,,,,,1.7,0.8,1.5*1B
$GPGSA,A,3,001,008,010,021,022,027,032,,,,,,1.7,0.8,1.5*07
$GAGSA,A,3,107,126,133,,,,,,,,,,1.7,0.8,1.5*1B
$GPGSV,7,1,25,001,23,304,32,003,04,256,20,008,50,247,37,010,44,060,41*70
$GPGSV,7,2,25,014,02,322,,021,51,306,30,022,54,162,41,023,14,069,21*77
$GPGSV,7,3,25,024,08,038,20,027,34,196,35,032,66,110,41,065,36,228,32*7C
$GPGSV,7,4,25,071,34,037,43,072,84,332,36,079,01,335,09,087,84,324,33*74
$GPGSV,7,5,25,088,33,323,49,107,37,051,31,110,06,307,,112,31,308,*7E
$GPGSV,7,6,25,119,34,200,,124,02,291,,125,00,340,,126,40,124,26*7F
$GPGSV,7,7,25,133,85,342,34*70
$GPRMC,102248.00,A,4444.5546,N,03955.5285,E,000.00000,346.1,110822,,,A*59
$GPZDA,102248.00,11,08,2022,+00,00*4A
$GPGGA,102248.20,4444.5546,N,03955.5285,E,1,15,0.8,00147.7,M,0017.2,M,,*6C
$GLGSA,A,3,065,071,072,087,088,,,,,,,,1.7,0.8,1.5*1B
$GPGSA,A,3,001,008,010,021,022,027,032,,,,,,1.7,0.8,1.5*07
$GAGSA,A,3,107,126,133,,,,,,,,,,1.7,0.8,1.5*1B
$GPRMC,102248.20,A,4444.5546,N,03955.5285,E,000.00000,330.8,110822,,,A*53
$GPGGA,102248.40,4444.5546,N,03955.5285,E,1,15,0.8,00147.7,M,0017.2,M,,*6A
$GLGSA,A,3,065,071,072,087,088,,,,,,,,1.7,0.8,1.5*1B
$GPGSA,A,3,001,008,010,021,022,027,032,,,,,,1.7,0.8,1.5*07
$GAGSA,A,3,107,126,133,,,,,,,,,,1.7,0.8,1.5*1B
$GPRMC,102248.40,A,4444.5546,N,03955.5285,E,000.00000,323.6,110822,,,A*59
$GPGGA,102248.60,4444.5546,N,03955.5285,E,1,15,0.8,00147.7,M,0017.2,M,,*68
$GLGSA,A,3,065,071,072,087,088,,,,,,,,1.7,0.8,1.5*1B
$GPGSA,A,3,001,008,010,021,022,027,032,,,,,,1.7,0.8,1.5*07
$GAGSA,A,3,107,126,133,,,,,,,,,,1.7,0.8,1.5*1B
$GPRMC,102248.60,A,4444.5546,N,03955.5285,E,000.00000,322.0,110822,,,A*5C
$GPGGA,102248.80,4444.5546,N,03955.5285,E,1,14,0.9,00147.7,M,0017.2,M,,*66
$GLGSA,A,3,065,071,072,087,088,,,,,,,,1.8,0.9,1.5*15
$GPGSA,A,3,001,008,010,021,022,027,032,,,,,,1.8,0.9,1.5*09
$GAGSA,A,3,107,133,,,,,,,,,,,1.8,0.9,1.5*20
$GPRMC,102248.80,A,4444.5546,N,03955.5285,E,000.00000,323.1,110822,,,A*52
$GPGGA,102249.00,4444.5546,N,03955.5285,E,1,15,0.8,00147.7,M,0017.2,M,,*6F
$GLGSA,A,3,065,071,072,087,088,,,,,,,,1.7,0.8,1.5*1B
$GPGSA,A,3,001,008,010,021,022,027,032,,,,,,1.7,0.8,1.5*07
$GAGSA,A,3,107,126,133,,,,,,,,,,1.7,0.8,1.5*1B
$GPGSV,7,1,25,001,23,304,31,003,04,256,19,008,50,247,36,010,44,060,40*79
$GPGSV,7,2,25,014,02,322,,021,51,306,29,022,54,162,40,023,14,069,20*7F
$GPGSV,7,3,25,024,08,038,19,027,34,196,34,032,66,110,40,065,36,228,32*76
$GPGSV,7,4,25,071,34,037,43,072,84,332,36,079,01,335,08,087,84,324,33*75
$GPGSV,7,5,25,088,33,323,49,107,37,051,30,110,06,307,,112,31,308,*7F
$GPGSV,7,6,25,119,34,200,,124,02,291,,125,00,340,,126,40,124,26*7F
$GPGSV,7,7,25,133,85,342,33*77
$GPRMC,102249.00,A,4444.5546,N,03955.5285,E,000.00000,353.8,110822,,,A*55
$GPZDA,102249.00,11,08,2022,+00,00*4B
$GPGGA,102249.20,4444.5546,N,03955.5285,E,1,15,0.8,00147.7,M,0017.2,M,,*6D
$GLGSA,A,3,065,071,072,087,088,,,,,,,,1.7,0.8,1.5*1B
$GPGSA,A,3,001,008,010,021,022,027,032,,,,,,1.7,0.8,1.5*07
$GAGSA,A,3,107,126,133,,,,,,,,,,1.7,0.8,1.5*1B
$GPRMC,102249.20,A,4444.5546,N,03955.5285,E,000.00000,330.4,110822,,,A*5E
$GPGGA,102249.40,4444.5546,N,03955.5285,E,1,15,0.8,00147.7,M,0017.2,M,,*6B
$GLGSA,A,3,065,071,072,087,088,,,,,,,,1.7,0.8,1.5*1B
$GPGSA,A,3,001,008,010,021,022,027,032,,,,,,1.7,0.8,1.5*07
$GAGSA,A,3,107,126,133,,,,,,,,,,1.7,0.8,1.5*1B
$GPRMC,102249.40,A,4444.5546,N,03955.5285,E,000.00000,322.6,110822,,,A*59
$GPGGA,102249.60,4444.5546,N,03955.5285,E,1,15,0.8,00147.7,M,0017.2,M,,*69
$GLGSA,A,3,065,071,072,087,088,,,,,,,,1.7,0.8,1.5*1B
$GPGSA,A,3,001,008,010,021,022,027,032,,,,,,1.7,0.8,1.5*07
$GAGSA,A,3,107,126,133,,,,,,,,,,1.7,0.8,1.5*1B
$GPRMC,102249.60,A,4444.5546,N,03955.5285,E,000.00000,330.4,110822,,,A*5A
$GPGGA,102249.80,4444.5546,N,03955.5285,E,1,15,0.8,00147.7,M,0017.2,M,,*67
$GLGSA,A,3,065,071,072,087,088,,,,,,,,1.7,0.8,1.5*1B
$GPGSA,A,3,001,008,010,021,022,027,032,,,,,,1.7,0.8,1.5*07
$GAGSA,A,3,107,126,133,,,,,,,,,,1.7,0.8,1.5*1B
$GPRMC,102249.80,A,4444.5546,N,03955.5285,E,000.00000,333.0,110822,,,A*53
$GPGGA,102250.00,4444.5546,N,03955.5285,E,1,15,0.8,00147.7,M,0017.2,M,,*67
$GLGSA,A,3,065,071,072,087,088,,,,,,,,1.7,0.8,1.5*1B
$GPGSA,A,3,001,008,010,021,022,027,032,,,,,,1.7,0.8,1.5*07
$GAGSA,A,3,107,126,133,,,,,,,,,,1.7,0.8,1.5*1B
$GPGSV,7,1,25,001,23,304,31,003,04,256,20,008,50,247,37,010,44,060,40*72
$GPGSV,7,2,25,014,02,322,,021,51,306,30,022,54,162,41,023,14,069,21*77
$GPGSV,7,3,25,024,08,038,20,027,34,196,35,032,66,110,40,065,36,228,32*7D
$GPGSV,7,4,25,071,34,037,43,072,84,332,35,079,01,335,09,087,84,324,33*77
$GPGSV,7,5,25,088,33,323,49,107,37,051,30,110,06,307,,112,31,308,*7F
$GPGSV,7,6,25,119,34,200,,124,02,291,,125,00,340,,126,40,124,26*7F
$GPGSV,7,7,25,133,85,342,34*70
$GPRMC,102250.00,A,4444.5546,N,03955.5285,E,000.00000,334.2,110822,,,A*56
$GPZDA,102250.00,11,08,2022,+00,00*43
$GPGGA,102250.20,4444.5546,N,03955.5285,E,1,15,0.8,00147.7,M,0017.2,M,,*65
$GLGSA,A,3,065,071,072,087,088,,,,,,,,1.7,0.8,1.5*1B
$GPGSA,A,3,001,008,010,021,022,027,032,,,,,,1.7,0.8,1.5*07
$GAGSA,A,3,107,126,133,,,,,,,,,,1.7,0.8,1.5*1B
$GPRMC,102250.20,A,4444.5546,N,03955.5285,E,000.00000,336.8,110822,,,A*5C
$GPGGA,102250.40,4444.5546,N,03955.5285,E,1,15,0.8,00147.7,M,0017.2,M,,*63
$GLGSA,A,3,065,071,072,087,088,,,,,,,,1.7,0.8,1.5*1B
$GPGSA,A,3,001,008,010,021,022,027,032,,,,,,1.7,0.8,1.5*07
$GAGSA,A,3,107,126,133,,,,,,,,,,1.7,0.8,1.5*1B
$GPRMC,102250.40,A,4444.5546,N,03955.5285,E,000.00000,345.0,110822,,,A*56
$GPGGA,102250.60,4444.5546,N,03955.5285,E,1,15,0.8,00147.7,M,0017.2,M,,*61
$GLGSA,A,3,065,071,072,087,088,,,,,,,,1.7,0.8,1.5*1B
$GPGSA,A,3,001,008,010,021,022,027,032,,,,,,1.7,0.8,1.5*07
$GAGSA,A,3,107,126,133,,,,,,,,,,1.7,0.8,1.5*1B
$GPRMC,102250.60,A,4444.5546,N,03955.5285,E,000.00000,344.9,110822,,,A*5C
$GPGGA,102250.80,4444.5546,N,03955.5285,E,1,15,0.8,00147.7,M,0017.2,M,,*6F
$GLGSA,A,3,065,071,072,087,088,,,,,,,,1.7,0.8,1.5*1B
$GPGSA,A,3,001,008,010,021,022,027,032,,,,,,1.7,0.8,1.5*07
$GAGSA,A,3,107,126,133,,,,,,,,,,1.7,0.8,1.5*1B
$GPRMC,102250.80,A,4444.5546,N,03955.5285,E,000.00000,344.7,110822,,,A*5C
$GPGGA,102251.00,4444.5546,N,03955.5285,E,1,15,0.8,00147.7,M,0017.2,M,,*66
$GLGSA,A,3,065,071,072,087,088,,,,,,,,1.7,0.8,1.5*1B
$GPGSA,A,3,001,008,010,021,022,027,032,,,,,,1.7,0.8,1.5*07
$GAGSA,A,3,107,126,133,,,,,,,,,,1.7,0.8,1.5*1B
$GPGSV,7,1,25,001,23,304,32,003,04,256,20,008,50,247,37,010,44,060,40*71
$GPGSV,7,2,25,014,02,322,,021,51,306,31,022,54,162,41,023,14,069,22*75
$GPGSV,7,3,25,024,08,038,20,027,34,196,35,032,66,110,41,065,36,228,31*7F
$GPGSV,7,4,25,071,34,037,43,072,84,332,35,079,01,335,,087,84,324,33*7E
$GPGSV,7,5,25,088,33,323,49,107,37,051,31,110,06,307,,112,31,308,*7E
$GPGSV,7,6,25,119,34,200,,124,02,291,,125,00,340,,126,40,124,26*7F
$GPGSV,7,7,25,133,85,342,34*70
$GPRMC,102251.00,A,4444.5546,N,03955.5285,E,000.00000,333.6,110822,,,A*54
$GPZDA,102251.00,11,08,2022,+00,00*42
$GPGGA,102251.20,4444.5546,N,03955.5285,E,1,15,0.8,00147.7,M,0017.2,M,,*64
$GLGSA,A,3,065,071,072,087,088,,,,,,,,1.7,0.8,1.5*1B
$GPGSA,A,3,001,008,010,021,022,027,032,,,,,,1.7,0.8,1.5*07
$GAGSA,A,3,107,126,133,,,,,,,,,,1.7,0.8,1.5*1B
$GPRMC,102251.20,A,4444.5546,N,03955.5285,E,000.00000,315.5,110822,,,A*51
$GPGGA,102251.40,4444.5546,N,03955.5285,E,1,15,0.8,00147.7,M,0017.2,M,,*62
$GLGSA,A,3,065,071,072,087,088,,,,,,,,1.7,0.8,1.5*1B
$GPGSA,A,3,001,008,010,021,022,027,032,,,,,,1.7,0.8,1.5*07
$GAGSA,A,3,107,126,133,,,,,,,,,,1.7,0.8,1.5*1B
$GPRMC,102251.40,A,4444.5546,N,03955.5285,E,000.00000,300.6,110822,,,A*50
$GPGGA,102251.60,4444.5546,N,03955.5285,E,1,15,0.8,00147.7,M,0017.2,M,,*60
$GLGSA,A,3,065,071,072,087,088,,,,,,,,1.7,0.8,1.5*1B
$GPGSA,A,3,001,008,010,021,022,027,032,,,,,,1.7,0.8,1.5*07
$GAGSA,A,3,107,126,133,,,,,,,,,,1.7,0.8,1.5*1B
$GPRMC,102251.60,A,4444.5546,N,03955.5285,E,000.00000,291.7,110822,,,A*5A
$GPGGA,102251.80,4444.5546,N,03955.5285,E,1,15,0.8,00147.7,M,0017.2,M,,*6E
$GLGSA,A,3,065,071,072,087,088,,,,,,,,1.7,0.8,1.5*1B
$GPGSA,A,3,001,008,010,021,022,027,032,,,,,,1.7,0.8,1.5*07
$GAGSA,A,3,107,126,133,,,,,,,,,,1.7,0.8,1.5*1B
$GPRMC,102251.80,A,4444.5546,N,03955.5285,E,000.00000,286.1,110822,,,A*54
$GPGGA,102252.00,4444.5546,N,03955.5285,E,1,15,0.8,00147.7,M,0017.2,M,,*65
$GLGSA,A,3,065,071,072,087,088,,,,,,,,1.7,0.8,1.5*1B
$GPGSA,A,3,001,008,010,021,022,027,032,,,,,,1.7,0.8,1.5*07
$GAGSA,A,3,107,126,133,,,,,,,,,,1.7,0.8,1.5*1B
$GPGSV,7,1,25,001,23,304,31,003,04,256,19,008,50,247,36,010,44,060,40*79
$GPGSV,7,2,25,014,02,322,,021,51,306,30,022,54,162,40,023,14,069,21*76
$GPGSV,7,3,25,024,08,038,17,027,34,196,34,032,66,110,40,065,36,228,31*7B
$GPGSV,7,4,25,071,34,037,43,072,84,332,35,079,01,335,,087,84,324,33*7E
$GPGSV,7,5,25,088,33,323,49,107,37,051,30,110,06,307,,112,31,308,*7F
$GPGSV,7,6,25,119,34,200,,124,02,291,,125,00,340,,126,40,124,26*7F
$GPGSV,7,7,25,133,85,342,33*77
$GPRMC,102252.00,A,4444.5546,N,03955.5285,E,000.00000,282.2,110822,,,A*58
$GPZDA,102252.00,11,08,2022,+00,00*41
$GPGGA,102252.20,4444.5546,N,03955.5285,E,1,15,0.8,00147.7,M,0017.2,M,,*67
$GLGSA,A,3,065,071,072,087,088,,,,,,,,1.7,0.8,1.5*1B
$GPGSA,A,3,001,008,010,021,022,027,032,,,,,,1.7,0.8,1.5*07
$GAGSA,A,3,107,126,133,,,,,,,,,,1.7,0.8,1.5*1B
$GPRMC,102252.20,A,4444.5546,N,03955.5285,E,000.00000,238.2,110822,,,A*5B
$GPGGA,102252.40,4444.5546,N,03955.5285,E,1,15,0.8,00147.7,M,0017.2,M,,*61
$GLGSA,A,3,065,071,072,087,088,,,,,,,,1.7,0.8,1.5*1B
$GPGSA,A,3,001,008,010,021,022,027,032,,,,,,1.7,0.8,1.5*07
$GAGSA,A,3,107,126,133,,,,,,,,,,1.7,0.8,1.5*1B
$GPRMC,102252.40,A,4444.5546,N,03955.5285,E,000.00000,237.9,110822,,,A*59
$GPGGA,102252.60,4444.5546,N,03955.5285,E,1,15,0.8,00147.7,M,0017.2,M,,*63
$GLGSA,A,3,065,071,072,087,088,,,,,,,,1.7,0.8,1.5*1B
$GPGSA,A,3,001,008,010,021,022,027,032,,,,,,1.7,0.8,1.5*07
$GAGSA,A,3,107,126,133,,,,,,,,,,1.7,0.8,1.5*1B
$GPRMC,102252.60,A,4444.5546,N,03955.5285,E,000.00000,238.5,110822,,,A*58
$GPGGA,102252.80,4444.5546,N,03955.5285,E,1,15,0.8,00147.7,M,0017.2,M,,*6D
$GLGSA,A,3,065,071,072,087,088,,,,,,,,1.7,0.8,1.5*1B
$GPGSA,A,3,001,008,010,021,022,027,032,,,,,,1.7,0.8,1.5*07
$GAGSA,A,3,107,126,133,,,,,,,,,,1.7,0.8,1.5*1B
$GPRMC,102252.80,A,4444.5546,N,03955.5285,E,000.00000,232.6,110822,,,A*5F
$GPGGA,102253.00,4444.5546,N,03955.5285,E,1,15,0.8,00147.7,M,0017.2,M,,*64
$GLGSA,A,3,065,071,072,087,088,,,,,,,,1.7,0.8,1.5*1B
$GPGSA,A,3,001,008,010,021,022,027,032,,,,,,1.7,0.8,1.5*07
$GAGSA,A,3,107,126,133,,,,,,,,,,1.7,0.8,1.5*1B
$GPGSV,7,1,25,001,23,304,32,003,04,256,19,008,50,247,37,010,44,060,40*7B
$GPGSV,7,2,25,014,02,322,,021,51,306,31,022,54,162,41,023,14,069,20*77
$GPGSV,7,3,25,024,08,038,20,027,34,196,34,032,66,110,41,065,36,228,31*7E
$GPGSV,7,4,25,071,34,037,43,072,84,332,34,079,01,335,,087,84,324,34*78
$GPGSV,7,5,25,088,33,323,49,107,37,051,30,110,06,307,,112,31,308,*7F
$GPGSV,7,6,25,119,34,200,,124,02,291,,125,00,340,,126,40,124,26*7F
$GPGSV,7,7,25,133,85,342,34*70
$GPRMC,102253.00,A,4444.5546,N,03955.5285,E,000.00000,227.7,110822,,,A*53
$GPZDA,102253.00,11,08,2022,+00,00*40
$GPGGA,102253.20,4444.5546,N,03955.5285,E,1,15,0.8,00147.7,M,0017.2,M,,*66
$GLGSA,A,3,065,071,072,087,088,,,,,,,,1.7,0.8,1.5*1B
$GPGSA,A,3,001,008,010,021,022,027,032,,,,,,1.7,0.8,1.5*07
$GAGSA,A,3,107,126,133,,,,,,,,,,1.7,0.8,1.5*1B
$GPRMC,102253.20,A,4444.5546,N,03955.5285,E,000.00000,231.5,110822,,,A*54
$GPGGA,102253.40,4444.5546,N,03955.5285,E,1,15,0.8,00147.7,M,0017.2,M,,*60
$GLGSA,A,3,065,071,072,087,088,,,,,,,,1.7,0.8,1.5*1B
$GPGSA,A,3,001,008,010,021,022,027,032,,,,,,1.7,0.8,1.5*07
$GAGSA,A,3,107,126,133,,,,,,,,,,1.7,0.8,1.5*1B
$GPRMC,102253.40,A,4444.5546,N,03955.5285,E,000.00000,245.1,110822,,,A*55
$GPGGA,102253.60,4444.5546,N,03955.5285,E,1,15,0.8,00147.7,M,0017.2,M,,*62
$GLGSA,A,3,065,071,072,087,088,,,,,,,,1.7,0.8,1.5*1B
$GPGSA,A,3,001,008,010,021,022,027,032,,,,,,1.7,0.8,1.5*07
$GAGSA,A,3,107,126,133,,,,,,,,,,1.7,0.8,1.5*1B
$GPRMC,102253.60,A,4444.5546,N,03955.5285,E,000.00000,252.4,110822,,,A*54
$GPGGA,102253.80,4444.5546,N,03955.5285,E,1,15,0.8,00147.7,M,0017.2,M,,*6C
$GLGSA,A,3,065,071,072,087,088,,,,,,,,1.7,0.8,1.5*1B
$GPGSA,A,3,001,008,010,021,022,027,032,,,,,,1.7,0.8,1.5*07
$GAGSA,A,3,107,126,133,,,,,,,,,,1.7,0.8,1.5*1B
$GPRMC,102253.80,A,4444.5546,N,03955.5285,E,000.00000,259.1,110822,,,A*54
$GPGGA,102254.00,4444.5546,N,03955.5285,E,1,15,0.8,00147.7,M,0017.2,M,,*63
$GLGSA,A,3,065,071,072,087,088,,,,,,,,1.7,0.8,1.5*1B
$GPGSA,A,3,001,008,010,021,022,027,032,,,,,,1.7,0.8,1.5*07
$GAGSA,A,3,107,126,133,,,,,,,,,,1.7,0.8,1.5*1B
$GPGSV,7,1,25,001,23,304,32,003,04,256,20,008,50,247,37,010,44,060,40*71
$GPGSV,7,2,25,014,02,322,,021,51,306,31,022,54,162,41,023,14,069,20*77
$GPGSV,7,3,25,024,08,038,19,027,34,196,34,032,66,110,41,065,36,228,31*74
$GPGSV,7,4,25,071,34,037,43,072,84,333,34,079,01,335,,087,84,324,34*79
$GPGSV,7,5,25,088,33,323,49,107,37,051,31,110,06,307,,112,31,308,*7E
$GPGSV,7,6,25,119,34,200,,124,02,291,,125,00,340,,126,40,124,26*7F
$GPGSV,7,7,25,133,85,342,34*70
$GPRMC,102254.00,A,4444.5546,N,03955.5285,E,000.00000,289.5,110822,,,A*52
$GPZDA,102254.00,11,08,2022,+00,00*47
$GPGGA,102254.20,4444.5546,N,03955.5285,E,1,15,0.8,00147.7,M,0017.2,M,,*61
$GLGSA,A,3,065,071,072,087,088,,,,,,,,1.7,0.8,1.5*1B
$GPGSA,A,3,001,008,010,021,022,027,032,,,,,,1.7,0.8,1.5*07
$GAGSA,A,3,107,126,133,,,,,,,,,,1.7,0.8,1.5*1B
$GPRMC,102254.20,A,4444.5546,N,03955.5285,E,000.00000,288.3,110822,,,A*57
$GPGGA,102254.40,4444.5546,N,03955.5285,E,1,14,0.9,00147.7,M,0017.2,M,,*67
$GLGSA,A,3,065,071,072,087,088,,,,,,,,1.8,0.9,1.5*15
$GPGSA,A,3,001,008,010,021,022,027,032,,,,,,1.8,0.9,1.5*09
$GAGSA,A,3,107,133,,,,,,,,,,,1.8,0.9,1.5*20
$GPRMC,102254.40,A,4444.5546,N,03955.5285,E,000.00000,278.8,110822,,,A*55
$GPGGA,102254.60,4444.5546,N,03955.5285,E,1,15,0.8,00147.7,M,0017.2,M,,*65
$GLGSA,A,3,065,071,072,087,088,,,,,,,,1.7,0.8,1.5*1B
$GPGSA,A,3,001,008,010,021,022,027,032,,,,,,1.7,0.8,1.5*07
$GAGSA,A,3,107,126,133,,,,,,,,,,1.7,0.8,1.5*1B
$GPRMC,102254.60,A,4444.5546,N,03955.5285,E,000.00000,269.1,110822,,,A*5E
$GPGGA,102254.80,4444.5546,N,03955.5285,E,1,15,0.8,00147.7,M,0017.2,M,,*6B
$GLGSA,A,3,065,071,072,087,088,,,,,,,,1.7,0.8,1.5*1B
$GPGSA,A,3,001,008,010,021,022,027,032,,,,,,1.7,0.8,1.5*07
$GAGSA,A,3,107,126,133,,,,,,,,,,1.7,0.8,1.5*1B
$GPRMC,102254.80,A,4444.5546,N,03955.5285,E,000.00000,264.1,110822,,,A*5D
$GPGGA,102255.00,4444.5546,N,03955.5285,E,1,15,0.8,00147.7,M,0017.2,M,,*62
$GLGSA,A,3,065,071,072,087,088,,,,,,,,1.7,0.8,1.5*1B
$GPGSA,A,3,001,008,010,021,022,027,032,,,,,,1.7,0.8,1.5*07
$GAGSA,A,3,107,126,133,,,,,,,,,,1.7,0.8,1.5*1B
$GPGSV,7,1,25,001,23,304,31,003,04,256,19,008,50,247,36,010,44,060,40*79
$GPGSV,7,2,25,014,02,322,,021,51,306,30,022,54,162,40,023,14,069,21*76
$GPGSV,7,3,25,024,08,038,18,027,34,196,33,032,66,110,40,065,36,228,31*73
$GPGSV,7,4,25,071,34,037,43,072,84,333,34,079,01,335,,087,84,324,34*79
$GPGSV,7,5,25,088,33,323,49,107,37,051,30,110,06,307,,112,31,308,*7F
$GPGSV,7,6,25,119,34,200,,124,02,291,,125,00,340,,126,40,124,25*7C
$GPGSV,7,7,25,133,85,342,33*77
$GPRMC,102255.00,A,4444.5546,N,03955.5285,E,000.00000,259.1,110822,,,A*5A
$GPZDA,102255.00,11,08,2022,+00,00*46
$GPGGA,102255.20,4444.5546,N,03955.5285,E,1,15,0.8,00147.7,M,0017.2,M,,*60
$GLGSA,A,3,065,071,072,087,088,,,,,,,,1.7,0.8,1.5*1B
$GPGSA,A,3,001,008,010,021,022,027,032,,,,,,1.7,0.8,1.5*07
$GAGSA,A,3,107,126,133,,,,,,,,,,1.7,0.8,1.5*1B
$GPRMC,102255.20,A,4444.5546,N,03955.5285,E,000.00000,270.0,110822,,,A*52
$GPGGA,102255.40,4444.5546,N,03955.5285,E,1,15,0.8,00147.7,M,0017.2,M,,*66
$GLGSA,A,3,065,071,072,087,088,,,,,,,,1.7,0.8,1.5*1B
$GPGSA,A,3,001,008,010,021,022,027,032,,,,,,1.7,0.8,1.5*07
$GAGSA,A,3,107,126,133,,,,,,,,,,1.7,0.8,1.5*1B
$GPRMC,102255.40,A,4444.5546,N,03955.5285,E,000.00000,268.8,110822,,,A*55
$GPGGA,102255.60,4444.5546,N,03955.5285,E,1,15,0.8,00147.7,M,0017.2,M,,*64
$GLGSA,A,3,065,071,072,087,088,,,,,,,,1.7,0.8,1.5*1B
$GPGSA,A,3,001,008,010,021,022,027,032,,,,,,1.7,0.8,1.5*07
$GAGSA,A,3,107,126,133,,,,,,,,,,1.7,0.8,1.5*1B
$GPRMC,102255.60,A,4444.5546,N,03955.5285,E,000.00000,276.4,110822,,,A*54
$GPGGA,102255.80,4444.5546,N,03955.5285,E,1,15,0.8,00147.7,M,0017.2,M,,*6A
$GLGSA,A,3,065,071,072,087,088,,,,,,,,1.7,0.8,1.5*1B
$GPGSA,A,3,001,008,010,021,022,027,032,,,,,,1.7,0.8,1.5*07
$GAGSA,A,3,107,126,133,,,,,,,,,,1.7,0.8,1.5*1B
$GPRMC,102255.80,A,4444.5546,N,03955.5285,E,000.00000,284.2,110822,,,A*51
$GPGGA,102256.00,4444.5546,N,03955.5285,E,1,14,0.9,00147.7,M,0017.2,M,,*61
$GLGSA,A,3,065,071,072,087,088,,,,,,,,1.8,0.9,1.5*15
$GPGSA,A,3,001,008,010,021,022,027,032,,,,,,1.8,0.9,1.5*09
$GAGSA,A,3,107,133,,,,,,,,,,,1.8,0.9,1.5*20
$GPGSV,7,1,25,001,23,304,32,003,04,256,20,008,50,247,37,010,44,060,40*71
$GPGSV,7,2,25,014,02,322,,021,51,306,31,022,54,162,40,023,14,069,22*74
$GPGSV,7,3,25,024,08,038,19,027,34,196,34,032,66,110,41,065,36,228,31*74
$GPGSV,7,4,25,071,34,037,43,072,84,333,34,079,01,335,,087,84,324,34*79
$GPGSV,7,5,25,088,33,323,49,107,37,051,30,110,06,307,,112,31,308,*7F
$GPGSV,7,6,25,119,34,200,,124,02,291,,125,00,340,,126,40,124,26*7F
$GPGSV,7,7,25,133,85,343,34*71
$GPRMC,102256.00,A,4444.5546,N,03955.5285,E,000.00000,298.7,110822,,,A*52
$GPZDA,102256.00,11,08,2022,+00,00*45
$GPGGA,102256.20,4444.5546,N,03955.5285,E,1,15,0.8,00147.7,M,0017.2,M,,*63
$GLGSA,A,3,065,071,072,087,088,,,,,,,,1.7,0.8,1.5*1B
$GPGSA,A,3,001,008,010,021,022,027,032,,,,,,1.7,0.8,1.5*07
$GAGSA,A,3,107,126,133,,,,,,,,,,1.7,0.8,1.5*1B
$GPRMC,102256.20,A,4444.5546,N,03955.5285,E,000.00000,306.3,110822,,,A*52
$GPGGA,102256.40,4444.5546,N,03955.5285,E,1,15,0.8,00147.7,M,0017.2,M,,*65
$GLGSA,A,3,065,071,072,087,088,,,,,,,,1.7,0.8,1.5*1B
$GPGSA,A,3,001,008,010,021,022,027,032,,,,,,1.7,0.8,1.5*07
$GAGSA,A,3,107,126,133,,,,,,,,,,1.7,0.8,1.5*1B
$GPRMC,102256.40,A,4444.5546,N,03955.5285,E,000.00000,313.1,110822,,,A*52
$GPGGA,102256.60,4444.5546,N,03955.5285,E,1,15,0.8,00147.7,M,0017.2,M,,*67
$GLGSA,A,3,065,071,072,087,088,,,,,,,,1.7,0.8,1.5*1B
$GPGSA,A,3,001,008,010,021,022,027,032,,,,,,1.7,0.8,1.5*07
$GAGSA,A,3,107,126,133,,,,,,,,,,1.7,0.8,1.5*1B
$GPRMC,102256.60,A,4444.5546,N,03955.5285,E,000.00000,294.5,110822,,,A*5A
$GPGGA,102256.80,4444.5546,N,03955.5285,E,1,15,0.8,00147.7,M,0017.2,M,,*69
$GLGSA,A,3,065,071,072,087,088,,,,,,,,1.7,0.8,1.5*1B
$GPGSA,A,3,001,008,010,021,022,027,032,,,,,,1.7,0.8,1.5*07
$GAGSA,A,3,107,126,133,,,,,,,,,,1.7,0.8,1.5*1B
$GPRMC,102256.80,A,4444.5546,N,03955.5285,E,000.00000,291.7,110822,,,A*53
$GPGGA,102257.00,4444.5546,N,03955.5285,E,1,14,0.9,00147.7,M,0017.2,M,,*60
$GLGSA,A,3,065,071,072,087,088,,,,,,,,1.8,0.9,1.5*15
$GPGSA,A,3,001,008,010,021,022,027,032,,,,,,1.8,0.9,1.5*09
$GAGSA,A,3,107,133,,,,,,,,,,,1.8,0.9,1.5*20
$GPGSV,7,1,25,001,23,304,32,003,04,256,20,008,50,247,37,010,44,060,41*70
$GPGSV,7,2,25,014,02,322,,021,51,306,31,022,54,162,40,023,14,069,22*74
$GPGSV,7,3,25,024,08,038,18,027,34,196,34,032,66,110,41,065,36,228,31*75
$GPGSV,7,4,25,071,34,037,43,072,84,333,34,079,01,335,,087,84,324,35*78
$GPGSV,7,5,25,088,33,323,49,107,37,051,31,110,06,307,,112,31,308,*7E
$GPGSV,7,6,25,119,34,200,,124,02,291,,125,00,340,,126,40,124,25*7C
$GPGSV,7,7,25,133,85,343,34*71
$GPRMC,102257.00,A,4444.5546,N,03955.5285,E,000.00000,285.8,110822,,,A*50
$GPZDA,102257.00,11,08,2022,+00,00*44
$GPGGA,102257.20,4444.5546,N,03955.5285,E,1,15,0.8,00147.7,M,0017.2,M,,*62
$GLGSA,A,3,065,071,072,087,088,,,,,,,,1.7,0.8,1.5*1B
$GPGSA,A,3,001,008,010,021,022,027,032,,,,,,1.7,0.8,1.5*07
$GAGSA,A,3,107,126,133,,,,,,,,,,1.7,0.8,1.5*1B
$GPRMC,102257.20,A,4444.5546,N,03955.5285,E,000.00000,271.9,110822,,,A*58
$GPGGA,102257.40,4444.5546,N,03955.5285,E,1,15,0.8,00147.7,M,0017.2,M,,*64
$GLGSA,A,3,065,071,072,087,088,,,,,,,,1.7,0.8,1.5*1B
$GPGSA,A,3,001,008,010,021,022,027,032,,,,,,1.7,0.8,1.5*07
$GAGSA,A,3,107,126,133,,,,,,,,,,1.7,0.8,1.5*1B
$GPRMC,102257.40,A,4444.5546,N,03955.5285,E,000.00000,261.7,110822,,,A*51
$GPGGA,102257.60,4444.5546,N,03955.5285,E,1,14,0.9,00147.7,M,0017.2,M,,*66
$GLGSA,A,3,065,071,072,087,088,,,,,,,,1.8,0.9,1.5*15
$GPGSA,A,3,001,008,010,021,022,027,032,,,,,,1.8,0.9,1.5*09
$GAGSA,A,3,107,133,,,,,,,,,,,1.8,0.9,1.5*20
$GPRMC,102257.60,A,4444.5546,N,03955.5285,E,000.00000,255.5,110822,,,A*56
$GPGGA,102257.80,4444.5546,N,03955.5285,E,1,15,0.8,00147.7,M,0017.2,M,,*68
$GLGSA,A,3,065,071,072,087,088,,,,,,,,1.7,0.8,1.5*1B
$GPGSA,A,3,001,008,010,021,022,027,032,,,,,,1.7,0.8,1.5*07
$GAGSA,A,3,107,126,133,,,,,,,,,,1.7,0.8,1.5*1B
$GPRMC,102257.80,A,4444.5546,N,03955.5285,E,000.00000,251.2,110822,,,A*5B
$GPGGA,102258.00,4444.5546,N,03955.5285,E,1,15,0.8,00147.7,M,0017.2,M,,*6F
$GLGSA,A,3,065,071,072,087,088,,,,,,,,1.7,0.8,1.5*1B
$GPGSA,A,3,001,008,010,021,022,027,032,,,,,,1.7,0.8,1.5*07
$GAGSA,A,3,107,126,133,,,,,,,,,,1.7,0.8,1.5*1B
$GPGSV,7,1,25,001,23,304,32,003,04,256,21,008,50,247,37,010,44,060,41*71
$GPGSV,7,2,25,014,02,322,,021,51,306,31,022,54,162,40,023,14,069,22*74
$GPGSV,7,3,25,024,08,038,19,027,34,196,34,032,66,110,41,065,36,228,30*75
$GPGSV,7,4,25,071,34,037,43,072,84,333,35,079,01,335,,087,84,324,35*79
$GPGSV,7,5,25,088,33,323,49,107,37,051,30,110,06,307,,112,31,308,*7F
$GPGSV,7,6,25,119,34,200,,124,02,291,,125,00,340,,126,40,124,26*7F
$GPGSV,7,7,25,133,85,343,34*71
$GPRMC,102258.00,A,4444.5546,N,03955.5285,E,000.00000,254.2,110822,,,A*59
$GPZDA,102258.00,11,08,2022,+00,00*4B
$GPGGA,102258.20,4444.5546,N,03955.5285,E,1,15,0.8,00147.7,M,0017.2,M,,*6D
$GLGSA,A,3,065,071,072,087,088,,,,,,,,1.7,0.8,1.5*1B
$GPGSA,A,3,001,008,010,021,022,027,032,,,,,,1.7,0.8,1.5*07
$GAGSA,A,3,107,126,133,,,,,,,,,,1.7,0.8,1.5*1B
$GPRMC,102258.20,A,4444.5546,N,03955.5285,E,000.00000,256.0,110822,,,A*5B
$GPGGA,102258.40,4444.5546,N,03955.5285,E,1,15,0.8,00147.7,M,0017.2,M,,*6B
$GLGSA,A,3,065,071,072,087,088,,,,,,,,1.7,0.8,1.5*1B
$GPGSA,A,3,001,008,010,021,022,027,032,,,,,,1.7,0.8,1.5*07
$GAGSA,A,3,107,126,133,,,,,,,,,,1.7,0.8,1.5*1B
$GPRMC,102258.40,A,4444.5546,N,03955.5285,E,000.00000,255.0,110822,,,A*5E
$GPGGA,102258.60,4444.5546,N,03955.5285,E,1,15,0.8,00147.7,M,0017.2,M,,*69
$GLGSA,A,3,065,071,072,087,088,,,,,,,,1.7,0.8,1.5*1B
$GPGSA,A,3,001,008,010,021,022,027,032,,,,,,1.7,0.8,1.5*07
$GAGSA,A,3,107,126,133,,,,,,,,,,1.7,0.8,1.5*1B
$GPRMC,102258.60,A,4444.5546,N,03955.5285,E,000.00000,253.9,110822,,,A*53
$GPGGA,102258.80,4444.5546,N,03955.5285,E,1,15,0.8,00147.7,M,0017.2,M,,*67
$GLGSA,A,3,065,071,072,087,088,,,,,,,,1.7,0.8,1.5*1B
$GPGSA,A,3,001,008,010,021,022,027,032,,,,,,1.7,0.8,1.5*07
$GAGSA,A,3,107,126,133,,,,,,,,,,1.7,0.8,1.5*1B
$GPRMC,102258.80,A,4444.5546,N,03955.5285,E,000.00000,251.3,110822,,,A*55
$GPGGA,102259.00,4444.5546,N,03955.5285,E,1,15,0.8,00147.7,M,0017.2,M,,*6E
$GLGSA,A,3,065,071,072,087,088,,,,,,,,1.7,0.8,1.5*1B
$GPGSA,A,3,001,008,010,021,022,027,032,,,,,,1.7,0.8,1.5*07
$GAGSA,A,3,107,126,133,,,,,,,,,,1.7,0.8,1.5*1B
$GPGSV,7,1,25,001,23,304,31,003,04,256,19,008,50,247,36,010,44,060,40*79
$GPGSV,7,2,25,014,02,322,,021,51,306,30,022,54,162,39,023,14,069,21*78
$GPGSV,7,3,25,024,08,038,19,027,34,196,33,032,66,110,40,065,36,228,30*73
$GPGSV,7,4,25,071,34,037,43,072,84,333,35,079,01,335,,087,84,324,35*79
$GPGSV,7,5,25,088,33,323,49,107,37,051,29,110,06,307,,112,31,308,*77
$GPGSV,7,6,25,119,34,200,,124,02,291,,125,00,340,,126,40,124,25*7C
$GPGSV,7,7,25,133,85,343,33*76
$GPRMC,102259.00,A,4444.5546,N,03955.5285,E,000.00000,248.6,110822,,,A*51
$GPZDA,102259.00,11,08,2022,+00,00*4A
$GPGGA,102259.20,4444.5546,N,03955.5285,E,1,15,0.8,00147.6,M,0017.2,M,,*6D
$GLGSA,A,3,065,071,072,087,088,,,,,,,,1.7,0.8,1.5*1B
$GPGSA,A,3,001,008,010,021,022,027,032,,,,,,1.7,0.8,1.5*07
$GAGSA,A,3,107,126,133,,,,,,,,,,1.7,0.8,1.5*1B
$GPRMC,102259.20,A,4444.5546,N,03955.5285,E,000.00000,245.1,110822,,,A*59
$GPGGA,102259.40,4444.5546,N,03955.5285,E,1,15,0.8,00147.6,M,0017.2,M,,*6B
$GLGSA,A,3,065,071,072,087,088,,,,,,,,1.7,0.8,1.5*1B
$GPGSA,A,3,001,008,010,021,022,027,032,,,,,,1.7,0.8,1.5*07
$GAGSA,A,3,107,126,133,,,,,,,,,,1.7,0.8,1.5*1B
$GPRMC,102259.40,A,4444.5546,N,03955.5285,E,000.00000,243.0,110822,,,A*58
$GPGGA,102259.60,4444.5546,N,03955.5285,E,1,15,0.8,00147.6,M,0017.2,M,,*69
$GLGSA,A,3,065,071,072,087,088,,,,,,,,1.7,0.8,1.5*1B
$GPGSA,A,3,001,008,010,021,022,027,032,,,,,,1.7,0.8,1.5*07
$GAGSA,A,3,107,126,133,,,,,,,,,,1.7,0.8,1.5*1B
$GPRMC,102259.60,A,4444.5546,N,03955.5285,E,000.00000,242.3,110822,,,A*58
$GPGGA,102259.80,4444.5546,N,03955.5285,E,1,15,0.8,00147.6,M,0017.2,M,,*67
$GLGSA,A,3,065,071,072,087,088,,,,,,,,1.7,0.8,1.5*1B
$GPGSA,A,3,001,008,010,021,022,027,032,,,,,,1.7,0.8,1.5*07
$GAGSA,A,3,107,126,133,,,,,,,,,,1.7,0.8,1.5*1B
$GPRMC,102259.80,A,4444.5546,N,03955.5285,E,000.00000,241.5,110822,,,A*53
$GPGGA,102300.00,4444.5546,N,03955.5285,E,1,15,0.8,00147.6,M,0017.2,M,,*62
$GLGSA,A,3,065,071,072,087,088,,,,,,,,1.7,0.8,1.5*1B
$GPGSA,A,3,001,008,010,021,022,027,032,,,,,,1.7,0.8,1.5*07
$GAGSA,A,3,107,126,133,,,,,,,,,,1.7,0.8,1.5*1B
$GPGSV,7,1,25,001,23,304,32,003,04,256,19,008,50,247,37,010,44,060,40*7B
$GPGSV,7,2,25,014,02,322,,021,51,306,31,022,54,162,40,023,14,069,22*74
$GPGSV,7,3,25,024,08,038,20,027,34,196,33,032,66,110,41,065,36,228,30*78
$GPGSV,7,4,25,071,34,037,43,072,84,333,35,079,01,335,,087,84,324,35*79
$GPGSV,7,5,25,088,33,323,49,107,37,051,30,110,06,307,,112,31,308,*7F
$GPGSV,7,6,25,119,34,200,,124,02,291,,125,00,340,,126,40,124,25*7C
$GPGSV,7,7,25,133,85,343,34*71
$GPRMC,102300.00,A,4444.5546,N,03955.5285,E,000.00000,241.0,110822,,,A*53
$GPZDA,102300.00,11,08,2022,+00,00*47
$GPGGA,102300.20,4444.5546,N,03955.5285,E,1,15,0.8,00147.6,M,0017.2,M,,*60
$GLGSA,A,3,065,071,072,087,088,,,,,,,,1.7,0.8,1.5*1B
$GPGSA,A,3,001,008,010,021,022,027,032,,,,,,1.7,0.8,1.5*07
$GAGSA,A,3,107,126,133,,,,,,,,,,1.7,0.8,1.5*1B
$GPRMC,102300.20,A,4444.5546,N,03955.5285,E,000.00000,240.8,110822,,,A*58
$GPGGA,102300.40,4444.5546,N,03955.5285,E,1,14,0.9,00147.6,M,0017.2,M,,*66
$GLGSA,A,3,065,071,072,087,088,,,,,,,,1.8,0.9,1.5*15
$GPGSA,A,3,001,008,010,021,022,027,032,,,,,,1.8,0.9,1.5*09
$GAGSA,A,3,107,133,,,,,,,,,,,1.8,0.9,1.5*20
$GPRMC,102300.40,A,4444.5546,N,03955.5285,E,000.00000,240.6,110822,,,A*50
$GPGGA,102300.60,4444.5546,N,03955.5285,E,1,15,0.8,00147.6,M,0017.2,M,,*64
$GLGSA,A,3,065,071,072,087,088,,,,,,,,1.7,0.8,1.5*1B
$GPGSA,A,3,001,008,010,021,022,027,032,,,,,,1.7,0.8,1.5*07
$GAGSA,A,3,107,126,133,,,,,,,,,,1.7,0.8,1.5*1B
$GPRMC,102300.60,A,4444.5546,N,03955.5285,E,000.00000,240.6,110822,,,A*52
$GPGGA,102300.80,4444.5546,N,03955.5285,E,1,15,0.8,00147.6,M,0017.2,M,,*6A
$GLGSA,A,3,065,071,072,087,088,,,,,,,,1.7,0.8,1.5*1B
$GPGSA,A,3,001,008,010,021,022,027,032,,,,,,1.7,0.8,1.5*07
$GAGSA,A,3,107,126,133,,,,,,,,,,1.7,0.8,1.5*1B
$GPRMC,102300.80,A,4444.5546,N,03955.5285,E,000.00000,240.5,110822,,,A*5F
$GPGGA,102301.00,4444.5546,N,03955.5285,E,1,15,0.8,00147.6,M,0017.2,M,,*63
$GLGSA,A,3,065,071,072,087,088,,,,,,,,1.7,0.8,1.5*1B
$GPGSA,A,3,001,008,010,021,022,027,032,,,,,,1.7,0.8,1.5*07
$GAGSA,A,3,107,126,133,,,,,,,,,,1.7,0.8,1.5*1B
$GPGSV,7,1,25,001,23,304,32,003,04,256,20,008,50,247,37,010,44,060,41*70
$GPGSV,7,2,25,014,02,322,,021,51,306,31,022,54,162,40,023,14,069,22*74
$GPGSV,7,3,25,024,08,038,20,027,34,196,33,032,66,109,41,065,36,228,31*71
$GPGSV,7,4,25,071,34,037,43,072,84,333,35,079,01,335,,087,84,324,35*79
$GPGSV,7,5,25,088,33,323,49,107,37,051,30,110,06,307,,112,31,308,*7F
$GPGSV,7,6,25,119,34,200,,124,02,291,,125,00,340,,126,40,124,26*7F
$GPGSV,7,7,25,133,85,343,34*71
$GPRMC,102301.00,A,4444.5546,N,03955.5285,E,000.00000,240.5,110822,,,A*56
$GPZDA,102301.00,11,08,2022,+00,00*46
$GPGGA,102301.20,4444.5546,N,03955.5285,E,1,15,0.8,00147.6,M,0017.2,M,,*61
$GLGSA,A,3,065,071,072,087,088,,,,,,,,1.7,0.8,1.5*1B
$GPGSA,A,3,001,008,010,021,022,027,032,,,,,,1.7,0.8,1.5*07
$GAGSA,A,3,107,126,133,,,,,,,,,,1.7,0.8,1.5*1B
$GPRMC,102301.20,A,4444.5546,N,03955.5285,E,000.00000,242.7,110822,,,A*54
$GPGGA,102301.40,4444.5546,N,03955.5285,E,1,15,0.8,00147.6,M,0017.2,M,,*67
$GLGSA,A,3,065,071,072,087,088,,,,,,,,1.7,0.8,1.5*1B
$GPGSA,A,3,001,008,010,021,022,027,032,,,,,,1.7,0.8,1.5*07
$GAGSA,A,3,107,126,133,,,,,,,,,,1.7,0.8,1.5*1B
$GPRMC,102301.40,A,4444.5546,N,03955.5285,E,000.00000,241.7,110822,,,A*51
$GPGGA,102301.60,4444.5546,N,03955.5285,E,1,15,0.8,00147.6,M,0017.2,M,,*65
$GLGSA,A,3,065,071,072,087,088,,,,,,,,1.7,0.8,1.5*1B
$GPGSA,A,3,001,008,010,021,022,027,032,,,,,,1.7,0.8,1.5*07
$GAGSA,A,3,107,126,133,,,,,,,,,,1.7,0.8,1.5*1B
$GPRMC,102301.60,A,4444.5546,N,03955.5285,E,000.00000,242.4,110822,,,A*53
$GPGGA,102301.80,4444.5546,N,03955.5285,E,1,15,0.8,00147.6,M,0017.2,M,,*6B
$GLGSA,A,3,065,071,072,087,088,,,,,,,,1.7,0.8,1.5*1B
$GPGSA,A,3,001,008,010,021,022,027,032,,,,,,1.7,0.8,1.5*07
$GAGSA,A,3,107,126,133,,,,,,,,,,1.7,0.8,1.5*1B
$GPRMC,102301.80,A,4444.5546,N,03955.5285,E,000.00000,241.5,110822,,,A*5F
$GPGGA,102302.00,4444.5546,N,03955.5285,E,1,15,0.8,00147.6,M,0017.2,M,,*60
$GLGSA,A,3,065,071,072,087,088,,,,,,,,1.7,0.8,1.5*1B
$GPGSA,A,3,001,008,010,021,022,027,032,,,,,,1.7,0.8,1.5*07
$GAGSA,A,3,107,126,133,,,,,,,,,,1.7,0.8,1.5*1B
$GPGSV,7,1,25,001,23,304,31,003,04,256,20,008,50,247,37,010,44,060,40*72
$GPGSV,7,2,25,014,02,322,,021,51,306,31,022,54,162,39,023,14,069,21*79
$GPGSV,7,3,25,024,08,038,19,027,34,196,32,032,66,109,40,065,36,228,31*7B
$GPGSV,7,4,25,071,34,037,43,072,84,333,35,079,01,335,,087,84,323,35*7E
$GPGSV,7,5,25,088,33,323,49,107,37,051,30,110,06,307,,112,31,308,*7F
$GPGSV,7,6,25,119,34,200,,124,02,291,,125,00,340,,126,40,124,25*7C
$GPGSV,7,7,25,133,85,343,33*76
$GPRMC,102302.00,A,4444.5546,N,03955.5285,E,000.00000,241.1,110822,,,A*50
$GPZDA,102302.00,11,08,2022,+00,00*45
$GPGGA,102302.20,4444.5546,N,03955.5285,E,1,14,0.9,00147.6,M,0017.2,M,,*62
$GLGSA,A,3,065,071,072,087,088,,,,,,,,1.8,0.9,1.5*15
$GPGSA,A,3,001,008,010,021,022,027,032,,,,,,1.8,0.9,1.5*09
$GAGSA,A,3,107,133,,,,,,,,,,,1.8,0.9,1.5*20
$GPRMC,102302.20,A,4444.5546,N,03955.5285,E,000.00000,240.8,110822,,,A*5A
$GPGGA,102302.40,4444.5546,N,03955.5285,E,1,15,0.8,00147.6,M,0017.2,M,,*64
$GLGSA,A,3,065,071,072,087,088,,,,,,,,1.7,0.8,1.5*1B
$GPGSA,A,3,001,008,010,021,022,027,032,,,,,,1.7,0.8,1.5*07
$GAGSA,A,3,107,126,133,,,,,,,,,,1.7,0.8,1.5*1B
$GPRMC,102302.40,A,4444.5546,N,03955.5285,E,000.00000,240.6,110822,,,A*52
$GPGGA,102302.60,4444.5546,N,03955.5285,E,1,15,0.8,00147.6,M,0017.2,M,,*66
$GLGSA,A,3,065,071,072,087,088,,,,,,,,1.7,0.8,1.5*1B
$GPGSA,A,3,001,008,010,021,022,027,032,,,,,,1.7,0.8,1.5*07
$GAGSA,A,3,107,126,133,,,,,,,,,,1.7,0.8,1.5*1B
$GPRMC,102302.60,A,4444.5546,N,03955.5285,E,000.00000,240.6,110822,,,A*50
$GPGGA,102302.80,4444.5546,N,03955.5285,E,1,15,0.8,00147.6,M,0017.2,M,,*68
$GLGSA,A,3,065,071,072,087,088,,,,,,,,1.7,0.8,1.5*1B
$GPGSA,A,3,001,008,010,021,022,027,032,,,,,,1.7,0.8,1.5*07
$GAGSA,A,3,107,126,133,,,,,,,,,,1.7,0.8,1.5*1B
$GPRMC,102302.80,A,4444.5546,N,03955.5285,E,000.00000,240.5,110822,,,A*5D
$GPGGA,102303.00,4444.5546,N,03955.5285,E,1,15,0.8,00147.6,M,0017.2,M,,*61
$GLGSA,A,3,065,071,072,087,088,,,,,,,,1.7,0.8,1.5*1B
$GPGSA,A,3,001,008,010,021,022,027,032,,,,,,1.7,0.8,1.5*07
$GAGSA,A,3,107,126,133,,,,,,,,,,1.7,0.8,1.5*1B
$GPGSV,7,1,25,001,23,304,32,003,04,256,19,008,50,247,37,010,44,060,41*7A
$GPGSV,7,2,25,014,02,322,,021,51,306,31,022,54,162,40,023,14,069,21*77
$GPGSV,7,3,25,024,08,038,19,027,34,196,33,032,66,109,41,065,36,228,31*7B
$GPGSV,7,4,25,071,34,037,43,072,84,333,35,079,01,335,,087,84,323,35*7E
$GPGSV,7,5,25,088,33,323,49,107,37,051,30,110,06,307,,112,31,308,*7F
$GPGSV,7,6,25,119,34,200,,124,02,291,,125,00,340,,126,40,124,26*7F
$GPGSV,7,7,25,133,85,343,34*71
$GPRMC,102303.00,A,4444.5546,N,03955.5285,E,000.00000,240.5,110822,,,A*54
$GPZDA,102303.00,11,08,2022,+00,00*44
$GPGGA,102303.20,4444.5546,N,03955.5285,E,1,15,0.8,00147.6,M,0017.2,M,,*63
$GLGSA,A,3,065,071,072,087,088,,,,,,,,1.7,0.8,1.5*1B
$GPGSA,A,3,001,008,010,021,022,027,032,,,,,,1.7,0.8,1.5*07
$GAGSA,A,3,107,126,133,,,,,,,,,,1.7,0.8,1.5*1B
$GPRMC,102303.20,A,4444.5546,N,03955.5285,E,000.00000,236.4,110822,,,A*56
$GPGGA,102303.40,4444.5546,N,03955.5285,E,1,15,0.8,00147.6,M,0017.2,M,,*65
$GLGSA,A,3,065,071,072,087,088,,,,,,,,1.7,0.8,1.5*1B
$GPGSA,A,3,001,008,010,021,022,027,032,,,,,,1.7,0.8,1.5*07
$GAGSA,A,3,107,126,133,,,,,,,,,,1.7,0.8,1.5*1B
$GPRMC,102303.40,A,4444.5546,N,03955.5285,E,000.00000,226.1,110822,,,A*54
$GPGGA,102303.60,4444.5546,N,03955.5285,E,1,15,0.8,00147.6,M,0017.2,M,,*67
$GLGSA,A,3,065,071,072,087,088,,,,,,,,1.7,0.8,1.5*1B
$GPGSA,A,3,001,008,010,021,022,027,032,,,,,,1.7,0.8,1.5*07
$GAGSA,A,3,107,126,133,,,,,,,,,,1.7,0.8,1.5*1B
$GPRMC,102303.60,A,4444.5546,N,03955.5285,E,000.00000,207.0,110822,,,A*54
$GPGGA,102303.80,4444.5546,N,03955.5285,E,1,15,0.8,00147.6,M,0017.2,M,,*69
$GLGSA,A,3,065,071,072,087,088,,,,,,,,1.7,0.8,1.5*1B
$GPGSA,A,3,001,008,010,021,022,027,032,,,,,,1.7,0.8,1.5*07
$GAGSA,A,3,107,126,133,,,,,,,,,,1.7,0.8,1.5*1B
$GPRMC,102303.80,A,4444.5546,N,03955.5285,E,000.00000,183.6,110822,,,A*53
$GPGGA,102304.00,4444.5546,N,03955.5285,E,1,15,0.8,00147.6,M,0017.2,M,,*66
$GLGSA,A,3,065,071,072,087,088,,,,,,,,1.7,0.8,1.5*1B
$GPGSA,A,3,001,008,010,021,022,027,032,,,,,,1.7,0.8,1.5*07
$GAGSA,A,3,107,126,133,,,,,,,,,,1.7,0.8,1.5*1B
$GPGSV,7,1,25,001,23,304,32,003,04,256,19,008,50,247,38,010,44,060,41*75
$GPGSV,7,2,25,014,02,322,,021,51,306,32,022,54,162,40,023,14,069,22*77
$GPGSV,7,3,25,024,08,038,21,027,34,196,33,032,66,109,41,065,36,228,30*71
$GPGSV,7,4,25,071,34,037,43,072,84,333,36,079,01,335,,087,84,323,36*7E
$GPGSV,7,5,25,088,33,323,49,107,37,051,30,110,06,307,,112,31,308,*7F
$GPGSV,7,6,25,119,34,200,,124,02,291,,125,00,340,,126,40,124,26*7F
$GPGSV,7,7,25,133,85,343,34*71
$GPRMC,102304.00,A,4444.5546,N,03955.5285,E,000.00000,180.5,110822,,,A*5C
$GPZDA,102304.00,11,08,2022,+00,00*43
$GPGGA,102304.20,4444.5546,N,03955.5285,E,1,15,0.8,00147.6,M,0017.2,M,,*64
$GLGSA,A,3,065,071,072,087,088,,,,,,,,1.7,0.8,1.5*1B
$GPGSA,A,3,001,008,010,021,022,027,032,,,,,,1.7,0.8,1.5*07
$GAGSA,A,3,107,126,133,,,,,,,,,,1.7,0.8,1.5*1B
$GPRMC,102304.20,A,4444.5546,N,03955.5285,E,000.00000,182.4,110822,,,A*5D
$GPGGA,102304.40,4444.5546,N,03955.5285,E,1,15,0.8,00147.6,M,0017.2,M,,*62
$GLGSA,A,3,065,071,072,087,088,,,,,,,,1.7,0.8,1.5*1B
$GPGSA,A,3,001,008,010,021,022,027,032,,,,,,1.7,0.8,1.5*07
$GAGSA,A,3,107,126,133,,,,,,,,,,1.7,0.8,1.5*1B
$GPRMC,102304.40,A,4444.5546,N,03955.5285,E,000.00000,171.5,110822,,,A*56
$GPGGA,102304.60,4444.5546,N,03955.5285,E,1,15,0.8,00147.6,M,0017.2,M,,*60
$GLGSA,A,3,065,071,072,087,088,,,,,,,,1.7,0.8,1.5*1B
$GPGSA,A,3,001,008,010,021,022,027,032,,,,,,1.7,0.8,1.5*07
$GAGSA,A,3,107,126,133,,,,,,,,,,1.7,0.8,1.5*1B
$GPRMC,102304.60,A,4444.5546,N,03955.5285,E,000.00000,160.4,110822,,,A*55
$GPGGA,102304.80,4444.5546,N,03955.5285,E,1,15,0.8,00147.6,M,0017.2,M,,*6E
$GLGSA,A,3,065,071,072,087,088,,,,,,,,1.7,0.8,1.5*1B
$GPGSA,A,3,001,008,010,021,022,027,032,,,,,,1.7,0.8,1.5*07
$GAGSA,A,3,107,126,133,,,,,,,,,,1.7,0.8,1.5*1B
$GPRMC,102304.80,A,4444.5546,N,03955.5285,E,000.00000,159.7,110822,,,A*52
$GPGGA,102305.00,4444.5546,N,03955.5285,E,1,15,0.8,00147.6,M,0017.2,M,,*67
$GLGSA,A,3,065,071,072,087,088,,,,,,,,1.7,0.8,1.5*1B
$GPGSA,A,3,001,008,010,021,022,027,032,,,,,,1.7,0.8,1.5*07
$GAGSA,A,3,107,126,133,,,,,,,,,,1.7,0.8,1.5*1B
$GPGSV,7,1,25,001,23,304,32,003,04,256,20,008,50,247,38,010,44,060,41*7F
$GPGSV,7,2,25,014,02,322,,021,51,306,32,022,54,162,40,023,14,069,22*77
$GPGSV,7,3,25,024,08,038,21,027,34,196,33,032,66,109,41,065,36,228,29*79
$GPGSV,7,4,25,071,34,037,43,072,84,333,36,079,01,335,18,087,84,323,36*77
$GPGSV,7,5,25,088,33,323,49,107,37,051,30,110,06,307,,112,31,308,*7F
$GPGSV,7,6,25,119,34,200,,124,02,291,,125,00,340,,126,40,124,26*7F
$GPGSV,7,7,25,133,85,343,34*71
$GPRMC,102305.00,A,4444.5546,N,03955.5285,E,000.00000,152.5,110822,,,A*52
$GPZDA,102305.00,11,08,2022,+00,00*42
$GPGGA,102305.20,4444.5546,N,03955.5285,E,1,15,0.8,00147.6,M,0017.2,M,,*65
$GLGSA,A,3,065,071,072,087,088,,,,,,,,1.7,0.8,1.5*1B
$GPGSA,A,3,001,008,010,021,022,027,032,,,,,,1.7,0.8,1.5*07
$GAGSA,A,3,107,126,133,,,,,,,,,,1.7,0.8,1.5*1B
$GPRMC,102305.20,A,4444.5546,N,03955.5285,E,000.00000,142.4,110822,,,A*50
$GPGGA,102305.40,4444.5546,N,03955.5285,E,1,15,0.8,00147.6,M,0017.2,M,,*63
$GLGSA,A,3,065,071,072,087,088,,,,,,,,1.7,0.8,1.5*1B
$GPGSA,A,3,001,008,010,021,022,027,032,,,,,,1.7,0.8,1.5*07
$GAGSA,A,3,107,126,133,,,,,,,,,,1.7,0.8,1.5*1B
$GPRMC,102305.40,A,4444.5546,N,03955.5285,E,000.00000,139.5,110822,,,A*5B
$GPGGA,102305.60,4444.5546,N,03955.5285,E,1,15,0.8,00147.6,M,0017.2,M,,*61
$GLGSA,A,3,065,071,072,087,088,,,,,,,,1.7,0.8,1.5*1B
$GPGSA,A,3,001,008,010,021,022,027,032,,,,,,1.7,0.8,1.5*07
$GAGSA,A,3,107,126,133,,,,,,,,,,1.7,0.8,1.5*1B
$GPRMC,102305.60,A,4444.5546,N,03955.5285,E,000.00000,139.8,110822,,,A*54
$GPGGA,102305.80,4444.5546,N,03955.5285,E,1,15,0.8,00147.6,M,0017.2,M,,*6F
$GLGSA,A,3,065,071,072,087,088,,,,,,,,1.7,0.8,1.5*1B
$GPGSA,A,3,001,008,010,021,022,027,032,,,,,,1.7,0.8,1.5*07
$GAGSA,A,3,107,126,133,,,,,,,,,,1.7,0.8,1.5*1B
$GPRMC,102305.80,A,4444.5546,N,03955.5285,E,000.00000,138.7,110822,,,A*54
$GPGGA,102306.00,4444.5546,N,03955.5285,E,1,15,0.8,00147.6,M,0017.2,M,,*64
$GLGSA,A,3,065,071,072,087,088,,,,,,,,1.7,0.8,1.5*1B
$GPGSA,A,3,001,008,010,021,022,027,032,,,,,,1.7,0.8,1.5*07
$GAGSA,A,3,107,126,133,,,,,,,,,,1.7,0.8,1.5*1B
$GPGSV,7,1,25,001,23,304,32,003,04,256,20,008,50,247,38,010,44,060,41*7F
$GPGSV,7,2,25,014,02,322,,021,51,306,32,022,54,162,40,023,14,069,22*77
$GPGSV,7,3,25,024,08,038,21,027,34,196,34,032,66,109,41,065,36,228,28*7F
$GPGSV,7,4,25,071,34,037,43,072,84,333,36,079,00,335,13,087,84,323,36*7D
$GPGSV,7,5,25,088,33,323,49,107,37,051,31,110,06,307,,112,31,308,*7E
$GPGSV,7,6,25,119,34,200,,124,02,291,,125,00,340,,126,40,124,25*7C
$GPGSV,7,7,25,133,85,343,34*71
$GPRMC,102306.00,A,4444.5546,N,03955.5285,E,000.00000,135.7,110822,,,A*52
$GPZDA,102306.00,11,08,2022,+00,00*41
$GPGGA,102306.20,4444.5546,N,03955.5285,E,1,15,0.8,00147.6,M,0017.2,M,,*66
$GLGSA,A,3,065,071,072,087,088,,,,,,,,1.7,0.8,1.5*1B
$GPGSA,A,3,001,008,010,021,022,027,032,,,,,,1.7,0.8,1.5*07
$GAGSA,A,3,107,126,133,,,,,,,,,,1.7,0.8,1.5*1B
$GPRMC,102306.20,A,4444.5546,N,03955.5285,E,000.00000,131.2,110822,,,A*51
$GPGGA,102306.40,4444.5546,N,03955.5285,E,1,15,0.8,00147.6,M,0017.2,M,,*60
$GLGSA,A,3,065,071,072,087,088,,,,,,,,1.7,0.8,1.5*1B
$GPGSA,A,3,001,008,010,021,022,027,032,,,,,,1.7,0.8,1.5*07
$GAGSA,A,3,107,126,133,,,,,,,,,,1.7,0.8,1.5*1B
$GPRMC,102306.40,A,4444.5546,N,03955.5285,E,000.00000,135.9,110822,,,A*58
$GPGGA,102306.60,4444.5546,N,03955.5285,E,1,15,0.8,00147.6,M,0017.2,M,,*62
$GLGSA,A,3,065,071,072,087,088,,,,,,,,1.7,0.8,1.5*1B
$GPGSA,A,3,001,008,010,021,022,027,032,,,,,,1.7,0.8,1.5*07
$GAGSA,A,3,107,126,133,,,,,,,,,,1.7,0.8,1.5*1B
$GPRMC,102306.60,A,4444.5546,N,03955.5285,E,000.00000,123.8,110822,,,A*5C
$GPGGA,102306.80,4444.5546,N,03955.5285,E,1,15,0.8,00147.6,M,0017.2,M,,*6C
$GLGSA,A,3,065,071,072,087,088,,,,,,,,1.7,0.8,1.5*1B
$GPGSA,A,3,001,008,010,021,022,027,032,,,,,,1.7,0.8,1.5*07
$GAGSA,A,3,107,126,133,,,,,,,,,,1.7,0.8,1.5*1B
$GPRMC,102306.80,A,4444.5546,N,03955.5285,E,000.00000,129.6,110822,,,A*56
$GPGGA,102307.00,4444.5546,N,03955.5285,E,1,15,0.8,00147.6,M,0017.2,M,,*65
$GLGSA,A,3,065,071,072,087,088,,,,,,,,1.7,0.8,1.5*1B
$GPGSA,A,3,001,008,010,021,022,027,032,,,,,,1.7,0.8,1.5*07
$GAGSA,A,3,107,126,133,,,,,,,,,,1.7,0.8,1.5*1B
$GPGSV,7,1,25,001,23,304,32,003,04,256,20,008,50,247,38,010,44,060,41*7F
$GPGSV,7,2,25,014,02,322,,021,51,306,32,022,54,162,40,023,14,069,22*77
$GPGSV,7,3,25,024,08,038,21,027,34,196,34,032,66,109,42,065,36,228,28*7C
$GPGSV,7,4,25,071,34,037,43,072,84,334,36,079,00,335,12,087,84,323,36*7B
$GPGSV,7,5,25,088,33,323,49,107,37,051,30,110,06,307,,112,31,308,*7F
$GPGSV,7,6,25,119,34,200,,124,02,291,,125,00,340,,126,40,124,25*7C
$GPGSV,7,7,25,133,85,343,34*71
$GPRMC,102307.00,A,4444.5546,N,03955.5285,E,000.00000,135.7,110822,,,A*53
$GPZDA,102307.00,11,08,2022,+00,00*40
$GPGGA,102307.20,4444.5546,N,03955.5285,E,1,15,0.8,00147.6,M,0017.2,M,,*67
$GLGSA,A,3,065,071,072,087,088,,,,,,,,1.7,0.8,1.5*1B
$GPGSA,A,3,001,008,010,021,022,027,032,,,,,,1.7,0.8,1.5*07
$GAGSA,A,3,107,126,133,,,,,,,,,,1.7,0.8,1.5*1B
$GPRMC,102307.20,A,4444.5546,N,03955.5285,E,000.00000,112.8,110822,,,A*5B
$GPGGA,102307.40,4444.5546,N,03955.5285,E,1,15,0.8,00147.6,M,0017.2,M,,*61
$GLGSA,A,3,065,071,072,087,088,,,,,,,,1.7,0.8,1.5*1B
$GPGSA,A,3,001,008,010,021,022,027,032,,,,,,1.7,0.8,1.5*07
$GAGSA,A,3,107,126,133,,,,,,,,,,1.7,0.8,1.5*1B
$GPRMC,102307.40,A,4444.5546,N,03955.5285,E,000.00000,096.5,110822,,,A*5D
$GPGGA,102307.60,4444.5546,N,03955.5285,E,1,15,0.8,00147.6,M,0017.2,M,,*63
$GLGSA,A,3,065,071,072,087,088,,,,,,,,1.7,0.8,1.5*1B
$GPGSA,A,3,001,008,010,021,022,027,032,,,,,,1.7,0.8,1.5*07
$GAGSA,A,3,107,126,133,,,,,,,,,,1.7,0.8,1.5*1B
$GPRMC,102307.60,A,4444.5546,N,03955.5285,E,000.00000,081.7,110822,,,A*5B
$GPGGA,102307.80,4444.5546,N,03955.5285,E,1,15,0.8,00147.6,M,0017.2,M,,*6D
$GLGSA,A,3,065,071,072,087,088,,,,,,,,1.7,0.8,1.5*1B
$GPGSA,A,3,001,008,010,021,022,027,032,,,,,,1.7,0.8,1.5*07
$GAGSA,A,3,107,126,133,,,,,,,,,,1.7,0.8,1.5*1B
