$GPGGA,103136.20,4444.5544,N,03955.5282,E,1,15,0.8,00147.6,M,0017.2,M,,*63
$GLGSA,A,3,065,071,072,087,088,,,,,,,,1.6,0.8,1.4*1B
$GPGSA,A,3,001,008,010,021,022,027,032,,,,,,1.6,0.8,1.4*07
$GAGSA,A,3,107,126,133,,,,,,,,,,1.6,0.8,1.4*1B
$GPRMC,103136.20,A,4444.5544,N,03955.5282,E,000.00000,181.6,110822,,,A*5B
$GPGGA,103136.40,4444.5544,N,03955.5282,E,1,15,0.8,00147.6,M,0017.2,M,,*65
$GLGSA,A,3,065,071,072,087,088,,,,,,,,1.6,0.8,1.4*1B
$GPGSA,A,3,001,008,010,021,022,027,032,,,,,,1.6,0.8,1.4*07
$GAGSA,A,3,107,126,133,,,,,,,,,,1.6,0.8,1.4*1B
$GPRMC,103136.40,A,4444.5544,N,03955.5282,E,000.00000,179.0,110822,,,A*5C
$GPGGA,103136.60,4444.5544,N,03955.5282,E,1,15,0.8,00147.6,M,0017.2,M,,*67
$GLGSA,A,3,065,071,072,087,088,,,,,,,,1.6,0.8,1.4*1B
$GPGSA,A,3,001,008,010,021,022,027,032,,,,,,1.6,0.8,1.4*07
$GAGSA,A,3,107,126,133,,,,,,,,,,1.6,0.8,1.4*1B
$GPRMC,103136.60,A,4444.5544,N,03955.5282,E,000.00000,177.6,110822,,,A*56
$GPGGA,103136.80,4444.5544,N,03955.5282,E,1,13,0.9,00147.6,M,0017.2,M,,*6E
$GLGSA,A,3,065,071,072,087,088,,,,,,,,1.8,0.9,1.5*15
$GPGSA,A,3,001,008,010,021,022,027,032,,,,,,1.8,0.9,1.5*09
$GAGSA,A,3,133,,,,,,,,,,,,1.8,0.9,1.5*16
$GPRMC,103136.80,A,4444.5544,N,03955.5282,E,000.00000,186.8,110822,,,A*58
$GPGGA,103137.00,4444.5544,N,03955.5282,E,1,14,0.9,00147.6,M,0017.2,M,,*60
$GLGSA,A,3,065,071,072,087,088,,,,,,,,1.7,0.9,1.5*1A
$GPGSA,A,3,001,008,010,021,022,027,032,,,,,,1.7,0.9,1.5*06
$GAGSA,A,3,107,133,,,,,,,,,,,1.7,0.9,1.5*2F
$GPGSV,7,1,25,001,26,306,34,003,06,258,,008,48,241,40,010,41,062,41*77
$GPGSV,7,2,25,014,02,319,,021,55,306,34,022,58,159,41,023,11,071,22*74
$GPGSV,7,3,25,024,07,035,20,027,30,194,31,031,00,152,,032,66,099,43*75
$GPGSV,7,4,25,065,40,231,39,071,30,038,41,072,80,359,38,087,88,260,39*73
$GPGSV,7,5,25,088,38,323,49,107,34,050,21,110,09,309,,112,34,309,*73
$GPGSV,7,6,25,119,37,201,,124,00,289,,125,00,338,,126,37,127,22*7E
$GPGSV,7,7,25,133,88,024,33*79
$GPRMC,103137.00,A,4444.5544,N,03955.5282,E,000.00000,182.5,110822,,,A*58
$GPZDA,103137.00,11,08,2022,+00,00*40
$GPGGA,103137.20,4444.5544,N,03955.5282,E,1,15,0.8,00147.6,M,0017.2,M,,*62
$GLGSA,A,3,065,071,072,087,088,,,,,,,,1.6,0.8,1.4*1B
$GPGSA,A,3,001,008,010,021,022,027,032,,,,,,1.6,0.8,1.4*07
$GAGSA,A,3,107,126,133,,,,,,,,,,1.6,0.8,1.4*1B
$GPRMC,103137.20,A,4444.5544,N,03955.5282,E,000.00000,179.4,110822,,,A*5F
$GPGGA,103137.40,4444.5544,N,03955.5282,E,1,15,0.8,00147.6,M,0017.2,M,,*64
$GLGSA,A,3,065,071,072,087,088,,,,,,,,1.6,0.8,1.4*1B
$GPGSA,A,3,001,008,010,021,022,027,032,,,,,,1.6,0.8,1.4*07
$GAGSA,A,3,107,126,133,,,,,,,,,,1.6,0.8,1.4*1B
$GPRMC,103137.40,A,4444.5544,N,03955.5282,E,000.00000,177.8,110822,,,A*5B
$GPGGA,103137.60,4444.5544,N,03955.5282,E,1,14,0.8,00147.6,M,0017.2,M,,*67
$GLGSA,A,3,065,071,072,087,088,,,,,,,,1.7,0.8,1.5*1B
$GPGSA,A,3,001,008,010,021,022,027,032,,,,,,1.7,0.8,1.5*07
$GAGSA,A,3,126,133,,,,,,,,,,,1.7,0.8,1.5*2D
$GPRMC,103137.60,A,4444.5544,N,03955.5282,E,000.00000,191.9,110822,,,A*50
$GPGGA,103137.80,4444.5544,N,03955.5282,E,1,15,0.8,00147.6,M,0017.2,M,,*68
$GLGSA,A,3,065,071,072,087,088,,,,,,,,1.6,0.8,1.4*1B
$GPGSA,A,3,001,008,010,021,022,027,032,,,,,,1.6,0.8,1.4*07
$GAGSA,A,3,107,126,133,,,,,,,,,,1.6,0.8,1.4*1B
$GPRMC,103137.80,A,4444.5544,N,03955.5282,E,000.00000,195.0,110822,,,A*53
$GPGGA,103138.00,4444.5544,N,03955.5282,E,1,14,0.8,00147.6,M,0017.2,M,,*6E
$GLGSA,A,3,065,071,072,087,088,,,,,,,,1.7,0.8,1.5*1B
$GPGSA,A,3,001,008,010,021,022,027,032,,,,,,1.7,0.8,1.5*07
$GAGSA,A,3,126,133,,,,,,,,,,,1.7,0.8,1.5*2D
$GPGSV,7,1,25,001,26,306,34,003,06,258,,008,48,241,39,010,41,062,41*79
$GPGSV,7,2,25,014,02,319,,021,55,306,34,022,58,159,41,023,11,071,22*74
$GPGSV,7,3,25,024,07,035,20,027,30,194,31,031,00,152,,032,66,099,43*75
$GPGSV,7,4,25,065,40,231,39,071,30,038,41,072,80,359,38,087,88,259,39*79
$GPGSV,7,5,25,088,38,323,48,107,34,050,22,110,09,309,,112,34,309,*71
$GPGSV,7,6,25,119,37,201,,124,00,289,,125,00,338,,126,37,127,21*7D
$GPGSV,7,7,25,133,88,024,34*7E
$GPRMC,103138.00,A,4444.5544,N,03955.5282,E,000.00000,211.9,110822,,,A*52
$GPZDA,103138.00,11,08,2022,+00,00*4F
$GPGGA,103138.20,4444.5544,N,03955.5282,E,1,15,0.8,00147.6,M,0017.2,M,,*6D
$GLGSA,A,3,065,071,072,087,088,,,,,,,,1.6,0.8,1.4*1B
$GPGSA,A,3,001,008,010,021,022,027,032,,,,,,1.6,0.8,1.4*07
$GAGSA,A,3,107,126,133,,,,,,,,,,1.6,0.8,1.4*1B
$GPRMC,103138.20,A,4444.5544,N,03955.5282,E,000.00000,209.1,110822,,,A*51
$GPGGA,103138.40,4444.5544,N,03955.5282,E,1,13,0.9,00147.6,M,0017.2,M,,*6C
$GLGSA,A,3,065,071,072,087,088,,,,,,,,1.8,0.9,1.5*15
$GPGSA,A,3,001,008,010,021,022,027,032,,,,,,1.8,0.9,1.5*09
$GAGSA,A,3,133,,,,,,,,,,,,1.8,0.9,1.5*16
$GPRMC,103138.40,A,4444.5544,N,03955.5282,E,000.00000,209.4,110822,,,A*52
$GPGGA,103138.60,4444.5544,N,03955.5282,E,1,14,0.9,00147.6,M,0017.2,M,,*69
$GLGSA,A,3,065,071,072,087,088,,,,,,,,1.7,0.9,1.5*1A
$GPGSA,A,3,001,008,010,021,022,027,032,,,,,,1.7,0.9,1.5*06
$GAGSA,A,3,107,133,,,,,,,,,,,1.7,0.9,1.5*2F
$GPRMC,103138.60,A,4444.5544,N,03955.5282,E,000.00000,205.0,110822,,,A*58
$GPGGA,103138.80,4444.5544,N,03955.5282,E,1,15,0.8,00147.6,M,0017.2,M,,*67
$GLGSA,A,3,065,071,072,087,088,,,,,,,,1.6,0.8,1.4*1B
$GPGSA,A,3,001,008,010,021,022,027,032,,,,,,1.6,0.8,1.4*07
$GAGSA,A,3,107,126,133,,,,,,,,,,1.6,0.8,1.4*1B
$GPRMC,103138.80,A,4444.5544,N,03955.5282,E,000.00000,203.0,110822,,,A*50
$GPGGA,103139.00,4444.5544,N,03955.5282,E,1,15,0.8,00147.6,M,0017.2,M,,*6E
$GLGSA,A,3,065,071,072,087,088,,,,,,,,1.6,0.8,1.4*1B
$GPGSA,A,3,001,008,010,021,022,027,032,,,,,,1.6,0.8,1.4*07
$GAGSA,A,3,107,126,133,,,,,,,,,,1.6,0.8,1.4*1B
$GPGSV,7,1,25,001,26,306,34,003,06,258,,008,48,241,39,010,41,062,41*79
$GPGSV,7,2,25,014,02,319,,021,55,306,35,022,58,159,41,023,11,071,22*75
$GPGSV,7,3,25,024,07,035,19,027,30,194,30,031,00,152,,032,66,099,43*7E
$GPGSV,7,4,25,065,40,231,40,071,30,038,41,072,80,359,38,087,88,259,39*77
$GPGSV,7,5,25,088,38,323,48,107,34,050,22,110,09,309,,112,34,309,*71
$GPGSV,7,6,25,119,37,201,,124,00,289,,125,00,338,,126,37,127,23*7F
$GPGSV,7,7,25,133,88,024,34*7E
$GPRMC,103139.00,A,4444.5544,N,03955.5282,E,000.00000,197.7,110822,,,A*50
$GPZDA,103139.00,11,08,2022,+00,00*4E
$GPGGA,103139.20,4444.5544,N,03955.5282,E,1,14,0.8,00147.6,M,0017.2,M,,*6D
$GLGSA,A,3,065,071,072,087,088,,,,,,,,1.7,0.8,1.5*1B
$GPGSA,A,3,001,008,010,021,022,027,032,,,,,,1.7,0.8,1.5*07
$GAGSA,A,3,126,133,,,,,,,,,,,1.7,0.8,1.5*2D
$GPRMC,103139.20,A,4444.5544,N,03955.5282,E,000.00000,206.4,110822,,,A*5A
$GPGGA,103139.40,4444.5544,N,03955.5282,E,1,15,0.8,00147.6,M,0017.2,M,,*6A
$GLGSA,A,3,065,071,072,087,088,,,,,,,,1.6,0.8,1.4*1B
$GPGSA,A,3,001,008,010,021,022,027,032,,,,,,1.6,0.8,1.4*07
$GAGSA,A,3,107,126,133,,,,,,,,,,1.6,0.8,1.4*1B
$GPRMC,103139.40,A,4444.5544,N,03955.5282,E,000.00000,202.0,110822,,,A*5C
$GPGGA,103139.60,4444.5544,N,03955.5282,E,1,15,0.8,00147.6,M,0017.2,M,,*68
$GLGSA,A,3,065,071,072,087,088,,,,,,,,1.6,0.8,1.4*1B
$GPGSA,A,3,001,008,010,021,022,027,032,,,,,,1.6,0.8,1.4*07
$GAGSA,A,3,107,126,133,,,,,,,,,,1.6,0.8,1.4*1B
$GPRMC,103139.60,A,4444.5544,N,03955.5282,E,000.00000,197.4,110822,,,A*55
$GPGGA,103139.80,4444.5544,N,03955.5282,E,1,15,0.8,00147.6,M,0017.2,M,,*66
$GLGSA,A,3,065,071,072,087,088,,,,,,,,1.6,0.8,1.4*1B
$GPGSA,A,3,001,008,010,021,022,027,032,,,,,,1.6,0.8,1.4*07
$GAGSA,A,3,107,126,133,,,,,,,,,,1.6,0.8,1.4*1B
$GPRMC,103139.80,A,4444.5544,N,03955.5282,E,000.00000,196.3,110822,,,A*5D
$GPGGA,103140.00,4444.5544,N,03955.5282,E,1,15,0.8,00147.6,M,0017.2,M,,*60
$GLGSA,A,3,065,071,072,087,088,,,,,,,,1.6,0.8,1.4*1B
$GPGSA,A,3,001,008,010,021,022,027,032,,,,,,1.6,0.8,1.4*07
$GAGSA,A,3,107,126,133,,,,,,,,,,1.6,0.8,1.4*1B
$GPGSV,7,1,25,001,26,306,34,003,06,258,,008,48,241,39,010,41,062,40*78
$GPGSV,7,2,25,014,02,319,,021,55,306,36,022,58,159,41,023,11,071,22*76
$GPGSV,7,3,25,024,07,035,20,027,30,194,30,031,00,152,,032,66,099,43*74
$GPGSV,7,4,25,065,40,231,40,071,30,038,41,072,80,359,38,087,88,259,38*76
$GPGSV,7,5,25,088,38,323,49,107,34,050,22,110,09,309,,112,34,309,*70
$GPGSV,7,6,25,119,37,201,,124,00,289,,125,00,338,,126,37,127,22*7E
$GPGSV,7,7,25,133,88,024,34*7E
$GPRMC,103140.00,A,4444.5544,N,03955.5282,E,000.00000,194.5,110822,,,A*5F
$GPZDA,103140.00,11,08,2022,+00,00*40
$GPGGA,103140.20,4444.5544,N,03955.5282,E,1,15,0.8,00147.6,M,0017.2,M,,*62
$GLGSA,A,3,065,071,072,087,088,,,,,,,,1.6,0.8,1.4*1B
$GPGSA,A,3,001,008,010,021,022,027,032,,,,,,1.6,0.8,1.4*07
$GAGSA,A,3,107,126,133,,,,,,,,,,1.6,0.8,1.4*1B
$GPRMC,103140.20,A,4444.5544,N,03955.5282,E,000.00000,193.6,110822,,,A*59
$GPGGA,103140.40,4444.5544,N,03955.5282,E,1,15,0.8,00147.6,M,0017.2,M,,*64
$GLGSA,A,3,065,071,072,087,088,,,,,,,,1.6,0.8,1.4*1B
$GPGSA,A,3,001,008,010,021,022,027,032,,,,,,1.6,0.8,1.4*07
$GAGSA,A,3,107,126,133,,,,,,,,,,1.6,0.8,1.4*1B
$GPRMC,103140.40,A,4444.5544,N,03955.5282,E,000.00000,195.3,110822,,,A*5C
$GPGGA,103140.60,4444.5544,N,03955.5282,E,1,15,0.8,00147.6,M,0017.2,M,,*66
$GLGSA,A,3,065,071,072,087,088,,,,,,,,1.6,0.8,1.4*1B
$GPGSA,A,3,001,008,010,021,022,027,032,,,,,,1.6,0.8,1.4*07
$GAGSA,A,3,107,126,133,,,,,,,,,,1.6,0.8,1.4*1B
$GPRMC,103140.60,A,4444.5544,N,03955.5282,E,000.00000,205.8,110822,,,A*5F
$GPGGA,103140.80,4444.5544,N,03955.5282,E,1,15,0.8,00147.6,M,0017.2,M,,*68
$GLGSA,A,3,065,071,072,087,088,,,,,,,,1.6,0.8,1.4*1B
$GPGSA,A,3,001,008,010,021,022,027,032,,,,,,1.6,0.8,1.4*07
$GAGSA,A,3,107,126,133,,,,,,,,,,1.6,0.8,1.4*1B
$GPRMC,103140.80,A,4444.5544,N,03955.5282,E,000.00000,202.3,110822,,,A*5D
$GPGGA,103141.00,4444.5544,N,03955.5282,E,1,15,0.8,00147.6,M,0017.2,M,,*61
$GLGSA,A,3,065,071,072,087,088,,,,,,,,1.6,0.8,1.4*1B
$GPGSA,A,3,001,008,010,021,022,027,032,,,,,,1.6,0.8,1.4*07
$GAGSA,A,3,107,126,133,,,,,,,,,,1.6,0.8,1.4*1B
$GPGSV,7,1,25,001,26,306,34,003,06,258,,008,48,241,39,010,41,062,40*78
$GPGSV,7,2,25,014,02,319,,021,55,306,36,022,58,159,41,023,11,071,21*75
$GPGSV,7,3,25,024,07,035,20,027,30,194,30,031,00,152,,032,66,099,43*74
$GPGSV,7,4,25,065,40,231,40,071,30,038,41,072,80,359,39,087,88,258,38*76
$GPGSV,7,5,25,088,38,323,48,107,34,050,22,110,09,309,,112,34,309,*71
$GPGSV,7,6,25,119,37,201,,124,00,289,,125,00,338,,126,37,127,23*7F
$GPGSV,7,7,25,133,88,024,34*7E
$GPRMC,103141.00,A,4444.5544,N,03955.5282,E,000.00000,207.9,110822,,,A*5B
$GPZDA,103141.00,11,08,2022,+00,00*41
$GPGGA,103141.20,4444.5544,N,03955.5282,E,1,15,0.8,00147.6,M,0017.2,M,,*63
$GLGSA,A,3,065,071,072,087,088,,,,,,,,1.6,0.8,1.4*1B
$GPGSA,A,3,001,008,010,021,022,027,032,,,,,,1.6,0.8,1.4*07
$GAGSA,A,3,107,126,133,,,,,,,,,,1.6,0.8,1.4*1B
$GPRMC,103141.20,A,4444.5544,N,03955.5282,E,000.00000,207.4,110822,,,A*54
$GPGGA,103141.40,4444.5544,N,03955.5282,E,1,15,0.8,00147.6,M,0017.2,M,,*65
$GLGSA,A,3,065,071,072,087,088,,,,,,,,1.6,0.8,1.4*1B
$GPGSA,A,3,001,008,010,021,022,027,032,,,,,,1.6,0.8,1.4*07
$GAGSA,A,3,107,126,133,,,,,,,,,,1.6,0.8,1.4*1B
$GPRMC,103141.40,A,4444.5544,N,03955.5282,E,000.00000,205.8,110822,,,A*5C
$GPGGA,103141.60,4444.5544,N,03955.5282,E,1,14,0.9,00147.6,M,0017.2,M,,*67
$GLGSA,A,3,065,071,072,087,088,,,,,,,,1.7,0.9,1.5*1A
$GPGSA,A,3,001,008,010,021,022,027,032,,,,,,1.7,0.9,1.5*06
$GAGSA,A,3,107,133,,,,,,,,,,,1.7,0.9,1.5*2F
$GPRMC,103141.60,A,4444.5544,N,03955.5282,E,000.00000,203.1,110822,,,A*51
$GPGGA,103141.80,4444.5544,N,03955.5282,E,1,15,0.8,00147.6,M,0017.2,M,,*69
$GLGSA,A,3,065,071,072,087,088,,,,,,,,1.6,0.8,1.4*1B
$GPGSA,A,3,001,008,010,021,022,027,032,,,,,,1.6,0.8,1.4*07
$GAGSA,A,3,107,126,133,,,,,,,,,,1.6,0.8,1.4*1B
$GPRMC,103141.80,A,4444.5544,N,03955.5282,E,000.00000,208.8,110822,,,A*5D
$GPGGA,103142.00,4444.5544,N,03955.5282,E,1,15,0.8,00147.6,M,0017.2,M,,*62
$GLGSA,A,3,065,071,072,087,088,,,,,,,,1.6,0.8,1.4*1B
$GPGSA,A,3,001,008,010,021,022,027,032,,,,,,1.6,0.8,1.4*07
$GAGSA,A,3,107,126,133,,,,,,,,,,1.6,0.8,1.4*1B
$GPGSV,7,1,25,001,26,306,34,003,06,258,,008,48,241,39,010,41,062,41*79
$GPGSV,7,2,25,014,02,319,,021,55,306,36,022,58,159,41,023,11,071,21*75
$GPGSV,7,3,25,024,07,035,21,027,30,194,31,031,00,152,,032,66,099,43*74
$GPGSV,7,4,25,065,40,231,40,071,30,038,41,072,80,359,39,087,88,258,38*76
$GPGSV,7,5,25,088,38,323,49,107,34,050,21,110,09,309,,112,34,309,*73
$GPGSV,7,6,25,119,37,201,,124,00,289,,125,00,338,,126,37,127,23*7F
$GPGSV,7,7,25,133,88,025,33*78
$GPRMC,103142.00,A,4444.5544,N,03955.5282,E,000.00000,211.1,110822,,,A*57
$GPZDA,103142.00,11,08,2022,+00,00*42
$GPGGA,103142.20,4444.5544,N,03955.5282,E,1,15,0.8,00147.6,M,0017.2,M,,*60
$GLGSA,A,3,065,071,072,087,088,,,,,,,,1.6,0.8,1.4*1B
$GPGSA,A,3,001,008,010,021,022,027,032,,,,,,1.6,0.8,1.4*07
$GAGSA,A,3,107,126,133,,,,,,,,,,1.6,0.8,1.4*1B
$GPRMC,103142.20,A,4444.5544,N,03955.5282,E,000.00000,212.6,110822,,,A*51
$GPGGA,103142.40,4444.5544,N,03955.5282,E,1,15,0.8,00147.6,M,0017.2,M,,*66
$GLGSA,A,3,065,071,072,087,088,,,,,,,,1.6,0.8,1.4*1B
$GPGSA,A,3,001,008,010,021,022,027,032,,,,,,1.6,0.8,1.4*07
$GAGSA,A,3,107,126,133,,,,,,,,,,1.6,0.8,1.4*1B
$GPRMC,103142.40,A,4444.5544,N,03955.5282,E,000.00000,214.2,110822,,,A*55
$GPGGA,103142.60,4444.5544,N,03955.5282,E,1,15,0.8,00147.6,M,0017.2,M,,*64
$GLGSA,A,3,065,071,072,087,088,,,,,,,,1.6,0.8,1.4*1B
$GPGSA,A,3,001,008,010,021,022,027,032,,,,,,1.6,0.8,1.4*07
$GAGSA,A,3,107,126,133,,,,,,,,,,1.6,0.8,1.4*1B
$GPRMC,103142.60,A,4444.5544,N,03955.5282,E,000.00000,218.6,110822,,,A*5F
$GPGGA,103142.80,4444.5544,N,03955.5282,E,1,14,0.9,00147.6,M,0017.2,M,,*6A
$GLGSA,A,3,065,071,072,087,088,,,,,,,,1.7,0.9,1.5*1A
$GPGSA,A,3,001,008,010,021,022,027,032,,,,,,1.7,0.9,1.5*06
$GAGSA,A,3,107,133,,,,,,,,,,,1.7,0.9,1.5*2F
$GPRMC,103142.80,A,4444.5544,N,03955.5282,E,000.00000,223.1,110822,,,A*5E
$GPGGA,103143.00,4444.5544,N,03955.5282,E,1,15,0.8,00147.6,M,0017.2,M,,*63
$GLGSA,A,3,065,071,072,087,088,,,,,,,,1.6,0.8,1.4*1B
$GPGSA,A,3,001,008,010,021,022,027,032,,,,,,1.6,0.8,1.4*07
$GAGSA,A,3,107,126,133,,,,,,,,,,1.6,0.8,1.4*1B
$GPGSV,7,1,25,001,26,306,34,003,06,258,,008,48,241,39,010,41,062,41*79
$GPGSV,7,2,25,014,02,319,,021,55,306,36,022,58,159,41,023,11,071,22*76
$GPGSV,7,3,25,024,07,035,20,027,30,194,31,031,00,152,,032,66,099,43*75
$GPGSV,7,4,25,065,40,231,40,071,30,038,41,072,80,359,39,087,88,258,39*77
$GPGSV,7,5,25,088,38,323,49,107,34,050,22,110,09,309,,112,34,309,*70
$GPGSV,7,6,25,119,37,201,,124,00,289,,125,00,338,,126,37,127,23*7F
$GPGSV,7,7,25,133,88,025,33*78
$GPRMC,103143.00,A,4444.5544,N,03955.5282,E,000.00000,226.7,110822,,,A*54
$GPZDA,103143.00,11,08,2022,+00,00*43
$GPGGA,103143.20,4444.5544,N,03955.5282,E,1,15,0.8,00147.6,M,0017.2,M,,*61
$GLGSA,A,3,065,071,072,087,088,,,,,,,,1.6,0.8,1.4*1B
$GPGSA,A,3,001,008,010,021,022,027,032,,,,,,1.6,0.8,1.4*07
$GAGSA,A,3,107,126,133,,,,,,,,,,1.6,0.8,1.4*1B
$GPRMC,103143.20,A,4444.5544,N,03955.5282,E,000.00000,233.1,110822,,,A*54
$GPGGA,103143.40,4444.5544,N,03955.5282,E,1,15,0.8,00147.6,M,0017.2,M,,*67
$GLGSA,A,3,065,071,072,087,088,,,,,,,,1.6,0.8,1.4*1B
$GPGSA,A,3,001,008,010,021,022,027,032,,,,,,1.6,0.8,1.4*07
$GAGSA,A,3,107,126,133,,,,,,,,,,1.6,0.8,1.4*1B
$GPRMC,103143.40,A,4444.5544,N,03955.5282,E,000.00000,236.4,110822,,,A*52
$GPGGA,103143.60,4444.5544,N,03955.5282,E,1,15,0.8,00147.6,M,0017.2,M,,*65
$GLGSA,A,3,065,071,072,087,088,,,,,,,,1.6,0.8,1.4*1B
$GPGSA,A,3,001,008,010,021,022,027,032,,,,,,1.6,0.8,1.4*07
$GAGSA,A,3,107,126,133,,,,,,,,,,1.6,0.8,1.4*1B
$GPRMC,103143.60,A,4444.5544,N,03955.5282,E,000.00000,237.9,110822,,,A*5C
$GPGGA,103143.80,4444.5544,N,03955.5282,E,1,15,0.8,00147.6,M,0017.2,M,,*6B
$GLGSA,A,3,065,071,072,087,088,,,,,,,,1.6,0.8,1.4*1B
$GPGSA,A,3,001,008,010,021,022,027,032,,,,,,1.6,0.8,1.4*07
$GAGSA,A,3,107,126,133,,,,,,,,,,1.6,0.8,1.4*1B
$GPRMC,103143.80,A,4444.5544,N,03955.5282,E,000.00000,238.8,110822,,,A*5C
$GPGGA,103144.00,4444.5544,N,03955.5282,E,1,15,0.8,00147.6,M,0017.2,M,,*64
$GLGSA,A,3,065,071,072,087,088,,,,,,,,1.6,0.8,1.4*1B
$GPGSA,A,3,001,008,010,021,022,027,032,,,,,,1.6,0.8,1.4*07
$GAGSA,A,3,107,126,133,,,,,,,,,,1.6,0.8,1.4*1B
$GPGSV,7,1,25,001,26,306,34,003,07,258,,008,48,241,39,010,41,062,41*78
$GPGSV,7,2,25,014,02,319,,021,55,306,36,022,58,159,41,023,11,071,22*76
$GPGSV,7,3,25,024,07,035,20,027,30,194,30,031,00,152,,032,66,099,43*74
$GPGSV,7,4,25,065,40,231,40,071,30,038,42,072,80,359,39,087,88,257,39*7B
$GPGSV,7,5,25,088,38,323,49,107,34,050,23,110,09,309,,112,34,309,*71
$GPGSV,7,6,25,119,37,201,,124,00,289,,125,00,338,,126,37,127,23*7F
$GPGSV,7,7,25,133,88,025,34*7F
$GPRMC,103144.00,A,4444.5544,N,03955.5282,E,000.00000,236.1,110822,,,A*54
$GPZDA,103144.00,11,08,2022,+00,00*44
$GPGGA,103144.20,4444.5544,N,03955.5282,E,1,15,0.8,00147.6,M,0017.2,M,,*66
$GLGSA,A,3,065,071,072,087,088,,,,,,,,1.6,0.8,1.4*1B
$GPGSA,A,3,001,008,010,021,022,027,032,,,,,,1.6,0.8,1.4*07
$GAGSA,A,3,107,126,133,,,,,,,,,,1.6,0.8,1.4*1B
$GPRMC,103144.20,A,4444.5544,N,03955.5282,E,000.00000,236.2,110822,,,A*55
$GPGGA,103144.40,4444.5544,N,03955.5282,E,1,14,0.9,00147.6,M,0017.2,M,,*60
$GLGSA,A,3,065,071,072,087,088,,,,,,,,1.7,0.9,1.5*1A
$GPGSA,A,3,001,008,010,021,022,027,032,,,,,,1.7,0.9,1.5*06
$GAGSA,A,3,107,133,,,,,,,,,,,1.7,0.9,1.5*2F
$GPRMC,103144.40,A,4444.5544,N,03955.5282,E,000.00000,237.5,110822,,,A*55
$GPGGA,103144.60,4444.5544,N,03955.5282,E,1,14,0.8,00147.6,M,0017.2,M,,*63
$GLGSA,A,3,065,071,072,087,088,,,,,,,,1.7,0.8,1.5*1B
$GPGSA,A,3,001,008,010,021,022,027,032,,,,,,1.7,0.8,1.5*07
$GAGSA,A,3,126,133,,,,,,,,,,,1.7,0.8,1.5*2D
$GPRMC,103144.60,A,4444.5544,N,03955.5282,E,000.00000,237.2,110822,,,A*50
$GPGGA,103144.80,4444.5544,N,03955.5282,E,1,15,0.8,00147.6,M,0017.2,M,,*6C
$GLGSA,A,3,065,071,072,087,088,,,,,,,,1.6,0.8,1.4*1B
$GPGSA,A,3,001,008,010,021,022,027,032,,,,,,1.6,0.8,1.4*07
$GAGSA,A,3,107,126,133,,,,,,,,,,1.6,0.8,1.4*1B
$GPRMC,103144.80,A,4444.5544,N,03955.5282,E,000.00000,234.6,110822,,,A*59
$GPGGA,103145.00,4444.5544,N,03955.5282,E,1,15,0.8,00147.6,M,0017.2,M,,*65
$GLGSA,A,3,065,071,072,087,088,,,,,,,,1.6,0.8,1.4*1B
$GPGSA,A,3,001,008,010,021,022,027,032,,,,,,1.6,0.8,1.4*07
$GAGSA,A,3,107,126,133,,,,,,,,,,1.6,0.8,1.4*1B
$GPGSV,7,1,26,001,26,306,34,003,07,258,,008,48,241,39,010,41,062,41*7B
$GPGSV,7,2,26,014,02,319,,021,55,306,36,022,58,159,41,023,11,071,22*75
$GPGSV,7,3,26,024,07,035,19,027,30,194,30,031,00,152,,032,66,099,43*7D
$GPGSV,7,4,26,065,40,231,40,071,30,038,42,072,80,359,38,073,00,066,*78
$GPGSV,7,5,26,087,88,257,39,088,38,323,48,107,34,050,22,110,09,309,*78
$GPGSV,7,6,26,112,34,309,,119,37,201,,124,00,289,,125,00,338,*77
$GPGSV,7,7,26,126,37,127,23,133,88,025,33*7F
$GPRMC,103145.00,A,4444.5544,N,03955.5282,E,000.00000,229.8,110822,,,A*52
$GPZDA,103145.00,11,08,2022,+00,00*45
$GPGGA,103145.20,4444.5544,N,03955.5282,E,1,14,0.9,00147.6,M,0017.2,M,,*67
$GLGSA,A,3,065,071,072,087,088,,,,,,,,1.7,0.9,1.5*1A
$GPGSA,A,3,001,008,010,021,022,027,032,,,,,,1.7,0.9,1.5*06
$GAGSA,A,3,107,133,,,,,,,,,,,1.7,0.9,1.5*2F
$GPRMC,103145.20,A,4444.5544,N,03955.5282,E,000.00000,224.5,110822,,,A*50
$GPGGA,103145.40,4444.5544,N,03955.5282,E,1,14,0.8,00147.6,M,0017.2,M,,*60
$GLGSA,A,3,065,071,072,087,088,,,,,,,,1.7,0.8,1.5*1B
$GPGSA,A,3,001,008,010,021,022,027,032,,,,,,1.7,0.8,1.5*07
$GAGSA,A,3,126,133,,,,,,,,,,,1.7,0.8,1.5*2D
$GPRMC,103145.40,A,4444.5544,N,03955.5282,E,000.00000,231.9,110822,,,A*5E
$GPGGA,103145.60,4444.5544,N,03955.5282,E,1,15,0.8,00147.6,M,0017.2,M,,*63
$GLGSA,A,3,065,071,072,087,088,,,,,,,,1.6,0.8,1.4*1B
$GPGSA,A,3,001,008,010,021,022,027,032,,,,,,1.6,0.8,1.4*07
$GAGSA,A,3,107,126,133,,,,,,,,,,1.6,0.8,1.4*1B
$GPRMC,103145.60,A,4444.5544,N,03955.5282,E,000.00000,229.2,110822,,,A*5E
$GPGGA,103145.80,4444.5544,N,03955.5282,E,1,15,0.8,00147.6,M,0017.2,M,,*6D
$GLGSA,A,3,065,071,072,087,088,,,,,,,,1.6,0.8,1.4*1B
$GPGSA,A,3,001,008,010,021,022,027,032,,,,,,1.6,0.8,1.4*07
$GAGSA,A,3,107,126,133,,,,,,,,,,1.6,0.8,1.4*1B
$GPRMC,103145.80,A,4444.5544,N,03955.5282,E,000.00000,232.5,110822,,,A*5D
$GPGGA,103146.00,4444.5544,N,03955.5282,E,1,15,0.8,00147.6,M,0017.2,M,,*66
$GLGSA,A,3,065,071,072,087,088,,,,,,,,1.6,0.8,1.4*1B
$GPGSA,A,3,001,008,010,021,022,027,032,,,,,,1.6,0.8,1.4*07
$GAGSA,A,3,107,126,133,,,,,,,,,,1.6,0.8,1.4*1B
$GPGSV,7,1,26,001,26,306,34,003,07,258,,008,48,241,38,010,41,062,40*7B
$GPGSV,7,2,26,014,02,319,,021,55,306,35,022,58,159,41,023,11,071,21*75
$GPGSV,7,3,26,024,07,035,20,027,30,194,30,031,00,152,,032,66,099,43*77
$GPGSV,7,4,26,065,40,231,39,071,30,038,41,072,80,359,38,073,00,066,*75
$GPGSV,7,5,26,087,88,257,38,088,38,323,48,107,34,050,22,110,09,309,*79
$GPGSV,7,6,26,112,34,309,,119,37,201,,124,00,289,,125,00,338,*77
$GPGSV,7,7,26,126,37,127,23,133,88,026,33*7C
$GPRMC,103146.00,A,4444.5544,N,03955.5282,E,000.00000,229.6,110822,,,A*5F
$GPZDA,103146.00,11,08,2022,+00,00*46
$GPGGA,103146.20,4444.5544,N,03955.5282,E,1,15,0.8,00147.6,M,0017.2,M,,*64
$GLGSA,A,3,065,071,072,087,088,,,,,,,,1.6,0.8,1.4*1B
$GPGSA,A,3,001,008,010,021,022,027,032,,,,,,1.6,0.8,1.4*07
$GAGSA,A,3,107,126,133,,,,,,,,,,1.6,0.8,1.4*1B
$GPRMC,103146.20,A,4444.5544,N,03955.5282,E,000.00000,226.2,110822,,,A*56
$GPGGA,103146.40,4444.5544,N,03955.5282,E,1,15,0.8,00147.6,M,0017.2,M,,*62
$GLGSA,A,3,065,071,072,087,088,,,,,,,,1.6,0.8,1.4*1B
$GPGSA,A,3,001,008,010,021,022,027,032,,,,,,1.6,0.8,1.4*07
$GAGSA,A,3,107,126,133,,,,,,,,,,1.6,0.8,1.4*1B
$GPRMC,103146.40,A,4444.5544,N,03955.5282,E,000.00000,231.3,110822,,,A*57
$GPGGA,103146.60,4444.5544,N,03955.5282,E,1,14,0.8,00147.6,M,0017.2,M,,*61
$GLGSA,A,3,065,071,072,087,088,,,,,,,,1.7,0.8,1.5*1B
$GPGSA,A,3,001,008,010,021,022,027,032,,,,,,1.7,0.8,1.5*07
$GAGSA,A,3,126,133,,,,,,,,,,,1.7,0.8,1.5*2D
$GPRMC,103146.60,A,4444.5544,N,03955.5282,E,000.00000,235.5,110822,,,A*57
$GPGGA,103146.80,4444.5544,N,03955.5282,E,1,15,0.8,00147.6,M,0017.2,M,,*6E
$GLGSA,A,3,065,071,072,087,088,,,,,,,,1.6,0.8,1.4*1B
$GPGSA,A,3,001,008,010,021,022,027,032,,,,,,1.6,0.8,1.4*07
$GAGSA,A,3,107,126,133,,,,,,,,,,1.6,0.8,1.4*1B
$GPRMC,103146.80,A,4444.5544,N,03955.5282,E,000.00000,234.0,110822,,,A*5D
$GPGGA,103147.00,4444.5544,N,03955.5282,E,1,15,0.8,00147.6,M,0017.2,M,,*67
$GLGSA,A,3,065,071,072,087,088,,,,,,,,1.6,0.8,1.4*1B
$GPGSA,A,3,001,008,010,021,022,027,032,,,,,,1.6,0.8,1.4*07
$GAGSA,A,3,107,126,133,,,,,,,,,,1.6,0.8,1.4*1B
$GPGSV,7,1,26,001,26,306,34,003,07,258,,008,48,241,38,010,41,062,40*7B
$GPGSV,7,2,26,014,02,319,,021,55,306,35,022,58,159,41,023,11,071,20*74
$GPGSV,7,3,26,024,07,035,18,027,30,194,30,031,00,152,,032,66,099,43*7C
$GPGSV,7,4,26,065,40,231,39,071,30,038,41,072,80,359,38,073,00,066,*75
$GPGSV,7,5,26,087,88,257,38,088,38,323,48,107,34,050,21,110,09,309,*7A
$GPGSV,7,6,26,112,34,309,,119,37,201,,124,00,289,,125,00,338,*77
$GPGSV,7,7,26,126,37,127,22,133,88,026,33*7D
$GPRMC,103147.00,A,4444.5544,N,03955.5282,E,000.00000,236.9,110822,,,A*5F
$GPZDA,103147.00,11,08,2022,+00,00*47
$GPGGA,103147.20,4444.5544,N,03955.5282,E,1,14,0.8,00147.6,M,0017.2,M,,*64
$GLGSA,A,3,065,071,072,087,088,,,,,,,,1.7,0.8,1.5*1B
$GPGSA,A,3,001,008,010,021,022,027,032,,,,,,1.7,0.8,1.5*07
$GAGSA,A,3,126,133,,,,,,,,,,,1.7,0.8,1.5*2D
$GPRMC,103147.20,A,4444.5544,N,03955.5282,E,000.00000,238.5,110822,,,A*5F
$GPGGA,103147.40,4444.5544,N,03955.5282,E,1,14,0.9,00147.6,M,0017.2,M,,*63
$GLGSA,A,3,065,071,072,087,088,,,,,,,,1.7,0.9,1.5*1A
$GPGSA,A,3,001,008,010,021,022,027,032,,,,,,1.7,0.9,1.5*06
$GAGSA,A,3,107,133,,,,,,,,,,,1.7,0.9,1.5*2F
$GPRMC,103147.40,A,4444.5544,N,03955.5282,E,000.00000,239.3,110822,,,A*5E
$GPGGA,103147.60,4444.5544,N,03955.5282,E,1,15,0.8,00147.6,M,0017.2,M,,*61
$GLGSA,A,3,065,071,072,087,088,,,,,,,,1.6,0.8,1.4*1B
$GPGSA,A,3,001,008,010,021,022,027,032,,,,,,1.6,0.8,1.4*07
$GAGSA,A,3,107,126,133,,,,,,,,,,1.6,0.8,1.4*1B
$GPRMC,103147.60,A,4444.5544,N,03955.5282,E,000.00000,239.8,110822,,,A*57
$GPGGA,103147.80,4444.5544,N,03955.5282,E,1,15,0.8,00147.6,M,0017.2,M,,*6F
$GLGSA,A,3,065,071,072,087,088,,,,,,,,1.6,0.8,1.4*1B
$GPGSA,A,3,001,008,010,021,022,027,032,,,,,,1.6,0.8,1.4*07
$GAGSA,A,3,107,126,133,,,,,,,,,,1.6,0.8,1.4*1B
$GPRMC,103147.80,A,4444.5544,N,03955.5282,E,000.00000,240.1,110822,,,A*5E
$GPGGA,103148.00,4444.5544,N,03955.5282,E,1,15,0.8,00147.6,M,0017.2,M,,*68
$GLGSA,A,3,065,071,072,087,088,,,,,,,,1.6,0.8,1.4*1B
$GPGSA,A,3,001,008,010,021,022,027,032,,,,,,1.6,0.8,1.4*07
$GAGSA,A,3,107,126,133,,,,,,,,,,1.6,0.8,1.4*1B
$GPGSV,7,1,26,001,26,306,34,003,07,258,,008,48,241,38,010,41,062,40*7B
$GPGSV,7,2,26,014,02,319,,021,55,306,35,022,58,159,41,023,11,071,20*74
$GPGSV,7,3,26,024,07,035,20,027,30,194,30,031,00,152,,032,66,099,43*77
$GPGSV,7,4,26,065,40,231,39,071,30,038,41,072,80,359,38,073,00,066,*75
$GPGSV,7,5,26,087,88,256,38,088,38,323,48,107,34,050,22,110,09,309,*78
$GPGSV,7,6,26,112,34,309,,119,37,201,,124,00,289,,125,00,338,*77
$GPGSV,7,7,26,126,37,127,22,133,88,026,33*7D
$GPRMC,103148.00,A,4444.5544,N,03955.5282,E,000.00000,240.3,110822,,,A*5B
$GPZDA,103148.00,11,08,2022,+00,00*48
$GPGGA,103148.20,4444.5544,N,03955.5282,E,1,15,0.8,00147.6,M,0017.2,M,,*6A
$GLGSA,A,3,065,071,072,087,088,,,,,,,,1.6,0.8,1.4*1B
$GPGSA,A,3,001,008,010,021,022,027,032,,,,,,1.6,0.8,1.4*07
$GAGSA,A,3,107,126,133,,,,,,,,,,1.6,0.8,1.4*1B
$GPRMC,103148.20,A,4444.5544,N,03955.5282,E,000.00000,240.3,110822,,,A*59
$GPGGA,103148.40,4444.5544,N,03955.5282,E,1,15,0.8,00147.6,M,0017.2,M,,*6C
$GLGSA,A,3,065,071,072,087,088,,,,,,,,1.6,0.8,1.4*1B
$GPGSA,A,3,001,008,010,021,022,027,032,,,,,,1.6,0.8,1.4*07
$GAGSA,A,3,107,126,133,,,,,,,,,,1.6,0.8,1.4*1B
$GPRMC,103148.40,A,4444.5544,N,03955.5282,E,000.00000,240.4,110822,,,A*58
$GPGGA,103148.60,4444.5544,N,03955.5282,E,1,15,0.8,00147.6,M,0017.2,M,,*6E
$GLGSA,A,3,065,071,072,087,088,,,,,,,,1.6,0.8,1.4*1B
$GPGSA,A,3,001,008,010,021,022,027,032,,,,,,1.6,0.8,1.4*07
$GAGSA,A,3,107,126,133,,,,,,,,,,1.6,0.8,1.4*1B
$GPRMC,103148.60,A,4444.5544,N,03955.5282,E,000.00000,240.4,110822,,,A*5A
$GPGGA,103148.80,4444.5544,N,03955.5282,E,1,15,0.8,00147.6,M,0017.2,M,,*60
$GLGSA,A,3,065,071,072,087,088,,,,,,,,1.6,0.8,1.4*1B
$GPGSA,A,3,001,008,010,021,022,027,032,,,,,,1.6,0.8,1.4*07
$GAGSA,A,3,107,126,133,,,,,,,,,,1.6,0.8,1.4*1B
$GPRMC,103148.80,A,4444.5544,N,03955.5282,E,000.00000,235.2,110822,,,A*50
$GPGGA,103149.00,4444.5544,N,03955.5282,E,1,15,0.8,00147.6,M,0017.2,M,,*69
$GLGSA,A,3,065,071,072,087,088,,,,,,,,1.6,0.8,1.4*1B
$GPGSA,A,3,001,008,010,021,022,027,032,,,,,,1.6,0.8,1.4*07
$GAGSA,A,3,107,126,133,,,,,,,,,,1.6,0.8,1.4*1B
$GPGSV,7,1,26,001,26,306,34,003,07,258,,008,48,241,38,010,41,062,40*7B
$GPGSV,7,2,26,014,02,319,,021,55,306,36,022,58,159,41,023,11,071,20*77
$GPGSV,7,3,26,024,07,035,19,027,30,194,30,031,00,152,,032,66,099,43*7D
$GPGSV,7,4,26,065,40,231,39,071,30,038,42,072,80,359,39,073,00,066,*77
$GPGSV,7,5,26,087,88,256,39,088,38,323,48,107,34,050,23,110,09,309,*78
$GPGSV,7,6,26,112,34,309,,119,37,201,,124,00,289,,125,00,338,*77
$GPGSV,7,7,26,126,37,127,23,133,88,026,33*7C
$GPRMC,103149.00,A,4444.5544,N,03955.5282,E,000.00000,235.3,110822,,,A*58
$GPZDA,103149.00,11,08,2022,+00,00*49
$GPGGA,103149.20,4444.5544,N,03955.5282,E,1,15,0.8,00147.6,M,0017.2,M,,*6B
$GLGSA,A,3,065,071,072,087,088,,,,,,,,1.6,0.8,1.4*1B
$GPGSA,A,3,001,008,010,021,022,027,032,,,,,,1.6,0.8,1.4*07
$GAGSA,A,3,107,126,133,,,,,,,,,,1.6,0.8,1.4*1B
$GPRMC,103149.20,A,4444.5544,N,03955.5282,E,000.00000,236.3,110822,,,A*59
$GPGGA,103149.40,4444.5544,N,03955.5282,E,1,14,0.8,00147.6,M,0017.2,M,,*6C
$GLGSA,A,3,065,071,072,087,088,,,,,,,,1.7,0.8,1.5*1B
$GPGSA,A,3,001,008,010,021,022,027,032,,,,,,1.7,0.8,1.5*07
$GAGSA,A,3,126,133,,,,,,,,,,,1.7,0.8,1.5*2D
$GPRMC,103149.40,A,4444.5544,N,03955.5282,E,000.00000,238.2,110822,,,A*50
$GPGGA,103149.60,4444.5544,N,03955.5282,E,1,15,0.8,00147.6,M,0017.2,M,,*6F
$GLGSA,A,3,065,071,072,087,088,,,,,,,,1.6,0.8,1.4*1B
$GPGSA,A,3,001,008,010,021,022,027,032,,,,,,1.6,0.8,1.4*07
$GAGSA,A,3,107,126,133,,,,,,,,,,1.6,0.8,1.4*1B
$GPRMC,103149.60,A,4444.5544,N,03955.5282,E,000.00000,232.6,110822,,,A*5C
$GPGGA,103149.80,4444.5544,N,03955.5282,E,1,14,0.8,00147.6,M,0017.2,M,,*60
$GLGSA,A,3,065,071,072,087,088,,,,,,,,1.7,0.8,1.5*1B
$GPGSA,A,3,001,008,010,021,022,027,032,,,,,,1.7,0.8,1.5*07
$GAGSA,A,3,126,133,,,,,,,,,,,1.7,0.8,1.5*2D
$GPRMC,103149.80,A,4444.5544,N,03955.5282,E,000.00000,230.5,110822,,,A*53
$GPGGA,103150.00,4444.5544,N,03955.5282,E,1,15,0.8,00147.6,M,0017.2,M,,*61
$GLGSA,A,3,065,071,072,087,088,,,,,,,,1.6,0.8,1.4*1B
$GPGSA,A,3,001,008,010,021,022,027,032,,,,,,1.6,0.8,1.4*07
$GAGSA,A,3,107,126,133,,,,,,,,,,1.6,0.8,1.4*1B
$GPGSV,7,1,26,001,26,306,34,003,07,258,,008,48,241,38,010,41,062,40*7B
$GPGSV,7,2,26,014,02,319,,021,55,306,35,022,58,159,41,023,11,071,21*75
$GPGSV,7,3,26,024,07,035,19,027,30,194,30,031,00,152,,032,66,099,43*7D
$GPGSV,7,4,26,065,40,231,38,071,30,038,42,072,80,359,39,073,00,066,*76
$GPGSV,7,5,26,087,88,256,39,088,38,323,49,107,34,050,21,110,09,309,*7B
$GPGSV,7,6,26,112,34,309,,119,37,201,,124,00,289,,125,00,338,*77
$GPGSV,7,7,26,126,37,127,23,133,88,027,33*7D
$GPRMC,103150.00,A,4444.5544,N,03955.5282,E,000.00000,205.0,110822,,,A*50
$GPZDA,103150.00,11,08,2022,+00,00*41
$GPGGA,103150.20,4444.5544,N,03955.5282,E,1,13,0.9,00147.6,M,0017.2,M,,*64
$GLGSA,A,3,065,071,072,087,088,,,,,,,,1.8,0.9,1.5*15
$GPGSA,A,3,001,008,010,021,022,027,032,,,,,,1.8,0.9,1.5*09
$GAGSA,A,3,133,,,,,,,,,,,,1.8,0.9,1.5*16
$GPRMC,103150.20,A,4444.5544,N,03955.5282,E,000.00000,207.7,110822,,,A*57
$GPGGA,103150.40,4444.5544,N,03955.5282,E,1,15,0.8,00147.6,M,0017.2,M,,*65
$GLGSA,A,3,065,071,072,087,088,,,,,,,,1.6,0.8,1.4*1B
$GPGSA,A,3,001,008,010,021,022,027,032,,,,,,1.6,0.8,1.4*07
$GAGSA,A,3,107,126,133,,,,,,,,,,1.6,0.8,1.4*1B
$GPRMC,103150.40,A,4444.5544,N,03955.5282,E,000.00000,204.3,110822,,,A*56
$GPGGA,103150.60,4444.5544,N,03955.5282,E,1,15,0.8,00147.6,M,0017.2,M,,*67
$GLGSA,A,3,065,071,072,087,088,,,,,,,,1.6,0.8,1.4*1B
$GPGSA,A,3,001,008,010,021,022,027,032,,,,,,1.6,0.8,1.4*07
$GAGSA,A,3,107,126,133,,,,,,,,,,1.6,0.8,1.4*1B
$GPRMC,103150.60,A,4444.5544,N,03955.5282,E,000.00000,196.0,110822,,,A*5F
$GPGGA,103150.80,4444.5544,N,03955.5282,E,1,14,0.9,00147.6,M,0017.2,M,,*69
$GLGSA,A,3,065,071,072,087,088,,,,,,,,1.7,0.9,1.5*1A
$GPGSA,A,3,001,008,010,021,022,027,032,,,,,,1.7,0.9,1.5*06
$GAGSA,A,3,107,133,,,,,,,,,,,1.7,0.9,1.5*2F
$GPRMC,103150.80,A,4444.5544,N,03955.5282,E,000.00000,225.6,110822,,,A*5C
$GPGGA,103151.00,4444.5544,N,03955.5282,E,1,15,0.8,00147.6,M,0017.2,M,,*60
$GLGSA,A,3,065,071,072,087,088,,,,,,,,1.6,0.8,1.4*1B
$GPGSA,A,3,001,008,010,021,022,027,032,,,,,,1.6,0.8,1.4*07
$GAGSA,A,3,107,126,133,,,,,,,,,,1.6,0.8,1.4*1B
$GPGSV,7,1,26,001,26,306,34,003,07,258,,008,48,241,39,010,41,062,41*7B
$GPGSV,7,2,26,014,02,319,,021,55,306,36,022,58,159,41,023,11,071,23*74
$GPGSV,7,3,26,024,07,035,20,027,30,194,30,031,00,152,,032,66,099,43*77
$GPGSV,7,4,26,065,40,231,39,071,30,038,42,072,80,359,39,073,00,066,*77
$GPGSV,7,5,26,087,88,255,39,088,38,323,49,107,34,050,21,110,09,309,*78
$GPGSV,7,6,26,112,34,309,,119,37,201,,124,00,289,,125,00,338,*77
$GPGSV,7,7,26,126,37,127,23,133,88,027,33*7D
$GPRMC,103151.00,A,4444.5544,N,03955.5282,E,000.00000,226.9,110822,,,A*59
$GPZDA,103151.00,11,08,2022,+00,00*40
$GPGGA,103151.20,4444.5544,N,03955.5282,E,1,15,0.8,00147.6,M,0017.2,M,,*62
$GLGSA,A,3,065,071,072,087,088,,,,,,,,1.6,0.8,1.4*1B
$GPGSA,A,3,001,008,010,021,022,027,032,,,,,,1.6,0.8,1.4*07
$GAGSA,A,3,107,126,133,,,,,,,,,,1.6,0.8,1.4*1B
$GPRMC,103151.20,A,4444.5544,N,03955.5282,E,000.00000,228.7,110822,,,A*5B
$GPGGA,103151.40,4444.5544,N,03955.5282,E,1,15,0.8,00147.6,M,0017.2,M,,*64
$GLGSA,A,3,065,071,072,087,088,,,,,,,,1.6,0.8,1.4*1B
$GPGSA,A,3,001,008,010,021,022,027,032,,,,,,1.6,0.8,1.4*07
$GAGSA,A,3,107,126,133,,,,,,,,,,1.6,0.8,1.4*1B
$GPRMC,103151.40,A,4444.5544,N,03955.5282,E,000.00000,229.4,110822,,,A*5F
$GPGGA,103151.60,4444.5544,N,03955.5282,E,1,15,0.8,00147.6,M,0017.2,M,,*66
$GLGSA,A,3,065,071,072,087,088,,,,,,,,1.6,0.8,1.4*1B
$GPGSA,A,3,001,008,010,021,022,027,032,,,,,,1.6,0.8,1.4*07
$GAGSA,A,3,107,126,133,,,,,,,,,,1.6,0.8,1.4*1B
$GPRMC,103151.60,A,4444.5544,N,03955.5282,E,000.00000,230.4,110822,,,A*55
$GPGGA,103151.80,4444.5544,N,03955.5282,E,1,15,0.8,00147.6,M,0017.2,M,,*68
$GLGSA,A,3,065,071,072,087,088,,,,,,,,1.6,0.8,1.4*1B
$GPGSA,A,3,001,008,010,021,022,027,032,,,,,,1.6,0.8,1.4*07
$GAGSA,A,3,107,126,133,,,,,,,,,,1.6,0.8,1.4*1B
$GPRMC,103151.80,A,4444.5544,N,03955.5282,E,000.00000,231.1,110822,,,A*5F
$GPGGA,103152.00,4444.5544,N,03955.5282,E,1,15,0.8,00147.6,M,0017.2,M,,*63
$GLGSA,A,3,065,071,072,087,088,,,,,,,,1.6,0.8,1.4*1B
$GPGSA,A,3,001,008,010,021,022,027,032,,,,,,1.6,0.8,1.4*07
$GAGSA,A,3,107,126,133,,,,,,,,,,1.6,0.8,1.4*1B
$GPGSV,7,1,26,001,26,306,34,003,07,258,,008,48,241,39,010,41,062,41*7B
$GPGSV,7,2,26,014,02,319,,021,55,306,35,022,58,159,41,023,11,071,22*76
$GPGSV,7,3,26,024,07,035,20,027,30,194,30,031,00,152,,032,66,099,43*77
$GPGSV,7,4,26,065,41,231,38,071,30,038,42,072,80,359,39,073,00,066,*77
$GPGSV,7,5,26,087,88,255,39,088,38,323,49,107,34,050,21,110,09,309,*78
$GPGSV,7,6,26,112,34,309,,119,37,201,,124,00,289,,125,00,338,*77
$GPGSV,7,7,26,126,37,127,21,133,88,027,33*7F
$GPRMC,103152.00,A,4444.5544,N,03955.5282,E,000.00000,230.3,110822,,,A*57
$GPZDA,103152.00,11,08,2022,+00,00*43
$GPGGA,103152.20,4444.5544,N,03955.5282,E,1,15,0.8,00147.6,M,0017.2,M,,*61
$GLGSA,A,3,065,071,072,087,088,,,,,,,,1.6,0.8,1.4*1B
$GPGSA,A,3,001,008,010,021,022,027,032,,,,,,1.6,0.8,1.4*07
$GAGSA,A,3,107,126,133,,,,,,,,,,1.6,0.8,1.4*1B
$GPRMC,103152.20,A,4444.5544,N,03955.5282,E,000.00000,230.9,110822,,,A*5F
$GPGGA,103152.40,4444.5544,N,03955.5282,E,1,15,0.8,00147.6,M,0017.2,M,,*67
$GLGSA,A,3,065,071,072,087,088,,,,,,,,1.6,0.8,1.4*1B
$GPGSA,A,3,001,008,010,021,022,027,032,,,,,,1.6,0.8,1.4*07
$GAGSA,A,3,107,126,133,,,,,,,,,,1.6,0.8,1.4*1B
$GPRMC,103152.40,A,4444.5544,N,03955.5282,E,000.00000,236.0,110822,,,A*56
$GPGGA,103152.60,4444.5544,N,03955.5282,E,1,15,0.8,00147.6,M,0017.2,M,,*65
$GLGSA,A,3,065,071,072,087,088,,,,,,,,1.6,0.8,1.4*1B
$GPGSA,A,3,001,008,010,021,022,027,032,,,,,,1.6,0.8,1.4*07
$GAGSA,A,3,107,126,133,,,,,,,,,,1.6,0.8,1.4*1B
$GPRMC,103152.60,A,4444.5544,N,03955.5282,E,000.00000,238.0,110822,,,A*5A
$GPGGA,103152.80,4444.5544,N,03955.5282,E,1,15,0.8,00147.6,M,0017.2,M,,*6B
$GLGSA,A,3,065,071,072,087,088,,,,,,,,1.6,0.8,1.4*1B
$GPGSA,A,3,001,008,010,021,022,027,032,,,,,,1.6,0.8,1.4*07
$GAGSA,A,3,107,126,133,,,,,,,,,,1.6,0.8,1.4*1B
$GPRMC,103152.80,A,4444.5544,N,03955.5282,E,000.00000,239.1,110822,,,A*54
$GPGGA,103153.00,4444.5544,N,03955.5282,E,1,15,0.8,00147.6,M,0017.2,M,,*62
$GLGSA,A,3,065,071,072,087,088,,,,,,,,1.6,0.8,1.4*1B
$GPGSA,A,3,001,008,010,021,022,027,032,,,,,,1.6,0.8,1.4*07
$GAGSA,A,3,107,126,133,,,,,,,,,,1.6,0.8,1.4*1B
$GPGSV,7,1,26,001,26,306,34,003,07,258,,008,48,241,38,010,41,062,41*7A
$GPGSV,7,2,26,014,02,319,,021,55,306,35,022,58,159,41,023,11,071,22*76
$GPGSV,7,3,26,024,07,035,21,027,30,194,30,031,00,152,,032,66,099,44*71
$GPGSV,7,4,26,065,41,231,38,071,30,038,42,072,80,359,39,073,00,066,*77
$GPGSV,7,5,26,087,88,255,39,088,38,323,49,107,34,050,20,110,09,309,*79
$GPGSV,7,6,26,112,34,309,,119,37,201,,124,00,289,,125,00,338,*77
$GPGSV,7,7,26,126,37,127,21,133,88,027,33*7F
$GPRMC,103153.00,A,4444.5544,N,03955.5282,E,000.00000,239.7,110822,,,A*5B
$GPZDA,103153.00,11,08,2022,+00,00*42
$GPGGA,103153.20,4444.5544,N,03955.5282,E,1,14,0.8,00147.6,M,0017.2,M,,*61
$GLGSA,A,3,065,071,072,087,088,,,,,,,,1.7,0.8,1.5*1B
$GPGSA,A,3,001,008,010,021,022,027,032,,,,,,1.7,0.8,1.5*07
$GAGSA,A,3,126,133,,,,,,,,,,,1.7,0.8,1.5*2D
$GPRMC,103153.20,A,4444.5544,N,03955.5282,E,000.00000,240.1,110822,,,A*51
$GPGGA,103153.40,4444.5544,N,03955.5282,E,1,13,0.9,00147.6,M,0017.2,M,,*61
$GLGSA,A,3,065,071,072,087,088,,,,,,,,1.8,0.9,1.5*15
$GPGSA,A,3,001,008,010,021,022,027,032,,,,,,1.8,0.9,1.5*09
$GAGSA,A,3,133,,,,,,,,,,,,1.8,0.9,1.5*16
$GPRMC,103153.40,A,4444.5544,N,03955.5282,E,000.00000,240.2,110822,,,A*54
$GPGGA,103153.60,4444.5544,N,03955.5282,E,1,14,0.8,00147.6,M,0017.2,M,,*65
$GLGSA,A,3,065,071,072,087,088,,,,,,,,1.7,0.8,1.5*1B
$GPGSA,A,3,001,008,010,021,022,027,032,,,,,,1.7,0.8,1.5*07
$GAGSA,A,3,126,133,,,,,,,,,,,1.7,0.8,1.5*2D
$GPRMC,103153.60,A,4444.5544,N,03955.5282,E,000.00000,240.3,110822,,,A*57
$GPGGA,103153.80,4444.5544,N,03955.5282,E,1,15,0.8,00147.5,M,0017.2,M,,*69
$GLGSA,A,3,065,071,072,087,088,,,,,,,,1.6,0.8,1.4*1B
$GPGSA,A,3,001,008,010,021,022,027,032,,,,,,1.6,0.8,1.4*07
$GAGSA,A,3,107,126,133,,,,,,,,,,1.6,0.8,1.4*1B
$GPRMC,103153.80,A,4444.5544,N,03955.5282,E,000.00000,240.5,110822,,,A*5F
$GPGGA,103154.00,4444.5544,N,03955.5282,E,1,14,0.9,00147.5,M,0017.2,M,,*66
$GLGSA,A,3,065,071,072,087,088,,,,,,,,1.7,0.9,1.5*1A
$GPGSA,A,3,001,008,010,021,022,027,032,,,,,,1.7,0.9,1.5*06
$GAGSA,A,3,107,133,,,,,,,,,,,1.7,0.9,1.5*2F
$GPGSV,7,1,26,001,26,306,34,003,07,258,,008,48,241,38,010,41,062,41*7A
$GPGSV,7,2,26,014,02,319,,021,55,306,35,022,58,159,41,023,11,071,22*76
$GPGSV,7,3,26,024,07,035,21,027,30,194,30,031,00,152,,032,66,099,44*71
$GPGSV,7,4,26,065,41,231,38,071,30,038,41,072,80,359,39,073,00,066,*74
$GPGSV,7,5,26,087,88,254,39,088,38,323,49,107,34,050,20,110,09,309,*78
$GPGSV,7,6,26,112,34,309,,119,37,201,,124,00,289,,125,00,338,*77
$GPGSV,7,7,26,126,37,127,22,133,88,027,34*7B
$GPRMC,103154.00,A,4444.5544,N,03955.5282,E,000.00000,240.5,110822,,,A*50
$GPZDA,103154.00,11,08,2022,+00,00*45
$GPGGA,103154.20,4444.5544,N,03955.5282,E,1,15,0.8,00147.5,M,0017.2,M,,*64
$GLGSA,A,3,065,071,072,087,088,,,,,,,,1.6,0.8,1.4*1B
$GPGSA,A,3,001,008,010,021,022,027,032,,,,,,1.6,0.8,1.4*07
$GAGSA,A,3,107,126,133,,,,,,,,,,1.6,0.8,1.4*1B
$GPRMC,103154.20,A,4444.5544,N,03955.5282,E,000.00000,240.5,110822,,,A*52
$GPGGA,103154.40,4444.5544,N,03955.5282,E,1,15,0.8,00147.5,M,0017.2,M,,*62
$GLGSA,A,3,065,071,072,087,088,,,,,,,,1.6,0.8,1.4*1B
$GPGSA,A,3,001,008,010,021,022,027,032,,,,,,1.6,0.8,1.4*07
$GAGSA,A,3,107,126,133,,,,,,,,,,1.6,0.8,1.4*1B
$GPRMC,103154.40,A,4444.5544,N,03955.5282,E,000.00000,240.5,110822,,,A*54
$GPGGA,103154.60,4444.5544,N,03955.5282,E,1,15,0.8,00147.5,M,0017.2,M,,*60
$GLGSA,A,3,065,071,072,087,088,,,,,,,,1.6,0.8,1.4*1B
$GPGSA,A,3,001,008,010,021,022,027,032,,,,,,1.6,0.8,1.4*07
$GAGSA,A,3,107,126,133,,,,,,,,,,1.6,0.8,1.4*1B
$GPRMC,103154.60,A,4444.5544,N,03955.5282,E,000.00000,240.5,110822,,,A*56
$GPGGA,103154.80,4444.5544,N,03955.5282,E,1,14,0.8,00147.5,M,0017.2,M,,*6F
$GLGSA,A,3,065,071,072,087,088,,,,,,,,1.7,0.8,1.5*1B
$GPGSA,A,3,001,008,010,021,022,027,032,,,,,,1.7,0.8,1.5*07
$GAGSA,A,3,126,133,,,,,,,,,,,1.7,0.8,1.5*2D
$GPRMC,103154.80,A,4444.5544,N,03955.5282,E,000.00000,240.5,110822,,,A*58
$GPGGA,103155.00,4444.5544,N,03955.5282,E,1,15,0.8,00147.5,M,0017.2,M,,*67
$GLGSA,A,3,065,071,072,087,088,,,,,,,,1.6,0.8,1.4*1B
$GPGSA,A,3,001,008,010,021,022,027,032,,,,,,1.6,0.8,1.4*07
$GAGSA,A,3,107,126,133,,,,,,,,,,1.6,0.8,1.4*1B
$GPGSV,7,1,26,001,26,306,34,003,07,258,,008,48,241,38,010,41,062,41*7A
$GPGSV,7,2,26,014,02,319,,021,55,306,35,022,58,159,41,023,11,071,22*76
$GPGSV,7,3,26,024,07,035,21,027,30,194,30,031,00,152,,032,66,099,44*71
$GPGSV,7,4,26,065,41,231,37,071,30,038,41,072,80,359,39,073,00,066,*7B
$GPGSV,7,5,26,087,88,254,39,088,38,323,49,107,34,050,21,110,09,309,*79
$GPGSV,7,6,26,112,34,309,,119,37,201,,124,00,289,,125,00,338,*77
$GPGSV,7,7,26,126,37,127,22,133,88,028,34*74
$GPRMC,103155.00,A,4444.5544,N,03955.5282,E,000.00000,240.5,110822,,,A*51
$GPZDA,103155.00,11,08,2022,+00,00*44
$GPGGA,103155.20,4444.5544,N,03955.5282,E,1,15,0.8,00147.5,M,0017.2,M,,*65
$GLGSA,A,3,065,071,072,087,088,,,,,,,,1.6,0.8,1.4*1B
$GPGSA,A,3,001,008,010,021,022,027,032,,,,,,1.6,0.8,1.4*07
$GAGSA,A,3,107,126,133,,,,,,,,,,1.6,0.8,1.4*1B
$GPRMC,103155.20,A,4444.5544,N,03955.5282,E,000.00000,240.5,110822,,,A*53
$GPGGA,103155.40,4444.5544,N,03955.5282,E,1,14,0.9,00147.5,M,0017.2,M,,*63
$GLGSA,A,3,065,071,072,087,088,,,,,,,,1.7,0.9,1.5*1A
$GPGSA,A,3,001,008,010,021,022,027,032,,,,,,1.7,0.9,1.5*06
$GAGSA,A,3,107,133,,,,,,,,,,,1.7,0.9,1.5*2F
$GPRMC,103155.40,A,4444.5544,N,03955.5282,E,000.00000,240.7,110822,,,A*57
$GPGGA,103155.60,4444.5544,N,03955.5282,E,1,15,0.8,00147.5,M,0017.2,M,,*61
$GLGSA,A,3,065,071,072,087,088,,,,,,,,1.6,0.8,1.4*1B
$GPGSA,A,3,001,008,010,021,022,027,032,,,,,,1.6,0.8,1.4*07
$GAGSA,A,3,107,126,133,,,,,,,,,,1.6,0.8,1.4*1B
$GPRMC,103155.60,A,4444.5544,N,03955.5282,E,000.00000,240.6,110822,,,A*54
$GPGGA,103155.80,4444.5544,N,03955.5282,E,1,14,0.9,00147.5,M,0017.2,M,,*6F
$GLGSA,A,3,065,071,072,087,088,,,,,,,,1.7,0.9,1.5*1A
$GPGSA,A,3,001,008,010,021,022,027,032,,,,,,1.7,0.9,1.5*06
$GAGSA,A,3,107,133,,,,,,,,,,,1.7,0.9,1.5*2F
$GPRMC,103155.80,A,4444.5544,N,03955.5282,E,000.00000,242.7,110822,,,A*59
$GPGGA,103156.00,4444.5544,N,03955.5282,E,1,14,0.9,00147.5,M,0017.2,M,,*64
$GLGSA,A,3,065,071,072,087,088,,,,,,,,1.7,0.9,1.5*1A
$GPGSA,A,3,001,008,010,021,022,027,032,,,,,,1.7,0.9,1.5*06
$GAGSA,A,3,107,133,,,,,,,,,,,1.7,0.9,1.5*2F
$GPGSV,7,1,26,001,26,306,34,003,07,258,,008,48,241,38,010,41,062,41*7A
$GPGSV,7,2,26,014,02,319,,021,55,306,35,022,58,159,41,023,11,071,22*76
$GPGSV,7,3,26,024,07,035,21,027,30,194,30,031,00,152,,032,66,098,44*70
$GPGSV,7,4,26,065,41,232,37,071,30,038,41,072,80,359,39,073,00,066,*78
$GPGSV,7,5,26,087,88,254,39,088,38,323,49,107,34,050,22,110,09,309,*7A
$GPGSV,7,6,26,112,34,309,,119,37,201,,124,00,289,,125,00,338,*77
$GPGSV,7,7,26,126,37,127,21,133,88,028,34*77
$GPRMC,103156.00,A,4444.5544,N,03955.5282,E,000.00000,241.7,110822,,,A*51
$GPZDA,103156.00,11,08,2022,+00,00*47
$GPGGA,103156.20,4444.5544,N,03955.5282,E,1,14,0.8,00147.5,M,0017.2,M,,*67
$GLGSA,A,3,065,071,072,087,088,,,,,,,,1.7,0.8,1.5*1B
$GPGSA,A,3,001,008,010,021,022,027,032,,,,,,1.7,0.8,1.5*07
$GAGSA,A,3,126,133,,,,,,,,,,,1.7,0.8,1.5*2D
$GPRMC,103156.20,A,4444.5544,N,03955.5282,E,000.00000,241.1,110822,,,A*55
$GPGGA,103156.40,4444.5544,N,03955.5282,E,1,14,0.8,00147.5,M,0017.2,M,,*61
$GLGSA,A,3,065,071,072,087,088,,,,,,,,1.7,0.8,1.5*1B
$GPGSA,A,3,001,008,010,021,022,027,032,,,,,,1.7,0.8,1.5*07
$GAGSA,A,3,126,133,,,,,,,,,,,1.7,0.8,1.5*2D
$GPRMC,103156.40,A,4444.5544,N,03955.5282,E,000.00000,240.8,110822,,,A*5B
$GPGGA,103156.60,4444.5544,N,03955.5282,E,1,14,0.8,00147.5,M,0017.2,M,,*63
$GLGSA,A,3,065,071,072,087,088,,,,,,,,1.7,0.8,1.5*1B
$GPGSA,A,3,001,008,010,021,022,027,032,,,,,,1.7,0.8,1.5*07
$GAGSA,A,3,126,133,,,,,,,,,,,1.7,0.8,1.5*2D
$GPRMC,103156.60,A,4444.5544,N,03955.5282,E,000.00000,240.7,110822,,,A*56
$GPGGA,103156.80,4444.5544,N,03955.5282,E,1,15,0.8,00147.5,M,0017.2,M,,*6C
$GLGSA,A,3,065,071,072,087,088,,,,,,,,1.6,0.8,1.4*1B
$GPGSA,A,3,001,008,010,021,022,027,032,,,,,,1.6,0.8,1.4*07
$GAGSA,A,3,107,126,133,,,,,,,,,,1.6,0.8,1.4*1B
$GPRMC,103156.80,A,4444.5544,N,03955.5282,E,000.00000,240.6,110822,,,A*59
$GPGGA,103157.00,4444.5544,N,03955.5282,E,1,15,0.8,00147.5,M,0017.2,M,,*65
$GLGSA,A,3,065,071,072,087,088,,,,,,,,1.6,0.8,1.4*1B
$GPGSA,A,3,001,008,010,021,022,027,032,,,,,,1.6,0.8,1.4*07
$GAGSA,A,3,107,126,133,,,,,,,,,,1.6,0.8,1.4*1B
$GPGSV,7,1,26,001,26,306,34,003,07,258,,008,48,241,38,010,41,062,41*7A
$GPGSV,7,2,26,014,02,319,,021,55,306,35,022,58,159,41,023,11,071,22*76
$GPGSV,7,3,26,024,07,035,20,027,30,194,30,031,00,152,,032,66,098,44*71
$GPGSV,7,4,26,065,41,232,38,071,30,038,41,072,80,359,40,073,00,066,*79
$GPGSV,7,5,26,087,88,254,39,088,38,323,49,107,34,050,22,110,09,309,*7A
$GPGSV,7,6,26,112,34,309,,119,37,201,,124,00,289,,125,00,338,*77
$GPGSV,7,7,26,126,37,127,22,133,88,028,34*74
$GPRMC,103157.00,A,4444.5544,N,03955.5282,E,000.00000,240.5,110822,,,A*53
$GPZDA,103157.00,11,08,2022,+00,00*46
$GPGGA,103157.20,4444.5544,N,03955.5282,E,1,14,0.8,00147.5,M,0017.2,M,,*66
$GLGSA,A,3,065,071,072,087,088,,,,,,,,1.7,0.8,1.5*1B
$GPGSA,A,3,001,008,010,021,022,027,032,,,,,,1.7,0.8,1.5*07
$GAGSA,A,3,126,133,,,,,,,,,,,1.7,0.8,1.5*2D
$GPRMC,103157.20,A,4444.5544,N,03955.5282,E,000.00000,240.5,110822,,,A*51
$GPGGA,103157.40,4444.5544,N,03955.5282,E,1,15,0.8,00147.5,M,0017.2,M,,*61
$GLGSA,A,3,065,071,072,087,088,,,,,,,,1.6,0.8,1.4*1B
$GPGSA,A,3,001,008,010,021,022,027,032,,,,,,1.6,0.8,1.4*07
$GAGSA,A,3,107,126,133,,,,,,,,,,1.6,0.8,1.4*1B
$GPRMC,103157.40,A,4444.5544,N,03955.5282,E,000.00000,240.5,110822,,,A*57
$GPGGA,103157.60,4444.5544,N,03955.5282,E,1,13,0.9,00147.5,M,0017.2,M,,*64
$GLGSA,A,3,065,071,072,087,088,,,,,,,,1.8,0.9,1.5*15
$GPGSA,A,3,001,008,010,021,022,027,032,,,,,,1.8,0.9,1.5*09
$GAGSA,A,3,133,,,,,,,,,,,,1.8,0.9,1.5*16
$GPRMC,103157.60,A,4444.5544,N,03955.5282,E,000.00000,240.5,110822,,,A*55
$GPGGA,103157.80,4444.5544,N,03955.5282,E,1,14,0.8,00147.5,M,0017.2,M,,*6C
$GLGSA,A,3,065,071,072,087,088,,,,,,,,1.7,0.8,1.5*1B
$GPGSA,A,3,001,008,010,021,022,027,032,,,,,,1.7,0.8,1.5*07
$GAGSA,A,3,126,133,,,,,,,,,,,1.7,0.8,1.5*2D
$GPRMC,103157.80,A,4444.5544,N,03955.5282,E,000.00000,240.5,110822,,,A*5B
$GPGGA,103158.00,4444.5544,N,03955.5282,E,1,15,0.8,00147.5,M,0017.2,M,,*6A
$GLGSA,A,3,065,071,072,087,088,,,,,,,,1.6,0.8,1.4*1B
$GPGSA,A,3,001,008,010,021,022,027,032,,,,,,1.6,0.8,1.4*07
$GAGSA,A,3,107,126,133,,,,,,,,,,1.6,0.8,1.4*1B
$GPGSV,7,1,26,001,26,306,34,003,07,258,,008,48,241,38,010,41,062,41*7A
$GPGSV,7,2,26,014,02,319,,021,55,306,35,022,58,159,41,023,11,071,22*76
$GPGSV,7,3,26,024,07,035,20,027,30,194,30,031,00,152,,032,66,098,44*71
$GPGSV,7,4,26,065,41,232,38,071,30,038,42,072,80,359,40,073,00,066,*7A
$GPGSV,7,5,26,087,88,253,39,088,38,323,49,107,34,050,22,110,09,309,*7D
$GPGSV,7,6,26,112,34,309,,119,37,201,,124,00,289,,125,00,338,*77
$GPGSV,7,7,26,126,37,127,22,133,88,028,34*74
$GPRMC,103158.00,A,4444.5544,N,03955.5282,E,000.00000,240.5,110822,,,A*5C
$GPZDA,103158.00,11,08,2022,+00,00*49
$GPGGA,103158.20,4444.5544,N,03955.5282,E,1,15,0.8,00147.5,M,0017.2,M,,*68
$GLGSA,A,3,065,071,072,087,088,,,,,,,,1.6,0.8,1.4*1B
$GPGSA,A,3,001,008,010,021,022,027,032,,,,,,1.6,0.8,1.4*07
$GAGSA,A,3,107,126,133,,,,,,,,,,1.6,0.8,1.4*1B
$GPRMC,103158.20,A,4444.5544,N,03955.5282,E,000.00000,240.5,110822,,,A*5E
$GPGGA,103158.40,4444.5544,N,03955.5282,E,1,15,0.8,00147.5,M,0017.2,M,,*6E
$GLGSA,A,3,065,071,072,087,088,,,,,,,,1.6,0.8,1.4*1B
$GPGSA,A,3,001,008,010,021,022,027,032,,,,,,1.6,0.8,1.4*07
$GAGSA,A,3,107,126,133,,,,,,,,,,1.6,0.8,1.4*1B
$GPRMC,103158.40,A,4444.5544,N,03955.5282,E,000.00000,240.5,110822,,,A*58
$GPGGA,103158.60,4444.5544,N,03955.5282,E,1,15,0.8,00147.5,M,0017.2,M,,*6C
$GLGSA,A,3,065,071,072,087,088,,,,,,,,1.6,0.8,1.4*1B
$GPGSA,A,3,001,008,010,021,022,027,032,,,,,,1.6,0.8,1.4*07
$GAGSA,A,3,107,126,133,,,,,,,,,,1.6,0.8,1.4*1B
$GPRMC,103158.60,A,4444.5544,N,03955.5282,E,000.00000,240.5,110822,,,A*5A
$GPGGA,103158.80,4444.5544,N,03955.5282,E,1,15,0.8,00147.5,M,0017.2,M,,*62
$GLGSA,A,3,065,071,072,087,088,,,,,,,,1.6,0.8,1.4*1B
$GPGSA,A,3,001,008,010,021,022,027,032,,,,,,1.6,0.8,1.4*07
$GAGSA,A,3,107,126,133,,,,,,,,,,1.6,0.8,1.4*1B
$GPRMC,103158.80,A,4444.5544,N,03955.5282,E,000.00000,240.5,110822,,,A*54
$GPGGA,103159.00,4444.5544,N,03955.5282,E,1,15,0.8,00147.5,M,0017.2,M,,*6B
$GLGSA,A,3,065,071,072,087,088,,,,,,,,1.6,0.8,1.4*1B
$GPGSA,A,3,001,008,010,021,022,027,032,,,,,,1.6,0.8,1.4*07
$GAGSA,A,3,107,126,133,,,,,,,,,,1.6,0.8,1.4*1B
$GPGSV,7,1,26,001,26,306,33,003,07,258,,008,48,241,37,010,41,062,41*72
$GPGSV,7,2,26,014,02,319,,021,55,306,35,022,58,159,41,023,11,071,22*76
$GPGSV,7,3,26,024,07,035,20,027,30,194,31,031,00,152,,032,66,098,44*70
$GPGSV,7,4,26,065,41,232,38,071,30,038,42,072,80,359,40,073,00,066,*7A
$GPGSV,7,5,26,087,88,253,39,088,38,323,49,107,34,050,22,110,09,309,*7D
$GPGSV,7,6,26,112,34,309,,119,37,201,,124,00,289,,125,00,338,*77
$GPGSV,7,7,26,126,37,127,22,133,88,029,34*75
$GPRMC,103159.00,A,4444.5544,N,03955.5282,E,000.00000,240.5,110822,,,A*5D
$GPZDA,103159.00,11,08,2022,+00,00*48
$GPGGA,103159.20,4444.5544,N,03955.5282,E,1,15,0.8,00147.5,M,0017.2,M,,*69
$GLGSA,A,3,065,071,072,087,088,,,,,,,,1.6,0.8,1.4*1B
$GPGSA,A,3,001,008,010,021,022,027,032,,,,,,1.6,0.8,1.4*07
$GAGSA,A,3,107,126,133,,,,,,,,,,1.6,0.8,1.4*1B
$GPRMC,103159.20,A,4444.5544,N,03955.5282,E,000.00000,240.5,110822,,,A*5F
$GPGGA,103159.40,4444.5544,N,03955.5282,E,1,14,0.8,00147.5,M,0017.2,M,,*6E
$GLGSA,A,3,065,071,072,087,088,,,,,,,,1.7,0.8,1.5*1B
$GPGSA,A,3,001,008,010,021,022,027,032,,,,,,1.7,0.8,1.5*07
$GAGSA,A,3,126,133,,,,,,,,,,,1.7,0.8,1.5*2D
$GPRMC,103159.40,A,4444.5544,N,03955.5282,E,000.00000,240.5,110822,,,A*59
$GPGGA,103159.60,4444.5544,N,03955.5282,E,1,14,0.8,00147.5,M,0017.2,M,,*6C
$GLGSA,A,3,065,071,072,087,088,,,,,,,,1.7,0.8,1.5*1B
$GPGSA,A,3,001,008,010,021,022,027,032,,,,,,1.7,0.8,1.5*07
$GAGSA,A,3,126,133,,,,,,,,,,,1.7,0.8,1.5*2D
$GPRMC,103159.60,A,4444.5544,N,03955.5282,E,000.00000,240.5,110822,,,A*5B
$GPGGA,103159.80,4444.5544,N,03955.5282,E,1,14,0.8,00147.5,M,0017.2,M,,*62
$GLGSA,A,3,065,071,072,087,088,,,,,,,,1.7,0.8,1.5*1B
$GPGSA,A,3,001,008,010,021,022,027,032,,,,,,1.7,0.8,1.5*07
$GAGSA,A,3,126,133,,,,,,,,,,,1.7,0.8,1.5*2D
$GPRMC,103159.80,A,4444.5544,N,03955.5282,E,000.00000,240.5,110822,,,A*55
$GPGGA,103200.00,4444.5544,N,03955.5282,E,1,15,0.8,00147.5,M,0017.2,M,,*64
$GLGSA,A,3,065,071,072,087,088,,,,,,,,1.6,0.8,1.4*1B
$GPGSA,A,3,001,008,010,021,022,027,032,,,,,,1.6,0.8,1.4*07
$GAGSA,A,3,107,126,133,,,,,,,,,,1.6,0.8,1.4*1B
$GPGSV,7,1,26,001,26,306,34,003,07,258,,008,48,241,37,010,41,062,41*75
$GPGSV,7,2,26,014,02,319,,021,55,306,35,022,58,159,41,023,11,071,22*76
$GPGSV,7,3,26,024,07,035,21,027,30,194,31,031,00,152,,032,66,098,44*71
$GPGSV,7,4,26,065,41,232,38,071,30,038,42,072,80,359,40,073,00,066,*7A
$GPGSV,7,5,26,087,88,253,39,088,38,323,49,107,34,050,22,110,09,309,*7D
$GPGSV,7,6,26,112,34,309,,119,37,201,,124,00,289,,125,00,338,*77
$GPGSV,7,7,26,126,37,127,22,133,88,029,34*75
$GPRMC,103200.00,A,4444.5544,N,03955.5282,E,000.00000,240.5,110822,,,A*52
$GPZDA,103200.00,11,08,2022,+00,00*47
$GPGGA,103200.20,4444.5544,N,03955.5282,E,1,15,0.8,00147.5,M,0017.2,M,,*66
$GLGSA,A,3,065,071,072,087,088,,,,,,,,1.6,0.8,1.4*1B
$GPGSA,A,3,001,008,010,021,022,027,032,,,,,,1.6,0.8,1.4*07
$GAGSA,A,3,107,126,133,,,,,,,,,,1.6,0.8,1.4*1B
$GPRMC,103200.20,A,4444.5544,N,03955.5282,E,000.00000,240.5,110822,,,A*50
$GPGGA,103200.40,4444.5544,N,03955.5282,E,1,15,0.8,00147.5,M,0017.2,M,,*60
$GLGSA,A,3,065,071,072,087,088,,,,,,,,1.6,0.8,1.4*1B
$GPGSA,A,3,001,008,010,021,022,027,032,,,,,,1.6,0.8,1.4*07
$GAGSA,A,3,107,126,133,,,,,,,,,,1.6,0.8,1.4*1B
$GPRMC,103200.40,A,4444.5544,N,03955.5282,E,000.00000,240.5,110822,,,A*56
$GPGGA,103200.60,4444.5544,N,03955.5282,E,1,15,0.8,00147.5,M,0017.2,M,,*62
$GLGSA,A,3,065,071,072,087,088,,,,,,,,1.6,0.8,1.4*1B
$GPGSA,A,3,001,008,010,021,022,027,032,,,,,,1.6,0.8,1.4*07
$GAGSA,A,3,107,126,133,,,,,,,,,,1.6,0.8,1.4*1B
$GPRMC,103200.60,A,4444.5544,N,03955.5282,E,000.00000,240.5,110822,,,A*54
$GPGGA,103200.80,4444.5544,N,03955.5282,E,1,14,0.9,00147.5,M,0017.2,M,,*6C
$GLGSA,A,3,065,071,072,087,088,,,,,,,,1.7,0.9,1.5*1A
$GPGSA,A,3,001,008,010,021,022,027,032,,,,,,1.7,0.9,1.5*06
$GAGSA,A,3,107,133,,,,,,,,,,,1.7,0.9,1.5*2F
$GPRMC,103200.80,A,4444.5544,N,03955.5282,E,000.00000,241.9,110822,,,A*57
$GPGGA,103201.00,4444.5544,N,03955.5282,E,1,14,0.9,00147.5,M,0017.2,M,,*65
$GLGSA,A,3,065,071,072,087,088,,,,,,,,1.7,0.9,1.5*1A
$GPGSA,A,3,001,008,010,021,022,027,032,,,,,,1.7,0.9,1.5*06
$GAGSA,A,3,107,133,,,,,,,,,,,1.7,0.9,1.5*2F
$GPGSV,7,1,26,001,26,306,33,003,07,258,,008,48,241,37,010,41,062,41*72
$GPGSV,7,2,26,014,02,319,,021,55,306,35,022,58,159,41,023,11,071,22*76
$GPGSV,7,3,26,024,07,035,20,027,30,194,31,031,00,152,,032,66,098,44*70
$GPGSV,7,4,26,065,41,232,39,071,30,038,42,072,80,359,40,073,00,066,*7B
$GPGSV,7,5,26,087,88,252,39,088,38,323,49,107,34,050,22,110,09,309,*7C
$GPGSV,7,6,26,112,34,309,,119,37,201,,124,00,289,,125,00,338,*77
$GPGSV,7,7,26,126,37,127,22,133,88,029,34*75
$GPRMC,103201.00,A,4444.5544,N,03955.5282,E,000.00000,251.9,110822,,,A*5F
$GPZDA,103201.00,11,08,2022,+00,00*46
$GPGGA,103201.20,4444.5544,N,03955.5282,E,1,15,0.8,00147.5,M,0017.2,M,,*67
$GLGSA,A,3,065,071,072,087,088,,,,,,,,1.6,0.8,1.4*1B
$GPGSA,A,3,001,008,010,021,022,027,032,,,,,,1.6,0.8,1.4*07
$GAGSA,A,3,107,126,133,,,,,,,,,,1.6,0.8,1.4*1B
$GPRMC,103201.20,A,4444.5544,N,03955.5282,E,000.00000,255.4,110822,,,A*54
$GPGGA,103201.40,4444.5544,N,03955.5282,E,1,15,0.8,00147.5,M,0017.2,M,,*61
$GLGSA,A,3,065,071,072,087,088,,,,,,,,1.6,0.8,1.4*1B
$GPGSA,A,3,001,008,010,021,022,027,032,,,,,,1.6,0.8,1.4*07
$GAGSA,A,3,107,126,133,,,,,,,,,,1.6,0.8,1.4*1B
$GPRMC,103201.40,A,4444.5544,N,03955.5282,E,000.00000,253.6,110822,,,A*56
$GPGGA,103201.60,4444.5544,N,03955.5282,E,1,15,0.8,00147.5,M,0017.2,M,,*63
$GLGSA,A,3,065,071,072,087,088,,,,,,,,1.6,0.8,1.4*1B
$GPGSA,A,3,001,008,010,021,022,027,032,,,,,,1.6,0.8,1.4*07
$GAGSA,A,3,107,126,133,,,,,,,,,,1.6,0.8,1.4*1B
$GPRMC,103201.60,A,4444.5544,N,03955.5282,E,000.00000,253.7,110822,,,A*55
$GPGGA,103201.80,4444.5544,N,03955.5282,E,1,15,0.8,00147.5,M,0017.2,M,,*6D
$GLGSA,A,3,065,071,072,087,088,,,,,,,,1.6,0.8,1.4*1B
$GPGSA,A,3,001,008,010,021,022,027,032,,,,,,1.6,0.8,1.4*07
$GAGSA,A,3,107,126,133,,,,,,,,,,1.6,0.8,1.4*1B
$GPRMC,103201.80,A,4444.5544,N,03955.5282,E,000.00000,264.6,110822,,,A*5E
$GPGGA,103202.00,4444.5544,N,03955.5282,E,1,15,0.8,00147.5,M,0017.2,M,,*66
$GLGSA,A,3,065,071,072,087,088,,,,,,,,1.6,0.8,1.4*1B
$GPGSA,A,3,001,008,010,021,022,027,032,,,,,,1.6,0.8,1.4*07
$GAGSA,A,3,107,126,133,,,,,,,,,,1.6,0.8,1.4*1B
$GPGSV,7,1,26,001,26,306,33,003,07,258,,008,47,241,37,010,41,062,41*7D
$GPGSV,7,2,26,014,02,319,,021,55,306,35,022,58,159,41,023,11,071,22*76
$GPGSV,7,3,26,024,07,035,21,027,30,194,32,031,00,152,,032,66,098,44*72
$GPGSV,7,4,26,065,41,232,39,071,30,039,42,072,80,359,41,073,00,066,*7B
$GPGSV,7,5,26,087,88,252,40,088,38,323,49,107,34,050,22,110,09,309,*72
$GPGSV,7,6,26,112,34,309,,119,37,201,,124,00,289,,125,00,338,*77
$GPGSV,7,7,26,126,37,127,23,133,88,029,34*74
$GPRMC,103202.00,A,4444.5544,N,03955.5282,E,000.00000,267.0,110822,,,A*50
$GPZDA,103202.00,11,08,2022,+00,00*45
$GPGGA,103202.20,4444.5544,N,03955.5282,E,1,14,0.9,00147.5,M,0017.2,M,,*64
$GLGSA,A,3,065,071,072,087,088,,,,,,,,1.7,0.9,1.5*1A
$GPGSA,A,3,001,008,010,021,022,027,032,,,,,,1.7,0.9,1.5*06
$GAGSA,A,3,107,133,,,,,,,,,,,1.7,0.9,1.5*2F
$GPRMC,103202.20,A,4444.5544,N,03955.5282,E,000.00000,278.2,110822,,,A*5E
$GPGGA,103202.40,4444.5544,N,03955.5282,E,1,14,0.8,00147.5,M,0017.2,M,,*63
$GLGSA,A,3,065,071,072,087,088,,,,,,,,1.7,0.8,1.5*1B
$GPGSA,A,3,001,008,010,021,022,027,032,,,,,,1.7,0.8,1.5*07
$GAGSA,A,3,126,133,,,,,,,,,,,1.7,0.8,1.5*2D
$GPRMC,103202.40,A,4444.5544,N,03955.5282,E,000.00000,263.1,110822,,,A*51
$GPGGA,103202.60,4444.5544,N,03955.5282,E,1,15,0.8,00147.5,M,0017.2,M,,*60
$GLGSA,A,3,065,071,072,087,088,,,,,,,,1.6,0.8,1.4*1B
$GPGSA,A,3,001,008,010,021,022,027,032,,,,,,1.6,0.8,1.4*07
$GAGSA,A,3,107,126,133,,,,,,,,,,1.6,0.8,1.4*1B
$GPRMC,103202.60,A,4444.5544,N,03955.5282,E,000.00000,289.6,110822,,,A*50
$GPGGA,103202.80,4444.5544,N,03955.5282,E,1,15,0.8,00147.5,M,0017.2,M,,*6E
$GLGSA,A,3,065,071,072,087,088,,,,,,,,1.6,0.8,1.4*1B
$GPGSA,A,3,001,008,010,021,022,027,032,,,,,,1.6,0.8,1.4*07
$GAGSA,A,3,107,126,133,,,,,,,,,,1.6,0.8,1.4*1B
$GPRMC,103202.80,A,4444.5544,N,03955.5282,E,000.00000,282.8,110822,,,A*5B
$GPGGA,103203.00,4444.5544,N,03955.5282,E,1,15,0.8,00147.5,M,0017.2,M,,*67
$GLGSA,A,3,065,071,072,087,088,,,,,,,,1.6,0.8,1.4*1B
$GPGSA,A,3,001,008,010,021,022,027,032,,,,,,1.6,0.8,1.4*07
$GAGSA,A,3,107,126,133,,,,,,,,,,1.6,0.8,1.4*1B
$GPGSV,7,1,26,001,26,306,34,003,07,258,,008,47,241,38,010,41,062,41*75
$GPGSV,7,2,26,014,02,319,,021,55,306,35,022,58,159,42,023,11,071,21*76
$GPGSV,7,3,26,024,07,035,20,027,30,194,32,031,00,152,,032,66,098,44*73
$GPGSV,7,4,26,065,41,232,39,071,30,039,42,072,80,359,41,073,00,066,*7B
$GPGSV,7,5,26,087,88,252,40,088,38,323,49,107,34,050,22,110,09,309,*72
$GPGSV,7,6,26,112,34,309,,119,37,201,,124,00,289,,125,00,337,*78
$GPGSV,7,7,26,126,37,127,22,133,88,030,34*7D
$GPRMC,103203.00,A,4444.5544,N,03955.5282,E,000.00000,276.6,110822,,,A*57
$GPZDA,103203.00,11,08,2022,+00,00*44
$GPGGA,103203.20,4444.5544,N,03955.5282,E,1,15,0.8,00147.5,M,0017.2,M,,*65
$GLGSA,A,3,065,071,072,087,088,,,,,,,,1.6,0.8,1.4*1B
$GPGSA,A,3,001,008,010,021,022,027,032,,,,,,1.6,0.8,1.4*07
$GAGSA,A,3,107,126,133,,,,,,,,,,1.6,0.8,1.4*1B
$GPRMC,103203.20,A,4444.5544,N,03955.5282,E,000.00000,272.3,110822,,,A*54
$GPGGA,103203.40,4444.5544,N,03955.5282,E,1,14,0.9,00147.5,M,0017.2,M,,*63
$GLGSA,A,3,065,071,072,087,088,,,,,,,,1.7,0.9,1.5*1A
$GPGSA,A,3,001,008,010,021,022,027,032,,,,,,1.7,0.9,1.5*06
$GAGSA,A,3,107,133,,,,,,,,,,,1.7,0.9,1.5*2F
$GPRMC,103203.40,A,4444.5544,N,03955.5282,E,000.00000,295.1,110822,,,A*59
$GPGGA,103203.60,4444.5544,N,03955.5282,E,1,15,0.8,00147.5,M,0017.2,M,,*61
$GLGSA,A,3,065,071,072,087,088,,,,,,,,1.6,0.8,1.4*1B
$GPGSA,A,3,001,008,010,021,022,027,032,,,,,,1.6,0.8,1.4*07
$GAGSA,A,3,107,126,133,,,,,,,,,,1.6,0.8,1.4*1B
$GPRMC,103203.60,A,4444.5544,N,03955.5282,E,000.00000,286.2,110822,,,A*5A
$GPGGA,103203.80,4444.5544,N,03955.5282,E,1,15,0.8,00147.5,M,0017.2,M,,*6F
$GLGSA,A,3,065,071,072,087,088,,,,,,,,1.6,0.8,1.4*1B
$GPGSA,A,3,001,008,010,021,022,027,032,,,,,,1.6,0.8,1.4*07
$GAGSA,A,3,107,126,133,,,,,,,,,,1.6,0.8,1.4*1B
$GPRMC,103203.80,A,4444.5544,N,03955.5282,E,000.00000,304.0,110822,,,A*5D
$GPGGA,103204.00,4444.5544,N,03955.5282,E,1,15,0.8,00147.5,M,0017.2,M,,*60
$GLGSA,A,3,065,071,072,087,088,,,,,,,,1.6,0.8,1.4*1B
$GPGSA,A,3,001,008,010,021,022,027,032,,,,,,1.6,0.8,1.4*07
$GAGSA,A,3,107,126,133,,,,,,,,,,1.6,0.8,1.4*1B
$GPGSV,7,1,26,001,26,306,33,003,07,258,,008,47,241,38,010,41,062,41*72
$GPGSV,7,2,26,014,02,319,,021,55,306,35,022,58,159,42,023,11,071,22*75
$GPGSV,7,3,26,024,07,035,20,027,30,194,32,031,00,152,,032,66,098,44*73
$GPGSV,7,4,26,065,41,232,39,071,30,039,42,072,80,359,41,073,00,066,*7B
$GPGSV,7,5,26,087,88,252,40,088,38,323,49,107,34,050,23,110,09,309,*73
$GPGSV,7,6,26,112,34,309,,119,37,201,,124,00,289,,125,00,337,*78
$GPGSV,7,7,26,126,37,127,22,133,88,030,34*7D
$GPRMC,103204.00,A,4444.5544,N,03955.5282,E,000.00000,292.3,110822,,,A*5F
$GPZDA,103204.00,11,08,2022,+00,00*43
$GPGGA,103204.20,4444.5544,N,03955.5282,E,1,14,0.8,00147.5,M,0017.2,M,,*63
$GLGSA,A,3,065,071,072,087,088,,,,,,,,1.7,0.8,1.5*1B
$GPGSA,A,3,001,008,010,021,022,027,032,,,,,,1.7,0.8,1.5*07
$GAGSA,A,3,126,133,,,,,,,,,,,1.7,0.8,1.5*2D
$GPRMC,103204.20,A,4444.5544,N,03955.5282,E,000.00000,284.6,110822,,,A*5F
$GPGGA,103204.40,4444.5544,N,03955.5282,E,1,15,0.8,00147.5,M,0017.2,M,,*64
$GLGSA,A,3,065,071,072,087,088,,,,,,,,1.6,0.8,1.4*1B
$GPGSA,A,3,001,008,010,021,022,027,032,,,,,,1.6,0.8,1.4*07
$GAGSA,A,3,107,126,133,,,,,,,,,,1.6,0.8,1.4*1B
$GPRMC,103204.40,A,4444.5544,N,03955.5282,E,000.00000,298.6,110822,,,A*54
$GPGGA,103204.60,4444.5544,N,03955.5282,E,1,15,0.8,00147.5,M,0017.2,M,,*66
$GLGSA,A,3,065,071,072,087,088,,,,,,,,1.6,0.8,1.4*1B
$GPGSA,A,3,001,008,010,021,022,027,032,,,,,,1.6,0.8,1.4*07
$GAGSA,A,3,107,126,133,,,,,,,,,,1.6,0.8,1.4*1B
$GPRMC,103204.60,A,4444.5544,N,03955.5282,E,000.00000,308.9,110822,,,A*51
$GPGGA,103204.80,4444.5544,N,03955.5282,E,1,15,0.8,00147.5,M,0017.2,M,,*68
$GLGSA,A,3,065,071,072,087,088,,,,,,,,1.6,0.8,1.4*1B
$GPGSA,A,3,001,008,010,021,022,027,032,,,,,,1.6,0.8,1.4*07
