$GPGGA,104925.20,4444.5391,N,03955.5416,E,1,16,0.8,00143.6,M,0017.1,M,,*6F
$GLGSA,A,3,065,071,072,087,088,,,,,,,,1.4,0.8,1.1*1C
$GPGSA,A,3,001,003,008,010,021,022,027,032,,,,,1.4,0.8,1.1*33
$GAGSA,A,3,107,119,133,,,,,,,,,,1.4,0.8,1.1*10
$GPRMC,104925.20,A,4444.5391,N,03955.5416,E,000.00000,293.8,110822,,,A*5D
$GPGGA,104925.40,4444.5391,N,03955.5416,E,1,17,0.7,00143.6,M,0017.1,M,,*67
$GLGSA,A,3,065,071,072,087,088,,,,,,,,1.3,0.7,1.1*14
$GPGSA,A,3,001,003,008,010,021,022,027,032,,,,,1.3,0.7,1.1*3B
$GAGSA,A,3,107,119,126,133,,,,,,,,,1.3,0.7,1.1*2D
$GPRMC,104925.40,A,4444.5391,N,03955.5416,E,000.00000,293.8,110822,,,A*5B
$GPGGA,104925.60,4444.5391,N,03955.5416,E,1,16,0.8,00143.6,M,0017.1,M,,*6B
$GLGSA,A,3,065,071,072,087,088,,,,,,,,1.4,0.8,1.1*1C
$GPGSA,A,3,001,003,008,010,021,022,027,032,,,,,1.4,0.8,1.1*33
$GAGSA,A,3,107,119,133,,,,,,,,,,1.4,0.8,1.1*10
$GPRMC,104925.60,A,4444.5391,N,03955.5416,E,000.00000,293.8,110822,,,A*59
$GPGGA,104925.80,4444.5391,N,03955.5416,E,1,17,0.7,00143.6,M,0017.1,M,,*6B
$GLGSA,A,3,065,071,072,087,088,,,,,,,,1.3,0.7,1.1*14
$GPGSA,A,3,001,003,008,010,021,022,027,032,,,,,1.3,0.7,1.1*3B
$GAGSA,A,3,107,119,126,133,,,,,,,,,1.3,0.7,1.1*2D
$GPRMC,104925.80,A,4444.5391,N,03955.5416,E,000.00000,293.8,110822,,,A*57
$GPGGA,104926.00,4444.5391,N,03955.5416,E,1,15,0.8,00143.6,M,0017.1,M,,*6D
$GLGSA,A,3,065,071,072,087,088,,,,,,,,1.4,0.8,1.1*1C
$GPGSA,A,3,001,003,008,010,021,022,027,032,,,,,1.4,0.8,1.1*33
$GAGSA,A,3,119,133,,,,,,,,,,,1.4,0.8,1.1*26
$GPGSV,6,1,24,001,34,308,33,003,12,263,26,008,42,232,38,010,34,067,43*70
$GPGSV,6,2,24,014,01,312,,021,62,304,39,022,66,149,42,023,05,076,23*7B
$GPGSV,6,3,24,024,03,029,,027,22,192,33,031,06,148,,032,64,079,45*7E
$GPGSV,6,4,24,065,49,240,43,071,22,041,34,072,71,016,41,073,04,059,24*7D
$GPGSV,6,5,24,087,78,178,47,088,47,321,44,107,29,048,28,110,14,311,*7F
$GPGSV,6,6,24,112,39,310,,119,44,204,30,126,31,132,21,133,83,143,37*75
$GPRMC,104926.00,A,4444.5391,N,03955.5416,E,000.00000,293.8,110822,,,A*5C
$GPZDA,104926.00,11,08,2022,+00,00*4F
$GPGGA,104926.20,4444.5391,N,03955.5416,E,1,17,0.7,00143.6,M,0017.1,M,,*62
$GLGSA,A,3,065,071,072,087,088,,,,,,,,1.3,0.7,1.1*14
$GPGSA,A,3,001,003,008,010,021,022,027,032,,,,,1.3,0.7,1.1*3B
$GAGSA,A,3,107,119,126,133,,,,,,,,,1.3,0.7,1.1*2D
$GPRMC,104926.20,A,4444.5391,N,03955.5416,E,000.00000,293.8,110822,,,A*5E
$GPGGA,104926.40,4444.5391,N,03955.5416,E,1,17,0.7,00143.6,M,0017.1,M,,*64
$GLGSA,A,3,065,071,072,087,088,,,,,,,,1.3,0.7,1.1*14
$GPGSA,A,3,001,003,008,010,021,022,027,032,,,,,1.3,0.7,1.1*3B
$GAGSA,A,3,107,119,126,133,,,,,,,,,1.3,0.7,1.1*2D
$GPRMC,104926.40,A,4444.5391,N,03955.5416,E,000.00000,293.8,110822,,,A*58
$GPGGA,104926.60,4444.5391,N,03955.5416,E,1,17,0.7,00143.6,M,0017.1,M,,*66
$GLGSA,A,3,065,071,072,087,088,,,,,,,,1.3,0.7,1.1*14
$GPGSA,A,3,001,003,008,010,021,022,027,032,,,,,1.3,0.7,1.1*3B
$GAGSA,A,3,107,119,126,133,,,,,,,,,1.3,0.7,1.1*2D
$GPRMC,104926.60,A,4444.5391,N,03955.5416,E,000.00000,293.8,110822,,,A*5A
$GPGGA,104926.80,4444.5391,N,03955.5416,E,1,16,0.8,00143.6,M,0017.1,M,,*66
$GLGSA,A,3,065,071,072,087,088,,,,,,,,1.4,0.8,1.1*1C
$GPGSA,A,3,001,003,008,010,021,022,027,032,,,,,1.4,0.8,1.1*33
$GAGSA,A,3,107,119,133,,,,,,,,,,1.4,0.8,1.1*10
$GPRMC,104926.80,A,4444.5391,N,03955.5416,E,000.00000,293.8,110822,,,A*54
$GPGGA,104927.00,4444.5391,N,03955.5416,E,1,17,0.7,00143.6,M,0017.1,M,,*61
$GLGSA,A,3,065,071,072,087,088,,,,,,,,1.3,0.7,1.1*14
$GPGSA,A,3,001,003,008,010,021,022,027,032,,,,,1.3,0.7,1.1*3B
$GAGSA,A,3,107,119,126,133,,,,,,,,,1.3,0.7,1.1*2D
$GPGSV,6,1,24,001,34,308,32,003,12,263,27,008,42,232,39,010,34,067,43*71
$GPGSV,6,2,24,014,01,312,,021,62,304,39,022,66,149,42,023,05,076,22*7A
$GPGSV,6,3,24,024,03,029,,027,22,192,32,031,06,148,,032,64,079,45*7F
$GPGSV,6,4,24,065,49,240,43,071,22,041,35,072,71,016,41,073,04,059,24*7C
$GPGSV,6,5,24,087,78,178,47,088,47,321,43,107,29,048,28,110,14,311,*78
$GPGSV,6,6,24,112,39,310,,119,44,204,30,126,31,132,20,133,83,143,37*74
$GPRMC,104927.00,A,4444.5391,N,03955.5416,E,000.00000,293.8,110822,,,A*5D
$GPZDA,104927.00,11,08,2022,+00,00*4E
$GPGGA,104927.20,4444.5391,N,03955.5416,E,1,17,0.7,00143.6,M,0017.1,M,,*63
$GLGSA,A,3,065,071,072,087,088,,,,,,,,1.3,0.7,1.1*14
$GPGSA,A,3,001,003,008,010,021,022,027,032,,,,,1.3,0.7,1.1*3B
$GAGSA,A,3,107,119,126,133,,,,,,,,,1.3,0.7,1.1*2D
$GPRMC,104927.20,A,4444.5391,N,03955.5416,E,000.00000,293.8,110822,,,A*5F
$GPGGA,104927.40,4444.5391,N,03955.5416,E,1,17,0.7,00143.6,M,0017.1,M,,*65
$GLGSA,A,3,065,071,072,087,088,,,,,,,,1.3,0.7,1.1*14
$GPGSA,A,3,001,003,008,010,021,022,027,032,,,,,1.3,0.7,1.1*3B
$GAGSA,A,3,107,119,126,133,,,,,,,,,1.3,0.7,1.1*2D
$GPRMC,104927.40,A,4444.5391,N,03955.5416,E,000.00000,293.8,110822,,,A*59
$GPGGA,104927.60,4444.5391,N,03955.5416,E,1,17,0.7,00143.6,M,0017.1,M,,*67
$GLGSA,A,3,065,071,072,087,088,,,,,,,,1.3,0.7,1.1*14
$GPGSA,A,3,001,003,008,010,021,022,027,032,,,,,1.3,0.7,1.1*3B
$GAGSA,A,3,107,119,126,133,,,,,,,,,1.3,0.7,1.1*2D
$GPRMC,104927.60,A,4444.5391,N,03955.5416,E,000.00000,293.8,110822,,,A*5B
$GPGGA,104927.80,4444.5391,N,03955.5416,E,1,16,0.8,00143.6,M,0017.1,M,,*67
$GLGSA,A,3,065,071,072,087,088,,,,,,,,1.4,0.8,1.1*1C
$GPGSA,A,3,001,003,008,010,021,022,027,032,,,,,1.4,0.8,1.1*33
$GAGSA,A,3,107,119,133,,,,,,,,,,1.4,0.8,1.1*10
$GPRMC,104927.80,A,4444.5391,N,03955.5416,E,000.00000,293.8,110822,,,A*55
$GPGGA,104928.00,4444.5391,N,03955.5416,E,1,17,0.7,00143.6,M,0017.1,M,,*6E
$GLGSA,A,3,065,071,072,087,088,,,,,,,,1.3,0.7,1.1*14
$GPGSA,A,3,001,003,008,010,021,022,027,032,,,,,1.3,0.7,1.1*3B
$GAGSA,A,3,107,119,126,133,,,,,,,,,1.3,0.7,1.1*2D
$GPGSV,6,1,24,001,34,308,32,003,12,263,28,008,42,232,39,010,34,067,43*7E
$GPGSV,6,2,24,014,01,312,,021,62,304,39,022,66,149,42,023,05,076,23*7B
$GPGSV,6,3,24,024,03,029,,027,22,192,33,031,06,148,,032,64,079,45*7E
$GPGSV,6,4,24,065,49,240,43,071,22,041,35,072,71,016,41,073,04,059,23*7B
$GPGSV,6,5,24,087,78,178,47,088,47,321,43,107,29,048,29,110,14,311,*79
$GPGSV,6,6,24,112,39,310,,119,44,204,29,126,31,132,19,133,83,143,37*76
$GPRMC,104928.00,A,4444.5391,N,03955.5416,E,000.00000,293.8,110822,,,A*52
$GPZDA,104928.00,11,08,2022,+00,00*41
$GPGGA,104928.20,4444.5391,N,03955.5416,E,1,17,0.7,00143.6,M,0017.1,M,,*6C
$GLGSA,A,3,065,071,072,087,088,,,,,,,,1.3,0.7,1.1*14
$GPGSA,A,3,001,003,008,010,021,022,027,032,,,,,1.3,0.7,1.1*3B
$GAGSA,A,3,107,119,126,133,,,,,,,,,1.3,0.7,1.1*2D
$GPRMC,104928.20,A,4444.5391,N,03955.5416,E,000.00000,293.8,110822,,,A*50
$GPGGA,104928.40,4444.5391,N,03955.5416,E,1,17,0.7,00143.6,M,0017.1,M,,*6A
$GLGSA,A,3,065,071,072,087,088,,,,,,,,1.3,0.7,1.1*14
$GPGSA,A,3,001,003,008,010,021,022,027,032,,,,,1.3,0.7,1.1*3B
$GAGSA,A,3,107,119,126,133,,,,,,,,,1.3,0.7,1.1*2D
$GPRMC,104928.40,A,4444.5391,N,03955.5416,E,000.00000,293.8,110822,,,A*56
$GPGGA,104928.60,4444.5391,N,03955.5416,E,1,17,0.7,00143.6,M,0017.1,M,,*68
$GLGSA,A,3,065,071,072,087,088,,,,,,,,1.3,0.7,1.1*14
$GPGSA,A,3,001,003,008,010,021,022,027,032,,,,,1.3,0.7,1.1*3B
$GAGSA,A,3,107,119,126,133,,,,,,,,,1.3,0.7,1.1*2D
$GPRMC,104928.60,A,4444.5391,N,03955.5416,E,000.00000,293.8,110822,,,A*54
$GPGGA,104928.80,4444.5391,N,03955.5416,E,1,17,0.7,00143.6,M,0017.1,M,,*66
$GLGSA,A,3,065,071,072,087,088,,,,,,,,1.3,0.7,1.1*14
$GPGSA,A,3,001,003,008,010,021,022,027,032,,,,,1.3,0.7,1.1*3B
$GAGSA,A,3,107,119,126,133,,,,,,,,,1.3,0.7,1.1*2D
$GPRMC,104928.80,A,4444.5391,N,03955.5416,E,000.00000,293.8,110822,,,A*5A
$GPGGA,104929.00,4444.5391,N,03955.5416,E,1,17,0.7,00143.6,M,0017.1,M,,*6F
$GLGSA,A,3,065,071,072,087,088,,,,,,,,1.3,0.7,1.1*14
$GPGSA,A,3,001,003,008,010,021,022,027,032,,,,,1.3,0.7,1.1*3B
$GAGSA,A,3,107,119,126,133,,,,,,,,,1.3,0.7,1.1*2D
$GPGSV,6,1,24,001,34,308,31,003,12,263,28,008,42,232,39,010,34,067,43*7D
$GPGSV,6,2,24,014,01,312,,021,62,304,39,022,66,149,42,023,05,076,23*7B
$GPGSV,6,3,24,024,03,029,,027,22,192,34,031,06,148,,032,64,079,45*79
$GPGSV,6,4,24,065,49,240,43,071,22,041,35,072,71,016,41,073,04,059,24*7C
$GPGSV,6,5,24,087,78,178,47,088,47,321,43,107,29,048,29,110,14,311,*79
$GPGSV,6,6,24,112,39,310,,119,44,204,29,126,31,132,18,133,83,143,37*77
$GPRMC,104929.00,A,4444.5391,N,03955.5416,E,000.00000,293.8,110822,,,A*53
$GPZDA,104929.00,11,08,2022,+00,00*40
$GPGGA,104929.20,4444.5391,N,03955.5416,E,1,17,0.7,00143.6,M,0017.1,M,,*6D
$GLGSA,A,3,065,071,072,087,088,,,,,,,,1.3,0.7,1.1*14
$GPGSA,A,3,001,003,008,010,021,022,027,032,,,,,1.3,0.7,1.1*3B
$GAGSA,A,3,107,119,126,133,,,,,,,,,1.3,0.7,1.1*2D
$GPRMC,104929.20,A,4444.5391,N,03955.5416,E,000.00000,293.8,110822,,,A*51
$GPGGA,104929.40,4444.5391,N,03955.5416,E,1,17,0.7,00143.6,M,0017.1,M,,*6B
$GLGSA,A,3,065,071,072,087,088,,,,,,,,1.3,0.7,1.1*14
$GPGSA,A,3,001,003,008,010,021,022,027,032,,,,,1.3,0.7,1.1*3B
$GAGSA,A,3,107,119,126,133,,,,,,,,,1.3,0.7,1.1*2D
$GPRMC,104929.40,A,4444.5391,N,03955.5416,E,000.00000,293.8,110822,,,A*57
$GPGGA,104929.60,4444.5391,N,03955.5416,E,1,17,0.7,00143.6,M,0017.1,M,,*69
$GLGSA,A,3,065,071,072,087,088,,,,,,,,1.3,0.7,1.1*14
$GPGSA,A,3,001,003,008,010,021,022,027,032,,,,,1.3,0.7,1.1*3B
$GAGSA,A,3,107,119,126,133,,,,,,,,,1.3,0.7,1.1*2D
$GPRMC,104929.60,A,4444.5391,N,03955.5416,E,000.00000,293.8,110822,,,A*55
$GPGGA,104929.80,4444.5391,N,03955.5416,E,1,17,0.7,00143.6,M,0017.1,M,,*67
$GLGSA,A,3,065,071,072,087,088,,,,,,,,1.3,0.7,1.1*14
$GPGSA,A,3,001,003,008,010,021,022,027,032,,,,,1.3,0.7,1.1*3B
$GAGSA,A,3,107,119,126,133,,,,,,,,,1.3,0.7,1.1*2D
$GPRMC,104929.80,A,4444.5391,N,03955.5416,E,000.00000,293.8,110822,,,A*5B
$GPGGA,104930.00,4444.5391,N,03955.5416,E,1,17,0.7,00143.6,M,0017.1,M,,*67
$GLGSA,A,3,065,071,072,087,088,,,,,,,,1.3,0.7,1.1*14
$GPGSA,A,3,001,003,008,010,021,022,027,032,,,,,1.3,0.7,1.1*3B
$GAGSA,A,3,107,119,126,133,,,,,,,,,1.3,0.7,1.1*2D
$GPGSV,6,1,24,001,34,308,31,003,12,263,28,008,42,232,39,010,34,067,43*7D
$GPGSV,6,2,24,014,01,312,,021,62,304,39,022,66,149,42,023,05,076,23*7B
$GPGSV,6,3,24,024,03,029,,027,22,192,34,031,06,148,,032,64,079,46*7A
$GPGSV,6,4,24,065,49,240,43,071,22,041,35,072,71,016,41,073,04,059,23*7B
$GPGSV,6,5,24,087,78,178,47,088,47,321,43,107,29,048,28,110,14,311,*78
$GPGSV,6,6,24,112,40,310,,119,44,204,29,126,31,132,17,133,83,143,38*79
$GPRMC,104930.00,A,4444.5391,N,03955.5416,E,000.00000,293.8,110822,,,A*5B
$GPZDA,104930.00,11,08,2022,+00,00*48
$GPGGA,104930.20,4444.5391,N,03955.5416,E,1,16,0.8,00143.6,M,0017.1,M,,*6B
$GLGSA,A,3,065,071,072,087,088,,,,,,,,1.4,0.8,1.1*1C
$GPGSA,A,3,001,003,008,010,021,022,027,032,,,,,1.4,0.8,1.1*33
$GAGSA,A,3,107,119,133,,,,,,,,,,1.4,0.8,1.1*10
$GPRMC,104930.20,A,4444.5391,N,03955.5416,E,000.00000,293.8,110822,,,A*59
$GPGGA,104930.40,4444.5391,N,03955.5416,E,1,17,0.7,00143.6,M,0017.1,M,,*63
$GLGSA,A,3,065,071,072,087,088,,,,,,,,1.3,0.7,1.1*14
$GPGSA,A,3,001,003,008,010,021,022,027,032,,,,,1.3,0.7,1.1*3B
$GAGSA,A,3,107,119,126,133,,,,,,,,,1.3,0.7,1.1*2D
$GPRMC,104930.40,A,4444.5391,N,03955.5416,E,000.00000,293.8,110822,,,A*5F
$GPGGA,104930.60,4444.5391,N,03955.5416,E,1,17,0.7,00143.6,M,0017.1,M,,*61
$GLGSA,A,3,065,071,072,087,088,,,,,,,,1.3,0.7,1.1*14
$GPGSA,A,3,001,003,008,010,021,022,027,032,,,,,1.3,0.7,1.1*3B
$GAGSA,A,3,107,119,126,133,,,,,,,,,1.3,0.7,1.1*2D
$GPRMC,104930.60,A,4444.5391,N,03955.5416,E,000.00000,293.8,110822,,,A*5D
$GPGGA,104930.80,4444.5391,N,03955.5416,E,1,17,0.7,00143.6,M,0017.1,M,,*6F
$GLGSA,A,3,065,071,072,087,088,,,,,,,,1.3,0.7,1.1*14
$GPGSA,A,3,001,003,008,010,021,022,027,032,,,,,1.3,0.7,1.1*3B
$GAGSA,A,3,107,119,126,133,,,,,,,,,1.3,0.7,1.1*2D
$GPRMC,104930.80,A,4444.5391,N,03955.5416,E,000.00000,293.8,110822,,,A*53
$GPGGA,104931.00,4444.5391,N,03955.5416,E,1,17,0.7,00143.6,M,0017.1,M,,*66
$GLGSA,A,3,065,071,072,087,088,,,,,,,,1.3,0.7,1.1*14
$GPGSA,A,3,001,003,008,010,021,022,027,032,,,,,1.3,0.7,1.1*3B
$GAGSA,A,3,107,119,126,133,,,,,,,,,1.3,0.7,1.1*2D
$GPGSV,6,1,24,001,34,308,31,003,12,263,28,008,42,232,39,010,34,067,43*7D
$GPGSV,6,2,24,014,01,312,,021,62,304,39,022,66,149,42,023,05,076,*7A
$GPGSV,6,3,24,024,03,029,15,027,22,192,34,031,06,148,,032,64,079,45*7D
$GPGSV,6,4,24,065,49,240,43,071,22,041,35,072,71,016,41,073,04,059,22*7A
$GPGSV,6,5,24,087,78,178,47,088,47,321,43,107,29,048,29,110,14,311,*79
$GPGSV,6,6,24,112,40,310,,119,44,204,29,126,31,132,17,133,83,143,38*79
$GPRMC,104931.00,A,4444.5391,N,03955.5416,E,000.00000,293.8,110822,,,A*5A
$GPZDA,104931.00,11,08,2022,+00,00*49
$GPGGA,104931.20,4444.5391,N,03955.5416,E,1,17,0.7,00143.6,M,0017.1,M,,*64
$GLGSA,A,3,065,071,072,087,088,,,,,,,,1.3,0.7,1.1*14
$GPGSA,A,3,001,003,008,010,021,022,027,032,,,,,1.3,0.7,1.1*3B
$GAGSA,A,3,107,119,126,133,,,,,,,,,1.3,0.7,1.1*2D
$GPRMC,104931.20,A,4444.5391,N,03955.5416,E,000.00000,293.8,110822,,,A*58
$GPGGA,104931.40,4444.5391,N,03955.5416,E,1,17,0.7,00143.6,M,0017.1,M,,*62
$GLGSA,A,3,065,071,072,087,088,,,,,,,,1.3,0.7,1.1*14
$GPGSA,A,3,001,003,008,010,021,022,027,032,,,,,1.3,0.7,1.1*3B
$GAGSA,A,3,107,119,126,133,,,,,,,,,1.3,0.7,1.1*2D
$GPRMC,104931.40,A,4444.5391,N,03955.5416,E,000.00000,293.8,110822,,,A*5E
$GPGGA,104931.60,4444.5391,N,03955.5416,E,1,17,0.7,00143.6,M,0017.1,M,,*60
$GLGSA,A,3,065,071,072,087,088,,,,,,,,1.3,0.7,1.1*14
$GPGSA,A,3,001,003,008,010,021,022,027,032,,,,,1.3,0.7,1.1*3B
$GAGSA,A,3,107,119,126,133,,,,,,,,,1.3,0.7,1.1*2D
$GPRMC,104931.60,A,4444.5391,N,03955.5416,E,000.00000,293.8,110822,,,A*5C
$GPGGA,104931.80,4444.5391,N,03955.5416,E,1,16,0.8,00143.6,M,0017.1,M,,*60
$GLGSA,A,3,065,071,072,087,088,,,,,,,,1.4,0.8,1.1*1C
$GPGSA,A,3,001,003,008,010,021,022,027,032,,,,,1.4,0.8,1.1*33
$GAGSA,A,3,107,119,133,,,,,,,,,,1.4,0.8,1.1*10
$GPRMC,104931.80,A,4444.5391,N,03955.5416,E,000.00000,293.8,110822,,,A*52
$GPGGA,104932.00,4444.5391,N,03955.5416,E,1,16,0.8,00143.6,M,0017.1,M,,*6B
$GLGSA,A,3,065,071,072,087,088,,,,,,,,1.4,0.8,1.1*1C
$GPGSA,A,3,001,003,008,010,021,022,027,032,,,,,1.4,0.8,1.1*33
$GAGSA,A,3,107,119,133,,,,,,,,,,1.4,0.8,1.1*10
$GPGSV,6,1,24,001,34,308,32,003,12,263,28,008,42,232,39,010,34,067,43*7E
$GPGSV,6,2,24,014,01,312,,021,62,304,39,022,66,149,42,023,05,076,*7A
$GPGSV,6,3,24,024,03,029,18,027,22,192,34,031,06,148,,032,64,079,45*70
$GPGSV,6,4,24,065,49,240,43,071,22,041,35,072,71,016,41,073,04,059,21*79
$GPGSV,6,5,24,087,78,178,47,088,47,321,44,107,29,048,28,110,14,311,*7F
$GPGSV,6,6,24,112,40,310,,119,44,204,29,126,31,132,18,133,83,143,37*79
$GPRMC,104932.00,A,4444.5391,N,03955.5416,E,000.00000,293.8,110822,,,A*59
$GPZDA,104932.00,11,08,2022,+00,00*4A
$GPGGA,104932.20,4444.5391,N,03955.5416,E,1,17,0.7,00143.6,M,0017.1,M,,*67
$GLGSA,A,3,065,071,072,087,088,,,,,,,,1.3,0.7,1.1*14
$GPGSA,A,3,001,003,008,010,021,022,027,032,,,,,1.3,0.7,1.1*3B
$GAGSA,A,3,107,119,126,133,,,,,,,,,1.3,0.7,1.1*2D
$GPRMC,104932.20,A,4444.5391,N,03955.5416,E,000.00000,293.8,110822,,,A*5B
$GPGGA,104932.40,4444.5391,N,03955.5416,E,1,16,0.8,00143.6,M,0017.1,M,,*6F
$GLGSA,A,3,065,071,072,087,088,,,,,,,,1.4,0.8,1.1*1C
$GPGSA,A,3,001,003,008,010,021,022,027,032,,,,,1.4,0.8,1.1*33
$GAGSA,A,3,107,119,133,,,,,,,,,,1.4,0.8,1.1*10
$GPRMC,104932.40,A,4444.5391,N,03955.5416,E,000.00000,293.8,110822,,,A*5D
$GPGGA,104932.60,4444.5391,N,03955.5416,E,1,17,0.7,00143.6,M,0017.1,M,,*63
$GLGSA,A,3,065,071,072,087,088,,,,,,,,1.3,0.7,1.1*14
$GPGSA,A,3,001,003,008,010,021,022,027,032,,,,,1.3,0.7,1.1*3B
$GAGSA,A,3,107,119,126,133,,,,,,,,,1.3,0.7,1.1*2D
$GPRMC,104932.60,A,4444.5391,N,03955.5416,E,000.00000,293.8,110822,,,A*5F
$GPGGA,104932.80,4444.5391,N,03955.5416,E,1,17,0.7,00143.6,M,0017.1,M,,*6D
$GLGSA,A,3,065,071,072,087,088,,,,,,,,1.3,0.7,1.1*14
$GPGSA,A,3,001,003,008,010,021,022,027,032,,,,,1.3,0.7,1.1*3B
$GAGSA,A,3,107,119,126,133,,,,,,,,,1.3,0.7,1.1*2D
$GPRMC,104932.80,A,4444.5391,N,03955.5416,E,000.00000,293.8,110822,,,A*51
$GPGGA,104933.00,4444.5391,N,03955.5416,E,1,16,0.8,00143.6,M,0017.1,M,,*6A
$GLGSA,A,3,065,071,072,087,088,,,,,,,,1.4,0.8,1.1*1C
$GPGSA,A,3,001,003,008,010,021,022,027,032,,,,,1.4,0.8,1.1*33
$GAGSA,A,3,107,119,133,,,,,,,,,,1.4,0.8,1.1*10
$GPGSV,6,1,24,001,34,308,32,003,12,263,28,008,42,232,39,010,34,067,43*7E
$GPGSV,6,2,24,014,00,312,,021,62,304,39,022,66,149,42,023,05,076,*7B
$GPGSV,6,3,24,024,03,029,20,027,22,192,34,031,06,148,,032,64,079,45*7B
$GPGSV,6,4,24,065,49,240,43,071,22,041,35,072,71,016,41,073,04,059,22*7A
$GPGSV,6,5,24,087,78,178,47,088,47,321,44,107,29,048,28,110,14,311,*7F
$GPGSV,6,6,24,112,40,310,,119,44,204,29,126,31,132,18,133,83,143,37*79
$GPRMC,104933.00,A,4444.5391,N,03955.5416,E,000.00000,293.8,110822,,,A*58
$GPZDA,104933.00,11,08,2022,+00,00*4B
$GPGGA,104933.20,4444.5391,N,03955.5416,E,1,17,0.7,00143.6,M,0017.1,M,,*66
$GLGSA,A,3,065,071,072,087,088,,,,,,,,1.3,0.7,1.1*14
$GPGSA,A,3,001,003,008,010,021,022,027,032,,,,,1.3,0.7,1.1*3B
$GAGSA,A,3,107,119,126,133,,,,,,,,,1.3,0.7,1.1*2D
$GPRMC,104933.20,A,4444.5391,N,03955.5416,E,000.00000,293.8,110822,,,A*5A
$GPGGA,104933.40,4444.5391,N,03955.5416,E,1,16,0.8,00143.6,M,0017.1,M,,*6E
$GLGSA,A,3,065,071,072,087,088,,,,,,,,1.4,0.8,1.1*1C
$GPGSA,A,3,001,003,008,010,021,022,027,032,,,,,1.4,0.8,1.1*33
$GAGSA,A,3,107,119,133,,,,,,,,,,1.4,0.8,1.1*10
$GPRMC,104933.40,A,4444.5391,N,03955.5416,E,000.00000,293.8,110822,,,A*5C
$GPGGA,104933.60,4444.5391,N,03955.5416,E,1,17,0.7,00143.6,M,0017.1,M,,*62
$GLGSA,A,3,065,071,072,087,088,,,,,,,,1.3,0.7,1.1*14
$GPGSA,A,3,001,003,008,010,021,022,027,032,,,,,1.3,0.7,1.1*3B
$GAGSA,A,3,107,119,126,133,,,,,,,,,1.3,0.7,1.1*2D
$GPRMC,104933.60,A,4444.5391,N,03955.5416,E,000.00000,293.8,110822,,,A*5E
$GPGGA,104933.80,4444.5391,N,03955.5416,E,1,16,0.8,00143.6,M,0017.1,M,,*62
$GLGSA,A,3,065,071,072,087,088,,,,,,,,1.4,0.8,1.1*1C
$GPGSA,A,3,001,003,008,010,021,022,027,032,,,,,1.4,0.8,1.1*33
$GAGSA,A,3,107,119,133,,,,,,,,,,1.4,0.8,1.1*10
$GPRMC,104933.80,A,4444.5391,N,03955.5416,E,000.00000,293.8,110822,,,A*50
$GPGGA,104934.00,4444.5391,N,03955.5416,E,1,17,0.7,00143.6,M,0017.1,M,,*63
$GLGSA,A,3,065,071,072,087,088,,,,,,,,1.3,0.7,1.1*14
$GPGSA,A,3,001,003,008,010,021,022,027,032,,,,,1.3,0.7,1.1*3B
$GAGSA,A,3,107,119,126,133,,,,,,,,,1.3,0.7,1.1*2D
$GPGSV,6,1,24,001,34,308,32,003,12,263,28,008,42,232,39,010,34,067,43*7E
$GPGSV,6,2,24,014,00,312,,021,62,304,39,022,66,149,42,023,05,076,20*79
$GPGSV,6,3,24,024,03,029,19,027,22,192,34,031,06,148,,032,64,079,46*72
$GPGSV,6,4,24,065,49,240,43,071,22,041,35,072,71,016,41,073,04,059,23*7B
$GPGSV,6,5,24,087,78,178,47,088,47,321,44,107,29,048,29,110,14,311,*7E
$GPGSV,6,6,24,112,40,310,,119,44,204,29,126,31,132,19,133,83,143,38*77
$GPRMC,104934.00,A,4444.5391,N,03955.5416,E,000.00000,293.8,110822,,,A*5F
$GPZDA,104934.00,11,08,2022,+00,00*4C
$GPGGA,104934.20,4444.5391,N,03955.5416,E,1,17,0.7,00143.6,M,0017.1,M,,*61
$GLGSA,A,3,065,071,072,087,088,,,,,,,,1.3,0.7,1.1*14
$GPGSA,A,3,001,003,008,010,021,022,027,032,,,,,1.3,0.7,1.1*3B
$GAGSA,A,3,107,119,126,133,,,,,,,,,1.3,0.7,1.1*2D
$GPRMC,104934.20,A,4444.5391,N,03955.5416,E,000.00000,293.8,110822,,,A*5D
$GPGGA,104934.40,4444.5391,N,03955.5416,E,1,17,0.7,00143.6,M,0017.1,M,,*67
$GLGSA,A,3,065,071,072,087,088,,,,,,,,1.3,0.7,1.1*14
$GPGSA,A,3,001,003,008,010,021,022,027,032,,,,,1.3,0.7,1.1*3B
$GAGSA,A,3,107,119,126,133,,,,,,,,,1.3,0.7,1.1*2D
$GPRMC,104934.40,A,4444.5391,N,03955.5416,E,000.00000,293.8,110822,,,A*5B
$GPGGA,104934.60,4444.5391,N,03955.5416,E,1,17,0.7,00143.6,M,0017.1,M,,*65
$GLGSA,A,3,065,071,072,087,088,,,,,,,,1.3,0.7,1.1*14
$GPGSA,A,3,001,003,008,010,021,022,027,032,,,,,1.3,0.7,1.1*3B
$GAGSA,A,3,107,119,126,133,,,,,,,,,1.3,0.7,1.1*2D
$GPRMC,104934.60,A,4444.5391,N,03955.5416,E,000.00000,293.8,110822,,,A*59
$GPGGA,104934.80,4444.5391,N,03955.5416,E,1,17,0.7,00143.6,M,0017.1,M,,*6B
$GLGSA,A,3,065,071,072,087,088,,,,,,,,1.3,0.7,1.1*14
$GPGSA,A,3,001,003,008,010,021,022,027,032,,,,,1.3,0.7,1.1*3B
$GAGSA,A,3,107,119,126,133,,,,,,,,,1.3,0.7,1.1*2D
$GPRMC,104934.80,A,4444.5391,N,03955.5416,E,000.00000,293.8,110822,,,A*57
$GPGGA,104935.00,4444.5391,N,03955.5416,E,1,17,0.7,00143.6,M,0017.1,M,,*62
$GLGSA,A,3,065,071,072,087,088,,,,,,,,1.3,0.7,1.1*14
$GPGSA,A,3,001,003,008,010,021,022,027,032,,,,,1.3,0.7,1.1*3B
$GAGSA,A,3,107,119,126,133,,,,,,,,,1.3,0.7,1.1*2D
$GPGSV,6,1,24,001,34,308,32,003,12,263,27,008,42,232,39,010,34,067,43*71
$GPGSV,6,2,24,014,00,312,,021,62,304,38,022,66,149,42,023,05,076,21*79
$GPGSV,6,3,24,024,03,029,19,027,22,192,33,031,06,148,,032,64,079,46*75
$GPGSV,6,4,24,065,49,241,43,071,22,041,35,072,71,016,40,073,04,059,24*7C
$GPGSV,6,5,24,087,78,178,48,088,47,321,44,107,29,048,28,110,14,311,*70
$GPGSV,6,6,24,112,40,310,,119,44,204,29,126,31,132,20,133,83,143,38*7D
$GPRMC,104935.00,A,4444.5391,N,03955.5416,E,000.00000,293.8,110822,,,A*5E
$GPZDA,104935.00,11,08,2022,+00,00*4D
$GPGGA,104935.20,4444.5391,N,03955.5416,E,1,16,0.8,00143.6,M,0017.1,M,,*6E
$GLGSA,A,3,065,071,072,087,088,,,,,,,,1.4,0.8,1.1*1C
$GPGSA,A,3,001,003,008,010,021,022,027,032,,,,,1.4,0.8,1.1*33
$GAGSA,A,3,107,119,133,,,,,,,,,,1.4,0.8,1.1*10
$GPRMC,104935.20,A,4444.5391,N,03955.5416,E,000.00000,293.8,110822,,,A*5C
$GPGGA,104935.40,4444.5391,N,03955.5416,E,1,17,0.7,00143.6,M,0017.1,M,,*66
$GLGSA,A,3,065,071,072,087,088,,,,,,,,1.3,0.7,1.1*14
$GPGSA,A,3,001,003,008,010,021,022,027,032,,,,,1.3,0.7,1.1*3B
$GAGSA,A,3,107,119,126,133,,,,,,,,,1.3,0.7,1.1*2D
$GPRMC,104935.40,A,4444.5391,N,03955.5416,E,000.00000,293.8,110822,,,A*5A
$GPGGA,104935.60,4444.5391,N,03955.5416,E,1,17,0.7,00143.6,M,0017.1,M,,*64
$GLGSA,A,3,065,071,072,087,088,,,,,,,,1.3,0.7,1.1*14
$GPGSA,A,3,001,003,008,010,021,022,027,032,,,,,1.3,0.7,1.1*3B
$GAGSA,A,3,107,119,126,133,,,,,,,,,1.3,0.7,1.1*2D
$GPRMC,104935.60,A,4444.5391,N,03955.5416,E,000.00000,293.8,110822,,,A*58
$GPGGA,104935.80,4444.5391,N,03955.5416,E,1,17,0.7,00143.6,M,0017.1,M,,*6A
$GLGSA,A,3,065,071,072,087,088,,,,,,,,1.3,0.7,1.1*14
$GPGSA,A,3,001,003,008,010,021,022,027,032,,,,,1.3,0.7,1.1*3B
$GAGSA,A,3,107,119,126,133,,,,,,,,,1.3,0.7,1.1*2D
$GPRMC,104935.80,A,4444.5391,N,03955.5416,E,000.00000,293.8,110822,,,A*56
$GPGGA,104936.00,4444.5391,N,03955.5416,E,1,17,0.7,00143.6,M,0017.1,M,,*61
$GLGSA,A,3,065,071,072,087,088,,,,,,,,1.3,0.7,1.1*14
$GPGSA,A,3,001,003,008,010,021,022,027,032,,,,,1.3,0.7,1.1*3B
$GAGSA,A,3,107,119,126,133,,,,,,,,,1.3,0.7,1.1*2D
$GPGSV,6,1,24,001,34,308,32,003,12,263,27,008,42,232,39,010,34,067,43*71
$GPGSV,6,2,24,014,00,312,,021,62,304,38,022,66,149,42,023,05,076,21*79
$GPGSV,6,3,24,024,03,029,19,027,22,192,33,031,06,148,,032,64,079,46*75
$GPGSV,6,4,24,065,49,241,43,071,22,041,35,072,71,017,41,073,04,059,24*7C
$GPGSV,6,5,24,087,78,178,47,088,47,321,44,107,29,048,28,110,14,311,*7F
$GPGSV,6,6,24,112,40,310,,119,44,204,30,126,31,132,21,133,83,143,37*7B
$GPRMC,104936.00,A,4444.5391,N,03955.5416,E,000.00000,293.8,110822,,,A*5D
$GPZDA,104936.00,11,08,2022,+00,00*4E
$GPGGA,104936.20,4444.5391,N,03955.5416,E,1,17,0.7,00143.6,M,0017.1,M,,*63
$GLGSA,A,3,065,071,072,087,088,,,,,,,,1.3,0.7,1.1*14
$GPGSA,A,3,001,003,008,010,021,022,027,032,,,,,1.3,0.7,1.1*3B
$GAGSA,A,3,107,119,126,133,,,,,,,,,1.3,0.7,1.1*2D
$GPRMC,104936.20,A,4444.5391,N,03955.5416,E,000.00000,293.8,110822,,,A*5F
$GPGGA,104936.40,4444.5391,N,03955.5416,E,1,17,0.7,00143.6,M,0017.1,M,,*65
$GLGSA,A,3,065,071,072,087,088,,,,,,,,1.3,0.7,1.1*14
$GPGSA,A,3,001,003,008,010,021,022,027,032,,,,,1.3,0.7,1.1*3B
$GAGSA,A,3,107,119,126,133,,,,,,,,,1.3,0.7,1.1*2D
$GPRMC,104936.40,A,4444.5391,N,03955.5416,E,000.00000,293.8,110822,,,A*59
$GPGGA,104936.60,4444.5391,N,03955.5416,E,1,16,0.8,00143.6,M,0017.1,M,,*69
$GLGSA,A,3,065,071,072,087,088,,,,,,,,1.4,0.8,1.1*1C
$GPGSA,A,3,001,003,008,010,021,022,027,032,,,,,1.4,0.8,1.1*33
$GAGSA,A,3,107,119,133,,,,,,,,,,1.4,0.8,1.1*10
$GPRMC,104936.60,A,4444.5391,N,03955.5416,E,000.00000,293.8,110822,,,A*5B
$GPGGA,104936.80,4444.5391,N,03955.5416,E,1,17,0.7,00143.6,M,0017.1,M,,*69
$GLGSA,A,3,065,071,072,087,088,,,,,,,,1.3,0.7,1.1*14
$GPGSA,A,3,001,003,008,010,021,022,027,032,,,,,1.3,0.7,1.1*3B
$GAGSA,A,3,107,119,126,133,,,,,,,,,1.3,0.7,1.1*2D
$GPRMC,104936.80,A,4444.5391,N,03955.5416,E,000.00000,293.8,110822,,,A*55
$GPGGA,104937.00,4444.5391,N,03955.5416,E,1,16,0.8,00143.6,M,0017.1,M,,*6E
$GLGSA,A,3,065,071,072,087,088,,,,,,,,1.4,0.8,1.1*1C
$GPGSA,A,3,001,003,008,010,021,022,027,032,,,,,1.4,0.8,1.1*33
$GAGSA,A,3,107,119,133,,,,,,,,,,1.4,0.8,1.1*10
$GPGSV,6,1,24,001,34,308,32,003,12,263,27,008,42,232,39,010,34,067,43*71
$GPGSV,6,2,24,014,00,312,,021,62,304,39,022,66,149,42,023,05,076,22*7B
$GPGSV,6,3,24,024,03,029,19,027,22,192,33,031,06,148,,032,64,079,46*75
$GPGSV,6,4,24,065,49,241,43,071,22,041,36,072,71,017,40,073,04,059,24*7E
$GPGSV,6,5,24,087,78,178,47,088,47,321,44,107,29,048,28,110,14,311,*7F
$GPGSV,6,6,24,112,40,310,,119,44,204,30,126,31,132,21,133,83,143,37*7B
$GPRMC,104937.00,A,4444.5391,N,03955.5416,E,000.00000,293.8,110822,,,A*5C
$GPZDA,104937.00,11,08,2022,+00,00*4F
$GPGGA,104937.20,4444.5391,N,03955.5416,E,1,16,0.8,00143.6,M,0017.1,M,,*6C
$GLGSA,A,3,065,071,072,087,088,,,,,,,,1.4,0.8,1.1*1C
$GPGSA,A,3,001,003,008,010,021,022,027,032,,,,,1.4,0.8,1.1*33
$GAGSA,A,3,107,119,133,,,,,,,,,,1.4,0.8,1.1*10
$GPRMC,104937.20,A,4444.5391,N,03955.5416,E,000.00000,293.8,110822,,,A*5E
$GPGGA,104937.40,4444.5391,N,03955.5416,E,1,17,0.7,00143.6,M,0017.1,M,,*64
$GLGSA,A,3,065,071,072,087,088,,,,,,,,1.3,0.7,1.1*14
$GPGSA,A,3,001,003,008,010,021,022,027,032,,,,,1.3,0.7,1.1*3B
$GAGSA,A,3,107,119,126,133,,,,,,,,,1.3,0.7,1.1*2D
$GPRMC,104937.40,A,4444.5391,N,03955.5416,E,000.00000,293.8,110822,,,A*58
$GPGGA,104937.60,4444.5391,N,03955.5416,E,1,17,0.7,00143.6,M,0017.1,M,,*66
$GLGSA,A,3,065,071,072,087,088,,,,,,,,1.3,0.7,1.1*14
$GPGSA,A,3,001,003,008,010,021,022,027,032,,,,,1.3,0.7,1.1*3B
$GAGSA,A,3,107,119,126,133,,,,,,,,,1.3,0.7,1.1*2D
$GPRMC,104937.60,A,4444.5391,N,03955.5416,E,000.00000,293.8,110822,,,A*5A
$GPGGA,104937.80,4444.5391,N,03955.5416,E,1,16,0.8,00143.6,M,0017.1,M,,*66
$GLGSA,A,3,065,071,072,087,088,,,,,,,,1.4,0.8,1.1*1C
$GPGSA,A,3,001,003,008,010,021,022,027,032,,,,,1.4,0.8,1.1*33
$GAGSA,A,3,107,119,133,,,,,,,,,,1.4,0.8,1.1*10
$GPRMC,104937.80,A,4444.5391,N,03955.5416,E,000.00000,293.8,110822,,,A*54
$GPGGA,104938.00,4444.5391,N,03955.5416,E,1,17,0.7,00143.6,M,0017.1,M,,*6F
$GLGSA,A,3,065,071,072,087,088,,,,,,,,1.3,0.7,1.1*14
$GPGSA,A,3,001,003,008,010,021,022,027,032,,,,,1.3,0.7,1.1*3B
$GAGSA,A,3,107,119,126,133,,,,,,,,,1.3,0.7,1.1*2D
$GPGSV,6,1,24,001,34,308,31,003,12,263,27,008,42,232,39,010,34,067,43*72
$GPGSV,6,2,24,014,00,312,,021,62,304,38,022,66,149,42,023,05,076,23*7B
$GPGSV,6,3,24,024,03,029,19,027,22,192,33,031,06,148,,032,64,079,46*75
$GPGSV,6,4,24,065,49,241,43,071,22,041,36,072,71,017,41,073,04,059,24*7F
$GPGSV,6,5,24,087,78,178,47,088,47,321,44,107,29,048,28,110,14,311,*7F
$GPGSV,6,6,24,112,40,310,,119,44,204,30,126,31,132,19,133,83,143,37*70
$GPRMC,104938.00,A,4444.5391,N,03955.5416,E,000.00000,293.8,110822,,,A*53
$GPZDA,104938.00,11,08,2022,+00,00*40
$GPGGA,104938.20,4444.5391,N,03955.5416,E,1,16,0.8,00143.6,M,0017.1,M,,*63
$GLGSA,A,3,065,071,072,087,088,,,,,,,,1.4,0.8,1.1*1C
$GPGSA,A,3,001,003,008,010,021,022,027,032,,,,,1.4,0.8,1.1*33
$GAGSA,A,3,107,119,133,,,,,,,,,,1.4,0.8,1.1*10
$GPRMC,104938.20,A,4444.5391,N,03955.5416,E,000.00000,293.8,110822,,,A*51
$GPGGA,104938.40,4444.5391,N,03955.5416,E,1,16,0.8,00143.6,M,0017.1,M,,*65
$GLGSA,A,3,065,071,072,087,088,,,,,,,,1.4,0.8,1.1*1C
$GPGSA,A,3,001,003,008,010,021,022,027,032,,,,,1.4,0.8,1.1*33
$GAGSA,A,3,107,119,133,,,,,,,,,,1.4,0.8,1.1*10
$GPRMC,104938.40,A,4444.5391,N,03955.5416,E,000.00000,293.8,110822,,,A*57
$GPGGA,104938.60,4444.5391,N,03955.5416,E,1,17,0.7,00143.6,M,0017.1,M,,*69
$GLGSA,A,3,065,071,072,087,088,,,,,,,,1.3,0.7,1.1*14
$GPGSA,A,3,001,003,008,010,021,022,027,032,,,,,1.3,0.7,1.1*3B
$GAGSA,A,3,107,119,126,133,,,,,,,,,1.3,0.7,1.1*2D
$GPRMC,104938.60,A,4444.5391,N,03955.5416,E,000.00000,293.8,110822,,,A*55
$GPGGA,104938.80,4444.5391,N,03955.5416,E,1,16,0.8,00143.6,M,0017.1,M,,*69
$GLGSA,A,3,065,071,072,087,088,,,,,,,,1.4,0.8,1.1*1C
$GPGSA,A,3,001,003,008,010,021,022,027,032,,,,,1.4,0.8,1.1*33
$GAGSA,A,3,107,119,133,,,,,,,,,,1.4,0.8,1.1*10
$GPRMC,104938.80,A,4444.5391,N,03955.5416,E,000.00000,293.8,110822,,,A*5B
$GPGGA,104939.00,4444.5391,N,03955.5416,E,1,17,0.7,00143.6,M,0017.1,M,,*6E
$GLGSA,A,3,065,071,072,087,088,,,,,,,,1.3,0.7,1.1*14
$GPGSA,A,3,001,003,008,010,021,022,027,032,,,,,1.3,0.7,1.1*3B
$GAGSA,A,3,107,119,126,133,,,,,,,,,1.3,0.7,1.1*2D
$GPGSV,6,1,24,001,34,308,31,003,12,263,26,008,42,232,39,010,34,067,43*73
$GPGSV,6,2,24,014,00,312,,021,62,304,38,022,66,149,42,023,05,076,23*7B
$GPGSV,6,3,24,024,03,029,19,027,22,192,32,031,06,148,,032,64,079,46*74
$GPGSV,6,4,24,065,49,241,43,071,22,041,36,072,71,017,41,073,04,059,24*7F
$GPGSV,6,5,24,087,78,178,48,088,47,321,45,107,29,048,28,110,14,311,*71
$GPGSV,6,6,24,112,40,310,,119,44,204,30,126,31,132,20,133,83,143,38*75
$GPRMC,104939.00,A,4444.5391,N,03955.5416,E,000.00000,293.8,110822,,,A*52
$GPZDA,104939.00,11,08,2022,+00,00*41
$GPGGA,104939.20,4444.5391,N,03955.5416,E,1,16,0.8,00143.6,M,0017.1,M,,*62
$GLGSA,A,3,065,071,072,087,088,,,,,,,,1.4,0.8,1.1*1C
$GPGSA,A,3,001,003,008,010,021,022,027,032,,,,,1.4,0.8,1.1*33
$GAGSA,A,3,107,119,133,,,,,,,,,,1.4,0.8,1.1*10
$GPRMC,104939.20,A,4444.5391,N,03955.5416,E,000.00000,293.8,110822,,,A*50
$GPGGA,104939.40,4444.5391,N,03955.5416,E,1,17,0.7,00143.6,M,0017.1,M,,*6A
$GLGSA,A,3,065,071,072,087,088,,,,,,,,1.3,0.7,1.1*14
$GPGSA,A,3,001,003,008,010,021,022,027,032,,,,,1.3,0.7,1.1*3B
$GAGSA,A,3,107,119,126,133,,,,,,,,,1.3,0.7,1.1*2D
$GPRMC,104939.40,A,4444.5391,N,03955.5416,E,000.00000,293.8,110822,,,A*56
$GPGGA,104939.60,4444.5391,N,03955.5416,E,1,17,0.7,00143.6,M,0017.1,M,,*68
$GLGSA,A,3,065,071,072,087,088,,,,,,,,1.3,0.7,1.1*14
$GPGSA,A,3,001,003,008,010,021,022,027,032,,,,,1.3,0.7,1.1*3B
$GAGSA,A,3,107,119,126,133,,,,,,,,,1.3,0.7,1.1*2D
$GPRMC,104939.60,A,4444.5391,N,03955.5416,E,000.00000,293.8,110822,,,A*54
$GPGGA,104939.80,4444.5391,N,03955.5416,E,1,17,0.7,00143.6,M,0017.1,M,,*66
$GLGSA,A,3,065,071,072,087,088,,,,,,,,1.3,0.7,1.1*14
$GPGSA,A,3,001,003,008,010,021,022,027,032,,,,,1.3,0.7,1.1*3B
$GAGSA,A,3,107,119,126,133,,,,,,,,,1.3,0.7,1.1*2D
$GPRMC,104939.80,A,4444.5391,N,03955.5416,E,000.00000,280.5,110822,,,A*55
$GPGGA,104940.00,4444.5391,N,03955.5416,E,1,17,0.7,00143.6,M,0017.1,M,,*60
$GLGSA,A,3,065,071,072,087,088,,,,,,,,1.3,0.7,1.1*14
$GPGSA,A,3,001,003,008,010,021,022,027,032,,,,,1.3,0.7,1.1*3B
$GAGSA,A,3,107,119,126,133,,,,,,,,,1.3,0.7,1.1*2D
$GPGSV,6,1,24,001,34,308,32,003,12,263,26,008,42,232,39,010,34,067,43*70
$GPGSV,6,2,24,014,00,312,,021,62,304,38,022,66,149,41,023,05,076,22*79
$GPGSV,6,3,24,024,03,029,20,027,22,192,33,031,06,148,,032,64,079,46*7F
$GPGSV,6,4,24,065,49,241,44,071,22,041,36,072,71,017,41,073,04,059,25*79
$GPGSV,6,5,24,087,78,178,48,088,47,321,44,107,29,048,28,110,14,311,*70
$GPGSV,6,6,24,112,40,310,,119,44,204,29,126,31,132,20,133,83,143,37*72
$GPRMC,104940.00,A,4444.5391,N,03955.5416,E,000.00000,286.6,110822,,,A*56
$GPZDA,104940.00,11,08,2022,+00,00*4F
$GPGGA,104940.20,4444.5391,N,03955.5416,E,1,17,0.7,00143.6,M,0017.1,M,,*62
$GLGSA,A,3,065,071,072,087,088,,,,,,,,1.3,0.7,1.1*14
$GPGSA,A,3,001,003,008,010,021,022,027,032,,,,,1.3,0.7,1.1*3B
$GAGSA,A,3,107,119,126,133,,,,,,,,,1.3,0.7,1.1*2D
$GPRMC,104940.20,A,4444.5391,N,03955.5416,E,000.00000,289.8,110822,,,A*55
$GPGGA,104940.40,4444.5391,N,03955.5416,E,1,17,0.7,00143.6,M,0017.1,M,,*64
$GLGSA,A,3,065,071,072,087,088,,,,,,,,1.3,0.7,1.1*14
$GPGSA,A,3,001,003,008,010,021,022,027,032,,,,,1.3,0.7,1.1*3B
$GAGSA,A,3,107,119,126,133,,,,,,,,,1.3,0.7,1.1*2D
$GPRMC,104940.40,A,4444.5391,N,03955.5416,E,000.00000,291.5,110822,,,A*57
$GPGGA,104940.60,4444.5391,N,03955.5416,E,1,17,0.7,00143.6,M,0017.1,M,,*66
$GLGSA,A,3,065,071,072,087,088,,,,,,,,1.3,0.7,1.1*14
$GPGSA,A,3,001,003,008,010,021,022,027,032,,,,,1.3,0.7,1.1*3B
$GAGSA,A,3,107,119,126,133,,,,,,,,,1.3,0.7,1.1*2D
$GPRMC,104940.60,A,4444.5391,N,03955.5416,E,000.00000,288.5,110822,,,A*5D
$GPGGA,104940.80,4444.5391,N,03955.5416,E,1,16,0.8,00143.6,M,0017.1,M,,*66
$GLGSA,A,3,065,071,072,087,088,,,,,,,,1.4,0.8,1.1*1C
$GPGSA,A,3,001,003,008,010,021,022,027,032,,,,,1.4,0.8,1.1*33
$GAGSA,A,3,107,119,133,,,,,,,,,,1.4,0.8,1.1*10
$GPRMC,104940.80,A,4444.5391,N,03955.5416,E,000.00000,290.6,110822,,,A*59
$GPGGA,104941.00,4444.5391,N,03955.5416,E,1,17,0.7,00143.6,M,0017.1,M,,*61
$GLGSA,A,3,065,071,072,087,088,,,,,,,,1.3,0.7,1.1*14
$GPGSA,A,3,001,003,008,010,021,022,027,032,,,,,1.3,0.7,1.1*3B
$GAGSA,A,3,107,119,126,133,,,,,,,,,1.3,0.7,1.1*2D
$GPGSV,6,1,24,001,34,308,32,003,12,263,26,008,42,232,39,010,34,067,43*70
$GPGSV,6,2,24,014,00,312,,021,62,304,39,022,66,149,42,023,05,076,23*7A
$GPGSV,6,3,24,024,03,029,21,027,22,192,33,031,06,148,,032,64,079,46*7E
$GPGSV,6,4,24,065,49,241,44,071,22,041,36,072,71,017,41,073,04,059,26*7A
$GPGSV,6,5,24,087,78,178,48,088,47,321,44,107,29,048,29,110,14,311,*71
$GPGSV,6,6,24,112,40,310,,119,44,204,30,126,31,132,22,133,83,143,38*77
$GPRMC,104941.00,A,4444.5391,N,03955.5416,E,000.00000,292.0,110822,,,A*54
$GPZDA,104941.00,11,08,2022,+00,00*4E
$GPGGA,104941.20,4444.5391,N,03955.5416,E,1,17,0.7,00143.6,M,0017.1,M,,*63
$GLGSA,A,3,065,071,072,087,088,,,,,,,,1.3,0.7,1.1*14
$GPGSA,A,3,001,003,008,010,021,022,027,032,,,,,1.3,0.7,1.1*3B
$GAGSA,A,3,107,119,126,133,,,,,,,,,1.3,0.7,1.1*2D
$GPRMC,104941.20,A,4444.5391,N,03955.5416,E,000.00000,292.6,110822,,,A*50
$GPGGA,104941.40,4444.5391,N,03955.5416,E,1,16,0.8,00143.6,M,0017.1,M,,*6B
$GLGSA,A,3,065,071,072,087,088,,,,,,,,1.4,0.8,1.1*1C
$GPGSA,A,3,001,003,008,010,021,022,027,032,,,,,1.4,0.8,1.1*33
$GAGSA,A,3,107,119,133,,,,,,,,,,1.4,0.8,1.1*10
$GPRMC,104941.40,A,4444.5391,N,03955.5416,E,000.00000,291.9,110822,,,A*5A
$GPGGA,104941.60,4444.5391,N,03955.5416,E,1,17,0.7,00143.6,M,0017.1,M,,*67
$GLGSA,A,3,065,071,072,087,088,,,,,,,,1.3,0.7,1.1*14
$GPGSA,A,3,001,003,008,010,021,022,027,032,,,,,1.3,0.7,1.1*3B
$GAGSA,A,3,107,119,126,133,,,,,,,,,1.3,0.7,1.1*2D
$GPRMC,104941.60,A,4444.5391,N,03955.5416,E,000.00000,290.9,110822,,,A*59
$GPGGA,104941.80,4444.5391,N,03955.5416,E,1,17,0.7,00143.6,M,0017.1,M,,*69
$GLGSA,A,3,065,071,072,087,088,,,,,,,,1.3,0.7,1.1*14
$GPGSA,A,3,001,003,008,010,021,022,027,032,,,,,1.3,0.7,1.1*3B
$GAGSA,A,3,107,119,126,133,,,,,,,,,1.3,0.7,1.1*2D
$GPRMC,104941.80,A,4444.5391,N,03955.5416,E,000.00000,290.2,110822,,,A*5C
$GPGGA,104942.00,4444.5391,N,03955.5416,E,1,17,0.7,00143.6,M,0017.1,M,,*62
$GLGSA,A,3,065,071,072,087,088,,,,,,,,1.3,0.7,1.1*14
$GPGSA,A,3,001,003,008,010,021,022,027,032,,,,,1.3,0.7,1.1*3B
$GAGSA,A,3,107,119,126,133,,,,,,,,,1.3,0.7,1.1*2D
$GPGSV,6,1,24,001,34,308,32,003,12,263,26,008,42,232,39,010,34,067,43*70
$GPGSV,6,2,24,014,00,312,,021,62,304,38,022,66,149,41,023,05,076,23*78
$GPGSV,6,3,24,024,03,029,20,027,22,192,32,031,06,148,,032,64,079,46*7E
$GPGSV,6,4,24,065,49,241,44,071,22,041,35,072,71,017,41,073,04,059,26*79
$GPGSV,6,5,24,087,78,178,48,088,47,321,44,107,29,048,28,110,14,311,*70
$GPGSV,6,6,24,112,40,310,,119,44,204,30,126,31,132,20,133,83,143,38*75
$GPRMC,104942.00,A,4444.5391,N,03955.5416,E,000.00000,291.2,110822,,,A*56
$GPZDA,104942.00,11,08,2022,+00,00*4D
$GPGGA,104942.20,4444.5391,N,03955.5416,E,1,17,0.7,00143.6,M,0017.1,M,,*60
$GLGSA,A,3,065,071,072,087,088,,,,,,,,1.3,0.7,1.1*14
$GPGSA,A,3,001,003,008,010,021,022,027,032,,,,,1.3,0.7,1.1*3B
$GAGSA,A,3,107,119,126,133,,,,,,,,,1.3,0.7,1.1*2D
$GPRMC,104942.20,A,4444.5391,N,03955.5416,E,000.00000,292.6,110822,,,A*53
$GPGGA,104942.40,4444.5391,N,03955.5416,E,1,16,0.8,00143.6,M,0017.1,M,,*68
$GLGSA,A,3,065,071,072,087,088,,,,,,,,1.4,0.8,1.1*1C
$GPGSA,A,3,001,003,008,010,021,022,027,032,,,,,1.4,0.8,1.1*33
$GAGSA,A,3,107,119,133,,,,,,,,,,1.4,0.8,1.1*10
$GPRMC,104942.40,A,4444.5391,N,03955.5416,E,000.00000,292.7,110822,,,A*54
$GPGGA,104942.60,4444.5391,N,03955.5416,E,1,17,0.7,00143.6,M,0017.1,M,,*64
$GLGSA,A,3,065,071,072,087,088,,,,,,,,1.3,0.7,1.1*14
$GPGSA,A,3,001,003,008,010,021,022,027,032,,,,,1.3,0.7,1.1*3B
$GAGSA,A,3,107,119,126,133,,,,,,,,,1.3,0.7,1.1*2D
$GPRMC,104942.60,A,4444.5391,N,03955.5416,E,000.00000,291.8,110822,,,A*5A
$GPGGA,104942.80,4444.5391,N,03955.5416,E,1,17,0.7,00143.6,M,0017.1,M,,*6A
$GLGSA,A,3,065,071,072,087,088,,,,,,,,1.3,0.7,1.1*14
$GPGSA,A,3,001,003,008,010,021,022,027,032,,,,,1.3,0.7,1.1*3B
$GAGSA,A,3,107,119,126,133,,,,,,,,,1.3,0.7,1.1*2D
$GPRMC,104942.80,A,4444.5391,N,03955.5416,E,000.00000,292.3,110822,,,A*5C
$GPGGA,104943.00,4444.5391,N,03955.5416,E,1,17,0.7,00143.6,M,0017.1,M,,*63
$GLGSA,A,3,065,071,072,087,088,,,,,,,,1.3,0.7,1.1*14
$GPGSA,A,3,001,003,008,010,021,022,027,032,,,,,1.3,0.7,1.1*3B
$GAGSA,A,3,107,119,126,133,,,,,,,,,1.3,0.7,1.1*2D
$GPGSV,6,1,24,001,34,308,32,003,13,263,26,008,42,232,39,010,34,068,43*7E
$GPGSV,6,2,24,014,00,312,,021,62,304,38,022,66,149,41,023,05,076,22*79
$GPGSV,6,3,24,024,03,029,19,027,22,192,32,031,07,148,,032,64,079,46*75
$GPGSV,6,4,24,065,49,241,44,071,22,041,36,072,71,017,41,073,04,059,26*7A
$GPGSV,6,5,24,087,78,178,48,088,47,321,44,107,29,048,28,110,14,311,*70
$GPGSV,6,6,24,112,40,310,,119,44,204,30,126,31,132,21,133,83,143,38*74
$GPRMC,104943.00,A,4444.5391,N,03955.5416,E,000.00000,292.5,110822,,,A*53
$GPZDA,104943.00,11,08,2022,+00,00*4C
$GPGGA,104943.20,4444.5391,N,03955.5416,E,1,17,0.7,00143.6,M,0017.1,M,,*61
$GLGSA,A,3,065,071,072,087,088,,,,,,,,1.3,0.7,1.1*14
$GPGSA,A,3,001,003,008,010,021,022,027,032,,,,,1.3,0.7,1.1*3B
$GAGSA,A,3,107,119,126,133,,,,,,,,,1.3,0.7,1.1*2D
$GPRMC,104943.20,A,4444.5391,N,03955.5416,E,000.00000,289.9,110822,,,A*57
$GPGGA,104943.40,4444.5391,N,03955.5416,E,1,16,0.8,00143.6,M,0017.1,M,,*69
$GLGSA,A,3,065,071,072,087,088,,,,,,,,1.4,0.8,1.1*1C
$GPGSA,A,3,001,003,008,010,021,022,027,032,,,,,1.4,0.8,1.1*33
$GAGSA,A,3,107,119,133,,,,,,,,,,1.4,0.8,1.1*10
$GPRMC,104943.40,A,4444.5391,N,03955.5416,E,000.00000,291.0,110822,,,A*51
$GPGGA,104943.60,4444.5391,N,03955.5416,E,1,17,0.7,00143.6,M,0017.1,M,,*65
$GLGSA,A,3,065,071,072,087,088,,,,,,,,1.3,0.7,1.1*14
$GPGSA,A,3,001,003,008,010,021,022,027,032,,,,,1.3,0.7,1.1*3B
$GAGSA,A,3,107,119,126,133,,,,,,,,,1.3,0.7,1.1*2D
$GPRMC,104943.60,A,4444.5391,N,03955.5416,E,000.00000,292.1,110822,,,A*51
$GPGGA,104943.80,4444.5391,N,03955.5416,E,1,17,0.7,00143.6,M,0017.1,M,,*6B
$GLGSA,A,3,065,071,072,087,088,,,,,,,,1.3,0.7,1.1*14
$GPGSA,A,3,001,003,008,010,021,022,027,032,,,,,1.3,0.7,1.1*3B
$GAGSA,A,3,107,119,126,133,,,,,,,,,1.3,0.7,1.1*2D
$GPRMC,104943.80,A,4444.5391,N,03955.5416,E,000.00000,292.9,110822,,,A*57
$GPGGA,104944.00,4444.5391,N,03955.5416,E,1,17,0.7,00143.6,M,0017.1,M,,*64
$GLGSA,A,3,065,071,072,087,088,,,,,,,,1.3,0.7,1.1*14
$GPGSA,A,3,001,003,008,010,021,022,027,032,,,,,1.3,0.7,1.1*3B
$GAGSA,A,3,107,119,126,133,,,,,,,,,1.3,0.7,1.1*2D
$GPGSV,6,1,24,001,34,308,32,003,13,263,25,008,42,232,39,010,34,068,43*7D
$GPGSV,6,2,24,014,00,312,,021,62,304,38,022,66,149,41,023,05,076,22*79
$GPGSV,6,3,24,024,03,029,19,027,22,192,32,031,07,148,,032,64,079,46*75
$GPGSV,6,4,24,065,49,241,44,071,22,041,36,072,71,017,41,073,04,059,27*7B
$GPGSV,6,5,24,087,78,178,48,088,47,321,44,107,29,048,28,110,14,311,*70
$GPGSV,6,6,24,112,40,310,,119,44,204,30,126,31,132,22,133,83,143,38*77
$GPRMC,104944.00,A,4444.5391,N,03955.5416,E,000.00000,293.3,110822,,,A*53
$GPZDA,104944.00,11,08,2022,+00,00*4B
$GPGGA,104944.20,4444.5391,N,03955.5416,E,1,17,0.7,00143.6,M,0017.1,M,,*66
$GLGSA,A,3,065,071,072,087,088,,,,,,,,1.3,0.7,1.1*14
$GPGSA,A,3,001,003,008,010,021,022,027,032,,,,,1.3,0.7,1.1*3B
$GAGSA,A,3,107,119,126,133,,,,,,,,,1.3,0.7,1.1*2D
$GPRMC,104944.20,A,4444.5391,N,03955.5416,E,000.00000,292.6,110822,,,A*55
$GPGGA,104944.40,4444.5391,N,03955.5416,E,1,17,0.7,00143.6,M,0017.1,M,,*60
$GLGSA,A,3,065,071,072,087,088,,,,,,,,1.3,0.7,1.1*14
$GPGSA,A,3,001,003,008,010,021,022,027,032,,,,,1.3,0.7,1.1*3B
$GAGSA,A,3,107,119,126,133,,,,,,,,,1.3,0.7,1.1*2D
$GPRMC,104944.40,A,4444.5391,N,03955.5416,E,000.00000,292.0,110822,,,A*55
$GPGGA,104944.60,4444.5391,N,03955.5416,E,1,16,0.8,00143.6,M,0017.1,M,,*6C
$GLGSA,A,3,065,071,072,087,088,,,,,,,,1.4,0.8,1.1*1C
$GPGSA,A,3,001,003,008,010,021,022,027,032,,,,,1.4,0.8,1.1*33
$GAGSA,A,3,107,119,133,,,,,,,,,,1.4,0.8,1.1*10
$GPRMC,104944.60,A,4444.5391,N,03955.5416,E,000.00000,291.3,110822,,,A*57
$GPGGA,104944.80,4444.5391,N,03955.5416,E,1,17,0.7,00143.6,M,0017.1,M,,*6C
$GLGSA,A,3,065,071,072,087,088,,,,,,,,1.3,0.7,1.1*14
$GPGSA,A,3,001,003,008,010,021,022,027,032,,,,,1.3,0.7,1.1*3B
$GAGSA,A,3,107,119,126,133,,,,,,,,,1.3,0.7,1.1*2D
$GPRMC,104944.80,A,4444.5391,N,03955.5416,E,000.00000,282.1,110822,,,A*59
$GPGGA,104945.00,4444.5391,N,03955.5416,E,1,17,0.7,00143.6,M,0017.1,M,,*65
$GLGSA,A,3,065,071,072,087,088,,,,,,,,1.3,0.7,1.1*14
$GPGSA,A,3,001,003,008,010,021,022,027,032,,,,,1.3,0.7,1.1*3B
$GAGSA,A,3,107,119,126,133,,,,,,,,,1.3,0.7,1.1*2D
$GPGSV,6,1,24,001,34,308,32,003,13,263,26,008,42,232,39,010,34,068,43*7E
$GPGSV,6,2,24,014,00,312,,021,62,304,39,022,66,149,42,023,05,076,23*7A
$GPGSV,6,3,24,024,03,029,20,027,22,192,33,031,07,148,,032,64,079,46*7E
$GPGSV,6,4,24,065,49,241,44,071,22,041,36,072,71,017,41,073,04,059,27*7B
$GPGSV,6,5,24,087,78,178,48,088,47,321,44,107,29,048,28,110,14,311,*70
$GPGSV,6,6,24,112,40,310,,119,44,204,30,126,31,132,22,133,83,143,38*77
$GPRMC,104945.00,A,4444.5391,N,03955.5416,E,000.00000,287.4,110822,,,A*50
$GPZDA,104945.00,11,08,2022,+00,00*4A
$GPGGA,104945.20,4444.5391,N,03955.5416,E,1,17,0.7,00143.6,M,0017.1,M,,*67
$GLGSA,A,3,065,071,072,087,088,,,,,,,,1.3,0.7,1.1*14
$GPGSA,A,3,001,003,008,010,021,022,027,032,,,,,1.3,0.7,1.1*3B
$GAGSA,A,3,107,119,126,133,,,,,,,,,1.3,0.7,1.1*2D
$GPRMC,104945.20,A,4444.5391,N,03955.5416,E,000.00000,290.2,110822,,,A*52
$GPGGA,104945.40,4444.5391,N,03955.5416,E,1,17,0.7,00143.6,M,0017.1,M,,*61
$GLGSA,A,3,065,071,072,087,088,,,,,,,,1.3,0.7,1.1*14
$GPGSA,A,3,001,003,008,010,021,022,027,032,,,,,1.3,0.7,1.1*3B
$GAGSA,A,3,107,119,126,133,,,,,,,,,1.3,0.7,1.1*2D
$GPRMC,104945.40,A,4444.5391,N,03955.5416,E,000.00000,286.9,110822,,,A*58
$GPGGA,104945.60,4444.5391,N,03955.5416,E,1,17,0.7,00143.6,M,0017.1,M,,*63
$GLGSA,A,3,065,071,072,087,088,,,,,,,,1.3,0.7,1.1*14
$GPGSA,A,3,001,003,008,010,021,022,027,032,,,,,1.3,0.7,1.1*3B
$GAGSA,A,3,107,119,126,133,,,,,,,,,1.3,0.7,1.1*2D
$GPRMC,104945.60,A,4444.5391,N,03955.5416,E,000.00000,285.4,110822,,,A*54
$GPGGA,104945.80,4444.5391,N,03955.5416,E,1,17,0.7,00143.6,M,0017.1,M,,*6D
$GLGSA,A,3,065,071,072,087,088,,,,,,,,1.3,0.7,1.1*14
$GPGSA,A,3,001,003,008,010,021,022,027,032,,,,,1.3,0.7,1.1*3B
$GAGSA,A,3,107,119,126,133,,,,,,,,,1.3,0.7,1.1*2D
$GPRMC,104945.80,A,4444.5391,N,03955.5416,E,000.00000,286.5,110822,,,A*58
$GPGGA,104946.00,4444.5391,N,03955.5416,E,1,17,0.7,00143.6,M,0017.1,M,,*66
$GLGSA,A,3,065,071,072,087,088,,,,,,,,1.3,0.7,1.1*14
$GPGSA,A,3,001,003,008,010,021,022,027,032,,,,,1.3,0.7,1.1*3B
$GAGSA,A,3,107,119,126,133,,,,,,,,,1.3,0.7,1.1*2D
$GPGSV,6,1,24,001,34,308,31,003,13,263,26,008,42,232,39,010,34,068,43*7D
$GPGSV,6,2,24,014,00,312,,021,62,304,39,022,66,149,41,023,05,076,22*78
$GPGSV,6,3,24,024,03,029,20,027,22,192,32,031,07,148,,032,64,079,46*7F
$GPGSV,6,4,24,065,49,241,44,071,22,041,36,072,71,017,41,073,04,059,28*74
$GPGSV,6,5,24,087,78,178,48,088,47,321,44,107,29,048,28,110,14,311,*70
$GPGSV,6,6,24,112,40,310,,119,44,204,30,126,31,132,21,133,83,143,38*74
$GPRMC,104946.00,A,4444.5391,N,03955.5416,E,000.00000,288.6,110822,,,A*5E
$GPZDA,104946.00,11,08,2022,+00,00*49
$GPGGA,104946.20,4444.5391,N,03955.5416,E,1,17,0.7,00143.6,M,0017.1,M,,*64
$GLGSA,A,3,065,071,072,087,088,,,,,,,,1.3,0.7,1.1*14
$GPGSA,A,3,001,003,008,010,021,022,027,032,,,,,1.3,0.7,1.1*3B
$GAGSA,A,3,107,119,126,133,,,,,,,,,1.3,0.7,1.1*2D
$GPRMC,104946.20,A,4444.5391,N,03955.5416,E,000.00000,289.5,110822,,,A*5E
$GPGGA,104946.40,4444.5391,N,03955.5416,E,1,17,0.7,00143.6,M,0017.1,M,,*62
$GLGSA,A,3,065,071,072,087,088,,,,,,,,1.3,0.7,1.1*14
$GPGSA,A,3,001,003,008,010,021,022,027,032,,,,,1.3,0.7,1.1*3B
$GAGSA,A,3,107,119,126,133,,,,,,,,,1.3,0.7,1.1*2D
$GPRMC,104946.40,A,4444.5391,N,03955.5416,E,000.00000,290.7,110822,,,A*52
$GPGGA,104946.60,4444.5391,N,03955.5416,E,1,17,0.7,00143.6,M,0017.1,M,,*60
$GLGSA,A,3,065,071,072,087,088,,,,,,,,1.3,0.7,1.1*14
$GPGSA,A,3,001,003,008,010,021,022,027,032,,,,,1.3,0.7,1.1*3B
$GAGSA,A,3,107,119,126,133,,,,,,,,,1.3,0.7,1.1*2D
$GPRMC,104946.60,A,4444.5391,N,03955.5416,E,000.00000,292.1,110822,,,A*54
$GPGGA,104946.80,4444.5391,N,03955.5416,E,1,17,0.7,00143.6,M,0017.1,M,,*6E
$GLGSA,A,3,065,071,072,087,088,,,,,,,,1.3,0.7,1.1*14
$GPGSA,A,3,001,003,008,010,021,022,027,032,,,,,1.3,0.7,1.1*3B
$GAGSA,A,3,107,119,126,133,,,,,,,,,1.3,0.7,1.1*2D
$GPRMC,104946.80,A,4444.5391,N,03955.5416,E,000.00000,292.9,110822,,,A*52
$GPGGA,104947.00,4444.5391,N,03955.5416,E,1,17,0.7,00143.6,M,0017.1,M,,*67
$GLGSA,A,3,065,071,072,087,088,,,,,,,,1.3,0.7,1.1*14
$GPGSA,A,3,001,003,008,010,021,022,027,032,,,,,1.3,0.7,1.1*3B
$GAGSA,A,3,107,119,126,133,,,,,,,,,1.3,0.7,1.1*2D
$GPGSV,6,1,24,001,34,308,31,003,13,263,26,008,42,232,39,010,34,068,43*7D
$GPGSV,6,2,24,014,00,312,,021,62,304,38,022,66,149,41,023,05,076,22*79
$GPGSV,6,3,24,024,03,029,20,027,22,192,32,031,07,148,,032,64,079,46*7F
$GPGSV,6,4,24,065,49,241,44,071,22,041,36,072,71,017,41,073,04,059,28*74
$GPGSV,6,5,24,087,78,178,48,088,47,321,44,107,29,048,28,110,14,311,*70
$GPGSV,6,6,24,112,40,310,,119,44,204,29,126,31,132,21,133,83,143,37*73
$GPRMC,104947.00,A,4444.5391,N,03955.5416,E,000.00000,293.3,110822,,,A*50
$GPZDA,104947.00,11,08,2022,+00,00*48
$GPGGA,104947.20,4444.5391,N,03955.5416,E,1,17,0.7,00143.6,M,0017.1,M,,*65
$GLGSA,A,3,065,071,072,087,088,,,,,,,,1.3,0.7,1.1*14
$GPGSA,A,3,001,003,008,010,021,022,027,032,,,,,1.3,0.7,1.1*3B
$GAGSA,A,3,107,119,126,133,,,,,,,,,1.3,0.7,1.1*2D
$GPRMC,104947.20,A,4444.5391,N,03955.5416,E,000.00000,293.5,110822,,,A*54
$GPGGA,104947.40,4444.5391,N,03955.5416,E,1,17,0.7,00143.6,M,0017.1,M,,*63
$GLGSA,A,3,065,071,072,087,088,,,,,,,,1.3,0.7,1.1*14
$GPGSA,A,3,001,003,008,010,021,022,027,032,,,,,1.3,0.7,1.1*3B
$GAGSA,A,3,107,119,126,133,,,,,,,,,1.3,0.7,1.1*2D
$GPRMC,104947.40,A,4444.5391,N,03955.5416,E,000.00000,293.7,110822,,,A*50
$GPGGA,104947.60,4444.5391,N,03955.5416,E,1,17,0.7,00143.6,M,0017.1,M,,*61
$GLGSA,A,3,065,071,072,087,088,,,,,,,,1.3,0.7,1.1*14
$GPGSA,A,3,001,003,008,010,021,022,027,032,,,,,1.3,0.7,1.1*3B
$GAGSA,A,3,107,119,126,133,,,,,,,,,1.3,0.7,1.1*2D
$GPRMC,104947.60,A,4444.5391,N,03955.5416,E,000.00000,292.2,110822,,,A*56
$GPGGA,104947.80,4444.5391,N,03955.5416,E,1,17,0.7,00143.6,M,0017.1,M,,*6F
$GLGSA,A,3,065,071,072,087,088,,,,,,,,1.3,0.7,1.1*14
$GPGSA,A,3,001,003,008,010,021,022,027,032,,,,,1.3,0.7,1.1*3B
$GAGSA,A,3,107,119,126,133,,,,,,,,,1.3,0.7,1.1*2D
$GPRMC,104947.80,A,4444.5391,N,03955.5416,E,000.00000,291.3,110822,,,A*5A
$GPGGA,104948.00,4444.5391,N,03955.5416,E,1,17,0.7,00143.6,M,0017.1,M,,*68
$GLGSA,A,3,065,071,072,087,088,,,,,,,,1.3,0.7,1.1*14
$GPGSA,A,3,001,003,008,010,021,022,027,032,,,,,1.3,0.7,1.1*3B
$GAGSA,A,3,107,119,126,133,,,,,,,,,1.3,0.7,1.1*2D
$GPGSV,6,1,24,001,34,308,31,003,13,263,26,008,42,232,39,010,34,068,43*7D
$GPGSV,6,2,24,014,00,312,,021,62,304,39,022,66,149,41,023,05,076,22*78
$GPGSV,6,3,24,024,03,029,20,027,22,192,33,031,07,148,,032,64,079,46*7E
$GPGSV,6,4,24,065,49,241,44,071,22,041,36,072,71,017,41,073,04,059,27*7B
$GPGSV,6,5,24,087,78,178,48,088,47,321,44,107,29,048,28,110,14,311,*70
$GPGSV,6,6,24,112,40,310,,119,44,204,30,126,31,132,22,133,83,143,38*77
$GPRMC,104948.00,A,4444.5391,N,03955.5416,E,000.00000,292.4,110822,,,A*59
$GPZDA,104948.00,11,08,2022,+00,00*47
$GPGGA,104948.20,4444.5391,N,03955.5416,E,1,17,0.7,00143.6,M,0017.1,M,,*6A
$GLGSA,A,3,065,071,072,087,088,,,,,,,,1.3,0.7,1.1*14
$GPGSA,A,3,001,003,008,010,021,022,027,032,,,,,1.3,0.7,1.1*3B
$GAGSA,A,3,107,119,126,133,,,,,,,,,1.3,0.7,1.1*2D
$GPRMC,104948.20,A,4444.5391,N,03955.5416,E,000.00000,290.1,110822,,,A*5C
$GPGGA,104948.40,4444.5391,N,03955.5416,E,1,17,0.7,00143.6,M,0017.1,M,,*6C
$GLGSA,A,3,065,071,072,087,088,,,,,,,,1.3,0.7,1.1*14
$GPGSA,A,3,001,003,008,010,021,022,027,032,,,,,1.3,0.7,1.1*3B
$GAGSA,A,3,107,119,126,133,,,,,,,,,1.3,0.7,1.1*2D
$GPRMC,104948.40,A,4444.5391,N,03955.5416,E,000.00000,290.0,110822,,,A*5B
$GPGGA,104948.60,4444.5391,N,03955.5416,E,1,17,0.7,00143.6,M,0017.1,M,,*6E
$GLGSA,A,3,065,071,072,087,088,,,,,,,,1.3,0.7,1.1*14
$GPGSA,A,3,001,003,008,010,021,022,027,032,,,,,1.3,0.7,1.1*3B
$GAGSA,A,3,107,119,126,133,,,,,,,,,1.3,0.7,1.1*2D
$GPRMC,104948.60,A,4444.5391,N,03955.5416,E,000.00000,291.6,110822,,,A*5E
$GPGGA,104948.80,4444.5391,N,03955.5416,E,1,17,0.7,00143.6,M,0017.1,M,,*60
$GLGSA,A,3,065,071,072,087,088,,,,,,,,1.3,0.7,1.1*14
$GPGSA,A,3,001,003,008,010,021,022,027,032,,,,,1.3,0.7,1.1*3B
$GAGSA,A,3,107,119,126,133,,,,,,,,,1.3,0.7,1.1*2D
$GPRMC,104948.80,A,4444.5391,N,03955.5416,E,000.00000,290.0,110822,,,A*57
$GPGGA,104949.00,4444.5391,N,03955.5416,E,1,17,0.7,00143.6,M,0017.1,M,,*69
$GLGSA,A,3,065,071,072,087,088,,,,,,,,1.3,0.7,1.1*14
$GPGSA,A,3,001,003,008,010,021,022,027,032,,,,,1.3,0.7,1.1*3B
$GAGSA,A,3,107,119,126,133,,,,,,,,,1.3,0.7,1.1*2D
$GPGSV,6,1,24,001,34,308,32,003,13,263,26,008,42,232,39,010,34,068,43*7E
$GPGSV,6,2,24,014,00,312,,021,62,304,39,022,66,149,41,023,05,076,23*79
$GPGSV,6,3,24,024,03,029,21,027,22,192,33,031,07,147,,032,64,079,46*70
$GPGSV,6,4,24,065,49,241,44,071,22,041,37,072,71,017,41,073,04,059,27*7A
$GPGSV,6,5,24,087,78,178,48,088,47,321,44,107,29,048,28,110,14,311,*70
$GPGSV,6,6,24,112,40,310,,119,44,204,30,126,31,132,22,133,83,143,38*77
$GPRMC,104949.00,A,4444.5391,N,03955.5416,E,000.00000,290.9,110822,,,A*57
$GPZDA,104949.00,11,08,2022,+00,00*46
$GPGGA,104949.20,4444.5391,N,03955.5416,E,1,17,0.7,00143.6,M,0017.1,M,,*6B
$GLGSA,A,3,065,071,072,087,088,,,,,,,,1.3,0.7,1.1*14
$GPGSA,A,3,001,003,008,010,021,022,027,032,,,,,1.3,0.7,1.1*3B
$GAGSA,A,3,107,119,126,133,,,,,,,,,1.3,0.7,1.1*2D
$GPRMC,104949.20,A,4444.5391,N,03955.5416,E,000.00000,292.2,110822,,,A*5C
$GPGGA,104949.40,4444.5391,N,03955.5416,E,1,17,0.7,00143.6,M,0017.1,M,,*6D
$GLGSA,A,3,065,071,072,087,088,,,,,,,,1.3,0.7,1.1*14
$GPGSA,A,3,001,003,008,010,021,022,027,032,,,,,1.3,0.7,1.1*3B
$GAGSA,A,3,107,119,126,133,,,,,,,,,1.3,0.7,1.1*2D
$GPRMC,104949.40,A,4444.5391,N,03955.5416,E,000.00000,292.9,110822,,,A*51
$GPGGA,104949.60,4444.5391,N,03955.5416,E,1,17,0.7,00143.6,M,0017.1,M,,*6F
$GLGSA,A,3,065,071,072,087,088,,,,,,,,1.3,0.7,1.1*14
$GPGSA,A,3,001,003,008,010,021,022,027,032,,,,,1.3,0.7,1.1*3B
$GAGSA,A,3,107,119,126,133,,,,,,,,,1.3,0.7,1.1*2D
$GPRMC,104949.60,A,4444.5391,N,03955.5416,E,000.00000,293.3,110822,,,A*58
$GPGGA,104949.80,4444.5391,N,03955.5416,E,1,17,0.7,00143.6,M,0017.1,M,,*61
$GLGSA,A,3,065,071,072,087,088,,,,,,,,1.3,0.7,1.1*14
$GPGSA,A,3,001,003,008,010,021,022,027,032,,,,,1.3,0.7,1.1*3B
$GAGSA,A,3,107,119,126,133,,,,,,,,,1.3,0.7,1.1*2D
$GPRMC,104949.80,A,4444.5391,N,03955.5416,E,000.00000,293.5,110822,,,A*50
$GPGGA,104950.00,4444.5391,N,03955.5416,E,1,17,0.7,00143.6,M,0017.1,M,,*61
$GLGSA,A,3,065,071,072,087,088,,,,,,,,1.3,0.7,1.1*14
$GPGSA,A,3,001,003,008,010,021,022,027,032,,,,,1.3,0.7,1.1*3B
$GAGSA,A,3,107,119,126,133,,,,,,,,,1.3,0.7,1.1*2D
$GPGSV,6,1,24,001,34,308,32,003,13,263,26,008,42,232,39,010,34,068,43*7E
$GPGSV,6,2,24,014,00,312,,021,62,304,39,022,66,149,41,023,05,076,24*7E
$GPGSV,6,3,24,024,03,029,21,027,22,192,33,031,07,147,,032,64,078,46*71
$GPGSV,6,4,24,065,49,241,44,071,22,041,37,072,71,017,41,073,04,059,27*7A
$GPGSV,6,5,24,087,78,178,48,088,47,321,44,107,29,048,28,110,14,311,*70
$GPGSV,6,6,24,112,40,310,,119,44,204,30,126,31,132,22,133,83,143,38*77
$GPRMC,104950.00,A,4444.5391,N,03955.5416,E,000.00000,293.7,110822,,,A*52
$GPZDA,104950.00,11,08,2022,+00,00*4E
$GPGGA,104950.20,4444.5391,N,03955.5416,E,1,17,0.7,00143.6,M,0017.1,M,,*63
$GLGSA,A,3,065,071,072,087,088,,,,,,,,1.3,0.7,1.1*14
$GPGSA,A,3,001,003,008,010,021,022,027,032,,,,,1.3,0.7,1.1*3B
$GAGSA,A,3,107,119,126,133,,,,,,,,,1.3,0.7,1.1*2D
$GPRMC,104950.20,A,4444.5391,N,03955.5416,E,000.00000,293.6,110822,,,A*51
$GPGGA,104950.40,4444.5391,N,03955.5416,E,1,17,0.7,00143.6,M,0017.1,M,,*65
$GLGSA,A,3,065,071,072,087,088,,,,,,,,1.3,0.7,1.1*14
$GPGSA,A,3,001,003,008,010,021,022,027,032,,,,,1.3,0.7,1.1*3B
$GAGSA,A,3,107,119,126,133,,,,,,,,,1.3,0.7,1.1*2D
$GPRMC,104950.40,A,4444.5391,N,03955.5416,E,000.00000,293.7,110822,,,A*56
$GPGGA,104950.60,4444.5391,N,03955.5416,E,1,17,0.7,00143.6,M,0017.1,M,,*67
$GLGSA,A,3,065,071,072,087,088,,,,,,,,1.3,0.7,1.1*14
$GPGSA,A,3,001,003,008,010,021,022,027,032,,,,,1.3,0.7,1.1*3B
$GAGSA,A,3,107,119,126,133,,,,,,,,,1.3,0.7,1.1*2D
$GPRMC,104950.60,A,4444.5391,N,03955.5416,E,000.00000,293.8,110822,,,A*5B
$GPGGA,104950.80,4444.5391,N,03955.5416,E,1,17,0.7,00143.6,M,0017.1,M,,*69
$GLGSA,A,3,065,071,072,087,088,,,,,,,,1.3,0.7,1.1*14
$GPGSA,A,3,001,003,008,010,021,022,027,032,,,,,1.3,0.7,1.1*3B
$GAGSA,A,3,107,119,126,133,,,,,,,,,1.3,0.7,1.1*2D
$GPRMC,104950.80,A,4444.5391,N,03955.5416,E,000.00000,293.8,110822,,,A*55
$GPGGA,104951.00,4444.5391,N,03955.5416,E,1,17,0.7,00143.6,M,0017.1,M,,*60
$GLGSA,A,3,065,071,072,087,088,,,,,,,,1.3,0.7,1.1*14
$GPGSA,A,3,001,003,008,010,021,022,027,032,,,,,1.3,0.7,1.1*3B
$GAGSA,A,3,107,119,126,133,,,,,,,,,1.3,0.7,1.1*2D
$GPGSV,6,1,24,001,34,308,32,003,13,263,26,008,42,232,39,010,34,068,43*7E
$GPGSV,6,2,24,014,00,312,,021,62,304,39,022,66,149,41,023,05,076,23*79
$GPGSV,6,3,24,024,03,029,21,027,22,192,33,031,07,147,,032,64,078,46*71
$GPGSV,6,4,24,065,49,241,44,071,22,041,37,072,71,017,41,073,04,059,27*7A
$GPGSV,6,5,24,087,78,178,48,088,47,321,44,107,29,048,28,110,14,311,*70
$GPGSV,6,6,24,112,40,310,,119,44,204,30,126,31,132,22,133,83,143,38*77
$GPRMC,104951.00,A,4444.5391,N,03955.5416,E,000.00000,293.6,110822,,,A*52
$GPZDA,104951.00,11,08,2022,+00,00*4F
$GPGGA,104951.20,4444.5391,N,03955.5416,E,1,17,0.7,00143.6,M,0017.1,M,,*62
$GLGSA,A,3,065,071,072,087,088,,,,,,,,1.3,0.7,1.1*14
$GPGSA,A,3,001,003,008,010,021,022,027,032,,,,,1.3,0.7,1.1*3B
$GAGSA,A,3,107,119,126,133,,,,,,,,,1.3,0.7,1.1*2D
$GPRMC,104951.20,A,4444.5391,N,03955.5416,E,000.00000,293.0,110822,,,A*56
$GPGGA,104951.40,4444.5391,N,03955.5416,E,1,16,0.8,00143.6,M,0017.1,M,,*6A
$GLGSA,A,3,065,071,072,087,088,,,,,,,,1.4,0.8,1.1*1C
$GPGSA,A,3,001,003,008,010,021,022,027,032,,,,,1.4,0.8,1.1*33
$GAGSA,A,3,107,119,133,,,,,,,,,,1.4,0.8,1.1*10
$GPRMC,104951.40,A,4444.5391,N,03955.5416,E,000.00000,293.2,110822,,,A*52
$GPGGA,104951.60,4444.5391,N,03955.5416,E,1,17,0.7,00143.6,M,0017.1,M,,*66
$GLGSA,A,3,065,071,072,087,088,,,,,,,,1.3,0.7,1.1*14
$GPGSA,A,3,001,003,008,010,021,022,027,032,,,,,1.3,0.7,1.1*3B
$GAGSA,A,3,107,119,126,133,,,,,,,,,1.3,0.7,1.1*2D
$GPRMC,104951.60,A,4444.5391,N,03955.5416,E,000.00000,293.3,110822,,,A*51
$GPGGA,104951.80,4444.5391,N,03955.5416,E,1,17,0.7,00143.6,M,0017.1,M,,*68
$GLGSA,A,3,065,071,072,087,088,,,,,,,,1.3,0.7,1.1*14
$GPGSA,A,3,001,003,008,010,021,022,027,032,,,,,1.3,0.7,1.1*3B
$GAGSA,A,3,107,119,126,133,,,,,,,,,1.3,0.7,1.1*2D
$GPRMC,104951.80,A,4444.5391,N,03955.5416,E,000.00000,292.9,110822,,,A*54
$GPGGA,104952.00,4444.5391,N,03955.5416,E,1,16,0.8,00143.6,M,0017.1,M,,*6D
$GLGSA,A,3,065,071,072,087,088,,,,,,,,1.4,0.8,1.1*1C
$GPGSA,A,3,001,003,008,010,021,022,027,032,,,,,1.4,0.8,1.1*33
$GAGSA,A,3,107,119,133,,,,,,,,,,1.4,0.8,1.1*10
$GPGSV,6,1,24,001,34,308,31,003,13,263,25,008,42,232,39,010,34,068,43*7E
$GPGSV,6,2,24,014,00,312,,021,62,304,39,022,66,149,41,023,05,076,22*78
$GPGSV,6,3,24,024,03,029,21,027,22,192,33,031,07,147,,032,64,078,46*71
$GPGSV,6,4,24,065,49,241,44,071,22,041,37,072,71,017,41,073,04,059,28*75
$GPGSV,6,5,24,087,78,178,48,088,47,321,44,107,29,048,29,110,14,311,*71
$GPGSV,6,6,24,112,40,310,,119,44,204,30,126,31,132,22,133,83,143,38*77
$GPRMC,104952.00,A,4444.5391,N,03955.5416,E,000.00000,292.5,110822,,,A*53
$GPZDA,104952.00,11,08,2022,+00,00*4C
$GPGGA,104952.20,4444.5391,N,03955.5416,E,1,17,0.7,00143.6,M,0017.1,M,,*61
$GLGSA,A,3,065,071,072,087,088,,,,,,,,1.3,0.7,1.1*14
$GPGSA,A,3,001,003,008,010,021,022,027,032,,,,,1.3,0.7,1.1*3B
$GAGSA,A,3,107,119,126,133,,,,,,,,,1.3,0.7,1.1*2D
$GPRMC,104952.20,A,4444.5391,N,03955.5416,E,000.00000,289.4,110822,,,A*5A
$GPGGA,104952.40,4444.5391,N,03955.5416,E,1,17,0.7,00143.6,M,0017.1,M,,*67
$GLGSA,A,3,065,071,072,087,088,,,,,,,,1.3,0.7,1.1*14
$GPGSA,A,3,001,003,008,010,021,022,027,032,,,,,1.3,0.7,1.1*3B
$GAGSA,A,3,107,119,126,133,,,,,,,,,1.3,0.7,1.1*2D
$GPRMC,104952.40,A,4444.5391,N,03955.5416,E,000.00000,290.8,110822,,,A*58
$GPGGA,104952.60,4444.5391,N,03955.5416,E,1,17,0.7,00143.6,M,0017.1,M,,*65
$GLGSA,A,3,065,071,072,087,088,,,,,,,,1.3,0.7,1.1*14
$GPGSA,A,3,001,003,008,010,021,022,027,032,,,,,1.3,0.7,1.1*3B
$GAGSA,A,3,107,119,126,133,,,,,,,,,1.3,0.7,1.1*2D
$GPRMC,104952.60,A,4444.5391,N,03955.5416,E,000.00000,286.8,110822,,,A*5D
$GPGGA,104952.80,4444.5391,N,03955.5416,E,1,17,0.7,00143.6,M,0017.1,M,,*6B
$GLGSA,A,3,065,071,072,087,088,,,,,,,,1.3,0.7,1.1*14
$GPGSA,A,3,001,003,008,010,021,022,027,032,,,,,1.3,0.7,1.1*3B
$GAGSA,A,3,107,119,126,133,,,,,,,,,1.3,0.7,1.1*2D
$GPRMC,104952.80,A,4444.5391,N,03955.5416,E,000.00000,279.6,110822,,,A*5D
$GPGGA,104953.00,4444.5391,N,03955.5416,E,1,16,0.8,00143.6,M,0017.1,M,,*6C
$GLGSA,A,3,065,071,072,087,088,,,,,,,,1.3,0.8,1.1*1B
$GPGSA,A,3,001,003,008,010,021,022,027,032,,,,,1.3,0.8,1.1*34
$GAGSA,A,3,119,126,133,,,,,,,,,,1.3,0.8,1.1*14
$GPGSV,6,1,24,001,34,308,31,003,13,263,25,008,42,232,39,010,34,068,43*7E
$GPGSV,6,2,24,014,00,312,,021,62,304,39,022,66,149,41,023,05,076,22*78
$GPGSV,6,3,24,024,03,029,21,027,22,192,32,031,07,147,,032,64,078,46*70
$GPGSV,6,4,24,065,49,241,44,071,22,041,37,072,71,017,41,073,04,059,28*75
$GPGSV,6,5,24,087,78,178,48,088,47,321,44,107,29,048,28,110,14,311,*70
$GPGSV,6,6,24,112,40,310,,119,44,204,30,126,31,132,23,133,83,143,37*79
$GPRMC,104953.00,A,4444.5391,N,03955.5416,E,000.00000,257.3,110822,,,A*5D
$GPZDA,104953.00,11,08,2022,+00,00*4D
$GPGGA,104953.20,4444.5391,N,03955.5416,E,1,17,0.7,00143.6,M,0017.1,M,,*60
$GLGSA,A,3,065,071,072,087,088,,,,,,,,1.3,0.7,1.1*14
$GPGSA,A,3,001,003,008,010,021,022,027,032,,,,,1.3,0.7,1.1*3B
$GAGSA,A,3,107,119,126,133,,,,,,,,,1.3,0.7,1.1*2D
$GPRMC,104953.20,A,4444.5391,N,03955.5416,E,000.00000,264.8,110822,,,A*54
$GPGGA,104953.40,4444.5391,N,03955.5416,E,1,17,0.7,00143.6,M,0017.1,M,,*66
$GLGSA,A,3,065,071,072,087,088,,,,,,,,1.3,0.7,1.1*14
$GPGSA,A,3,001,003,008,010,021,022,027,032,,,,,1.3,0.7,1.1*3B
$GAGSA,A,3,107,119,126,133,,,,,,,,,1.3,0.7,1.1*2D
$GPRMC,104953.40,A,4444.5391,N,03955.5416,E,000.00000,263.8,110822,,,A*55
$GPGGA,104953.60,4444.5391,N,03955.5416,E,1,16,0.8,00143.6,M,0017.1,M,,*6A
$GLGSA,A,3,065,071,072,087,088,,,,,,,,1.4,0.8,1.1*1C
$GPGSA,A,3,001,003,008,010,021,022,027,032,,,,,1.4,0.8,1.1*33
$GAGSA,A,3,107,119,133,,,,,,,,,,1.4,0.8,1.1*10
$GPRMC,104953.60,A,4444.5391,N,03955.5416,E,000.00000,263.5,110822,,,A*5A
$GPGGA,104953.80,4444.5391,N,03955.5416,E,1,17,0.7,00143.6,M,0017.1,M,,*6A
$GLGSA,A,3,065,071,072,087,088,,,,,,,,1.3,0.7,1.1*14
$GPGSA,A,3,001,003,008,010,021,022,027,032,,,,,1.3,0.7,1.1*3B
$GAGSA,A,3,107,119,126,133,,,,,,,,,1.3,0.7,1.1*2D
