$GPGGA,071024.40,4444.2214,N,03955.8563,E,1,19,0.6,00142.9,M,0017.2,M,,*6B
$GLGSA,A,3,078,079,081,082,087,088,,,,,,,1.0,0.6,0.8*2C
$GPGSA,A,3,002,006,012,019,020,022,024,025,029,032,,,1.0,0.6,0.8*3B
$GAGSA,A,3,111,124,125,,,,,,,,,,1.0,0.6,0.8*1C
$GPRMC,071024.40,A,4444.2214,N,03955.8563,E,000.00000,156.0,210522,,,A*59
$GPGGA,071024.60,4444.2214,N,03955.8563,E,1,19,0.6,00142.9,M,0017.2,M,,*69
$GLGSA,A,3,078,079,081,082,087,088,,,,,,,1.0,0.6,0.8*2C
$GPGSA,A,3,002,006,012,019,020,022,024,025,029,032,,,1.0,0.6,0.8*3B
$GAGSA,A,3,111,124,125,,,,,,,,,,1.0,0.6,0.8*1C
$GPRMC,071024.60,A,4444.2214,N,03955.8563,E,000.00000,156.0,210522,,,A*5B
$GPGGA,071024.80,4444.2214,N,03955.8563,E,1,19,0.6,00142.9,M,0017.2,M,,*67
$GLGSA,A,3,078,079,081,082,087,088,,,,,,,1.0,0.6,0.8*2C
$GPGSA,A,3,002,006,012,019,020,022,024,025,029,032,,,1.0,0.6,0.8*3B
$GAGSA,A,3,111,124,125,,,,,,,,,,1.0,0.6,0.8*1C
$GPRMC,071024.80,A,4444.2214,N,03955.8563,E,000.00000,156.0,210522,,,A*55
$GPGGA,071025.00,4444.2214,N,03955.8563,E,1,19,0.6,00142.9,M,0017.2,M,,*6E
$GLGSA,A,3,078,079,081,082,087,088,,,,,,,1.0,0.6,0.8*2C
$GPGSA,A,3,002,006,012,019,020,022,024,025,029,032,,,1.0,0.6,0.8*3B
$GAGSA,A,3,111,124,125,,,,,,,,,,1.0,0.6,0.8*1C
$GPGSV,8,1,31,002,60,128,50,006,40,057,45,011,54,124,48,012,79,027,53*7D
$GPGSV,8,2,31,019,15,056,40,020,07,130,35,022,11,312,46,024,41,191,51*77
$GPGSV,8,3,31,025,42,300,46,029,20,243,37,032,12,291,43,070,02,314,*74
$GPGSV,8,4,31,071,04,359,27,077,02,135,,078,56,127,51,079,64,329,51*76
$GPGSV,8,5,31,081,65,206,53,082,15,211,47,087,10,033,41,088,55,039,53*76
$GPGSV,8,6,31,102,14,300,,103,07,263,,108,08,311,,110,65,113,48*7C
$GPGSV,8,7,31,111,52,168,45,112,51,064,40,124,54,107,44,125,63,311,46*7E
$GPGSV,8,8,31,131,07,115,,133,07,034,,136,10,198,38*75
$GPRMC,071025.00,A,4444.2214,N,03955.8563,E,000.00000,133.2,210522,,,A*5D
$GPZDA,071025.00,21,05,2022,+00,00*48
$GPGGA,071025.20,4444.2214,N,03955.8563,E,1,19,0.6,00142.9,M,0017.2,M,,*6C
$GLGSA,A,3,078,079,081,082,087,088,,,,,,,1.0,0.6,0.8*2C
$GPGSA,A,3,002,006,012,019,020,022,024,025,029,032,,,1.0,0.6,0.8*3B
$GAGSA,A,3,111,124,125,,,,,,,,,,1.0,0.6,0.8*1C
$GPRMC,071025.20,A,4444.2214,N,03955.8563,E,000.00000,134.6,210522,,,A*5C
$GPGGA,071025.40,4444.2214,N,03955.8563,E,1,19,0.6,00142.9,M,0017.2,M,,*6A
$GLGSA,A,3,078,079,081,082,087,088,,,,,,,1.0,0.6,0.8*2C
$GPGSA,A,3,002,006,012,019,020,022,024,025,029,032,,,1.0,0.6,0.8*3B
$GAGSA,A,3,111,124,125,,,,,,,,,,1.0,0.6,0.8*1C
$GPRMC,071025.40,A,4444.2214,N,03955.8563,E,000.00000,144.2,210522,,,A*59
$GPGGA,071025.60,4444.2214,N,03955.8563,E,1,19,0.6,00142.9,M,0017.2,M,,*68
$GLGSA,A,3,078,079,081,082,087,088,,,,,,,1.0,0.6,0.8*2C
$GPGSA,A,3,002,006,012,019,020,022,024,025,029,032,,,1.0,0.6,0.8*3B
$GAGSA,A,3,111,124,125,,,,,,,,,,1.0,0.6,0.8*1C
$GPRMC,071025.60,A,4444.2214,N,03955.8563,E,000.00000,149.6,210522,,,A*52
$GPGGA,071025.80,4444.2214,N,03955.8563,E,1,19,0.6,00142.9,M,0017.2,M,,*66
$GLGSA,A,3,078,079,081,082,087,088,,,,,,,1.0,0.6,0.8*2C
$GPGSA,A,3,002,006,012,019,020,022,024,025,029,032,,,1.0,0.6,0.8*3B
$GAGSA,A,3,111,124,125,,,,,,,,,,1.0,0.6,0.8*1C
$GPRMC,071025.80,A,4444.2214,N,03955.8563,E,000.00000,150.3,210522,,,A*51
$GPGGA,071026.00,4444.2214,N,03955.8563,E,1,19,0.6,00142.9,M,0017.2,M,,*6D
$GLGSA,A,3,078,079,081,082,087,088,,,,,,,1.0,0.6,0.8*2C
$GPGSA,A,3,002,006,012,019,020,022,024,025,029,032,,,1.0,0.6,0.8*3B
$GAGSA,A,3,111,124,125,,,,,,,,,,1.0,0.6,0.8*1C
$GPGSV,8,1,31,002,60,128,50,006,40,057,45,011,54,124,47,012,79,027,53*72
$GPGSV,8,2,31,019,15,056,39,020,07,130,36,022,11,312,46,024,41,191,50*7B
$GPGSV,8,3,31,025,42,301,46,029,20,243,37,032,12,291,42,070,02,314,*74
$GPGSV,8,4,31,071,04,359,27,077,02,135,,078,56,127,51,079,64,329,51*76
$GPGSV,8,5,31,081,65,206,53,082,15,211,47,087,10,033,42,088,55,039,53*75
$GPGSV,8,6,31,102,14,300,,103,07,263,,108,08,311,,110,65,113,48*7C
$GPGSV,8,7,31,111,52,168,45,112,51,064,40,124,54,107,44,125,63,311,46*7E
$GPGSV,8,8,31,131,07,115,,133,07,034,,136,10,198,38*75
$GPRMC,071026.00,A,4444.2214,N,03955.8563,E,000.00000,089.7,210522,,,A*5B
$GPZDA,071026.00,21,05,2022,+00,00*4B
$GPGGA,071026.20,4444.2214,N,03955.8563,E,1,19,0.6,00142.9,M,0017.2,M,,*6F
$GLGSA,A,3,078,079,081,082,087,088,,,,,,,1.0,0.6,0.8*2C
$GPGSA,A,3,002,006,012,019,020,022,024,025,029,032,,,1.0,0.6,0.8*3B
$GAGSA,A,3,111,124,125,,,,,,,,,,1.0,0.6,0.8*1C
$GPRMC,071026.20,A,4444.2214,N,03955.8563,E,000.00000,084.7,210522,,,A*54
$GPGGA,071026.40,4444.2214,N,03955.8563,E,1,19,0.6,00142.9,M,0017.2,M,,*69
$GLGSA,A,3,078,079,081,082,087,088,,,,,,,1.0,0.6,0.8*2C
$GPGSA,A,3,002,006,012,019,020,022,024,025,029,032,,,1.0,0.6,0.8*3B
$GAGSA,A,3,111,124,125,,,,,,,,,,1.0,0.6,0.8*1C
$GPRMC,071026.40,A,4444.2214,N,03955.8563,E,000.00000,081.4,210522,,,A*54
$GPGGA,071026.60,4444.2214,N,03955.8563,E,1,19,0.6,00142.9,M,0017.2,M,,*6B
$GLGSA,A,3,078,079,081,082,087,088,,,,,,,1.0,0.6,0.8*2C
$GPGSA,A,3,002,006,012,019,020,022,024,025,029,032,,,1.0,0.6,0.8*3B
$GAGSA,A,3,111,124,125,,,,,,,,,,1.0,0.6,0.8*1C
$GPRMC,071026.60,A,4444.2214,N,03955.8563,E,000.00000,111.7,210522,,,A*5D
$GPGGA,071026.80,4444.2214,N,03955.8563,E,1,19,0.6,00142.9,M,0017.2,M,,*65
$GLGSA,A,3,078,079,081,082,087,088,,,,,,,1.0,0.6,0.8*2C
$GPGSA,A,3,002,006,012,019,020,022,024,025,029,032,,,1.0,0.6,0.8*3B
$GAGSA,A,3,111,124,125,,,,,,,,,,1.0,0.6,0.8*1C
$GPRMC,071026.80,A,4444.2214,N,03955.8563,E,000.00000,140.1,210522,,,A*51
$GPGGA,071027.00,4444.2214,N,03955.8563,E,1,19,0.6,00142.9,M,0017.2,M,,*6C
$GLGSA,A,3,078,079,081,082,087,088,,,,,,,1.0,0.6,0.8*2C
$GPGSA,A,3,002,006,012,019,020,022,024,025,029,032,,,1.0,0.6,0.8*3B
$GAGSA,A,3,111,124,125,,,,,,,,,,1.0,0.6,0.8*1C
$GPGSV,8,1,31,002,60,128,50,006,40,057,45,011,54,124,47,012,79,027,53*72
$GPGSV,8,2,31,019,15,056,39,020,07,130,36,022,11,312,46,024,41,191,51*7A
$GPGSV,8,3,31,025,42,301,47,029,20,243,37,032,12,291,42,070,02,314,*75
$GPGSV,8,4,31,071,04,359,28,077,02,135,,078,56,127,51,079,64,329,51*79
$GPGSV,8,5,31,081,65,206,53,082,15,211,47,087,10,033,42,088,55,039,53*75
$GPGSV,8,6,31,102,14,300,,103,07,263,,108,08,311,,110,65,113,48*7C
$GPGSV,8,7,31,111,52,168,45,112,51,064,41,124,54,107,44,125,63,311,46*7F
$GPGSV,8,8,31,131,07,115,,133,07,034,,136,10,198,38*75
$GPRMC,071027.00,A,4444.2214,N,03955.8563,E,000.00000,149.0,210522,,,A*50
$GPZDA,071027.00,21,05,2022,+00,00*4A
$GPGGA,071027.20,4444.2214,N,03955.8563,E,1,19,0.6,00142.9,M,0017.2,M,,*6E
$GLGSA,A,3,078,079,081,082,087,088,,,,,,,1.0,0.6,0.8*2C
$GPGSA,A,3,002,006,012,019,020,022,024,025,029,032,,,1.0,0.6,0.8*3B
$GAGSA,A,3,111,124,125,,,,,,,,,,1.0,0.6,0.8*1C
$GPRMC,071027.20,A,4444.2214,N,03955.8563,E,000.00000,152.6,210522,,,A*5E
$GPGGA,071027.40,4444.2214,N,03955.8563,E,1,19,0.6,00142.9,M,0017.2,M,,*68
$GLGSA,A,3,078,079,081,082,087,088,,,,,,,1.0,0.6,0.8*2C
$GPGSA,A,3,002,006,012,019,020,022,024,025,029,032,,,1.0,0.6,0.8*3B
$GAGSA,A,3,111,124,125,,,,,,,,,,1.0,0.6,0.8*1C
$GPRMC,071027.40,A,4444.2214,N,03955.8563,E,000.00000,154.2,210522,,,A*5A
$GPGGA,071027.60,4444.2214,N,03955.8563,E,1,19,0.6,00142.9,M,0017.2,M,,*6A
$GLGSA,A,3,078,079,081,082,087,088,,,,,,,1.0,0.6,0.8*2C
$GPGSA,A,3,002,006,012,019,020,022,024,025,029,032,,,1.0,0.6,0.8*3B
$GAGSA,A,3,111,124,125,,,,,,,,,,1.0,0.6,0.8*1C
$GPRMC,071027.60,A,4444.2214,N,03955.8563,E,000.00000,155.1,210522,,,A*5A
$GPGGA,071027.80,4444.2214,N,03955.8563,E,1,19,0.6,00142.9,M,0017.2,M,,*64
$GLGSA,A,3,078,079,081,082,087,088,,,,,,,1.0,0.6,0.8*2C
$GPGSA,A,3,002,006,012,019,020,022,024,025,029,032,,,1.0,0.6,0.8*3B
$GAGSA,A,3,111,124,125,,,,,,,,,,1.0,0.6,0.8*1C
$GPRMC,071027.80,A,4444.2214,N,03955.8563,E,000.00000,155.5,210522,,,A*50
$GPGGA,071028.00,4444.2214,N,03955.8563,E,1,19,0.6,00142.9,M,0017.2,M,,*63
$GLGSA,A,3,078,079,081,082,087,088,,,,,,,1.0,0.6,0.8*2C
$GPGSA,A,3,002,006,012,019,020,022,024,025,029,032,,,1.0,0.6,0.8*3B
$GAGSA,A,3,111,124,125,,,,,,,,,,1.0,0.6,0.8*1C
$GPGSV,8,1,31,002,60,128,50,006,40,057,46,011,54,124,48,012,79,027,53*7E
$GPGSV,8,2,31,019,15,056,39,020,07,130,36,022,11,312,46,024,41,191,51*7A
$GPGSV,8,3,31,025,42,301,46,029,20,243,37,032,12,291,42,070,02,314,*74
$GPGSV,8,4,31,071,04,359,23,077,02,135,,078,56,127,51,079,64,329,51*72
$GPGSV,8,5,31,081,65,206,53,082,15,211,47,087,10,033,41,088,55,039,53*76
$GPGSV,8,6,31,102,14,300,,103,07,263,,108,08,311,,110,65,113,48*7C
$GPGSV,8,7,31,111,52,168,46,112,51,064,41,124,54,107,45,125,63,311,46*7D
$GPGSV,8,8,31,131,07,115,,133,07,034,,136,10,198,39*74
$GPRMC,071028.00,A,4444.2214,N,03955.8563,E,000.00000,155.7,210522,,,A*55
$GPZDA,071028.00,21,05,2022,+00,00*45
$GPGGA,071028.20,4444.2214,N,03955.8563,E,1,19,0.6,00142.9,M,0017.2,M,,*61
$GLGSA,A,3,078,079,081,082,087,088,,,,,,,1.0,0.6,0.8*2C
$GPGSA,A,3,002,006,012,019,020,022,024,025,029,032,,,1.0,0.6,0.8*3B
$GAGSA,A,3,111,124,125,,,,,,,,,,1.0,0.6,0.8*1C
$GPRMC,071028.20,A,4444.2214,N,03955.8563,E,000.00000,155.9,210522,,,A*59
$GPGGA,071028.40,4444.2214,N,03955.8563,E,1,19,0.6,00142.9,M,0017.2,M,,*67
$GLGSA,A,3,078,079,081,082,087,088,,,,,,,1.0,0.6,0.8*2C
$GPGSA,A,3,002,006,012,019,020,022,024,025,029,032,,,1.0,0.6,0.8*3B
$GAGSA,A,3,111,124,125,,,,,,,,,,1.0,0.6,0.8*1C
$GPRMC,071028.40,A,4444.2214,N,03955.8563,E,000.00000,155.9,210522,,,A*5F
$GPGGA,071028.60,4444.2214,N,03955.8563,E,1,19,0.6,00142.9,M,0017.2,M,,*65
$GLGSA,A,3,078,079,081,082,087,088,,,,,,,1.0,0.6,0.8*2C
$GPGSA,A,3,002,006,012,019,020,022,024,025,029,032,,,1.0,0.6,0.8*3B
$GAGSA,A,3,111,124,125,,,,,,,,,,1.0,0.6,0.8*1C
$GPRMC,071028.60,A,4444.2214,N,03955.8563,E,000.00000,156.0,210522,,,A*57
$GPGGA,071028.80,4444.2214,N,03955.8563,E,1,19,0.6,00142.9,M,0017.2,M,,*6B
$GLGSA,A,3,078,079,081,082,087,088,,,,,,,1.0,0.6,0.8*2C
$GPGSA,A,3,002,006,012,019,020,022,024,025,029,032,,,1.0,0.6,0.8*3B
$GAGSA,A,3,111,124,125,,,,,,,,,,1.0,0.6,0.8*1C
$GPRMC,071028.80,A,4444.2214,N,03955.8563,E,000.00000,156.0,210522,,,A*59
$GPGGA,071029.00,4444.2214,N,03955.8563,E,1,19,0.6,00142.9,M,0017.2,M,,*62
$GLGSA,A,3,078,079,081,082,087,088,,,,,,,1.0,0.6,0.8*2C
$GPGSA,A,3,002,006,012,019,020,022,024,025,029,032,,,1.0,0.6,0.8*3B
$GAGSA,A,3,111,124,125,,,,,,,,,,1.0,0.6,0.8*1C
$GPGSV,8,1,31,002,60,128,50,006,40,057,45,011,54,124,48,012,79,027,53*7D
$GPGSV,8,2,31,019,15,056,39,020,07,130,36,022,11,312,46,024,41,191,51*7A
$GPGSV,8,3,31,025,42,301,47,029,20,243,38,032,12,291,42,070,02,314,*7A
$GPGSV,8,4,31,071,04,359,25,077,02,135,,078,56,127,51,079,64,329,51*74
$GPGSV,8,5,31,081,65,206,53,082,15,211,48,087,10,033,41,088,55,039,53*79
$GPGSV,8,6,31,102,14,300,,103,07,263,,108,08,311,,110,65,113,48*7C
$GPGSV,8,7,31,111,52,168,46,112,51,064,41,124,54,107,44,125,63,311,46*7C
$GPGSV,8,8,31,131,07,115,,133,07,034,,136,10,198,39*74
$GPRMC,071029.00,A,4444.2214,N,03955.8563,E,000.00000,156.0,210522,,,A*50
$GPZDA,071029.00,21,05,2022,+00,00*44
$GPGGA,071029.20,4444.2214,N,03955.8563,E,1,19,0.6,00142.9,M,0017.2,M,,*60
$GLGSA,A,3,078,079,081,082,087,088,,,,,,,1.0,0.6,0.8*2C
$GPGSA,A,3,002,006,012,019,020,022,024,025,029,032,,,1.0,0.6,0.8*3B
$GAGSA,A,3,111,124,125,,,,,,,,,,1.0,0.6,0.8*1C
$GPRMC,071029.20,A,4444.2214,N,03955.8563,E,000.00000,156.0,210522,,,A*52
$GPGGA,071029.40,4444.2214,N,03955.8563,E,1,19,0.6,00142.9,M,0017.2,M,,*66
$GLGSA,A,3,078,079,081,082,087,088,,,,,,,1.0,0.6,0.8*2C
$GPGSA,A,3,002,006,012,019,020,022,024,025,029,032,,,1.0,0.6,0.8*3B
$GAGSA,A,3,111,124,125,,,,,,,,,,1.0,0.6,0.8*1C
$GPRMC,071029.40,A,4444.2214,N,03955.8563,E,000.00000,156.0,210522,,,A*54
$GPGGA,071029.60,4444.2214,N,03955.8563,E,1,19,0.6,00142.9,M,0017.2,M,,*64
$GLGSA,A,3,078,079,081,082,087,088,,,,,,,1.0,0.6,0.8*2C
$GPGSA,A,3,002,006,012,019,020,022,024,025,029,032,,,1.0,0.6,0.8*3B
$GAGSA,A,3,111,124,125,,,,,,,,,,1.0,0.6,0.8*1C
$GPRMC,071029.60,A,4444.2214,N,03955.8563,E,000.00000,156.0,210522,,,A*56
$GPGGA,071029.80,4444.2214,N,03955.8563,E,1,19,0.6,00142.9,M,0017.2,M,,*6A
$GLGSA,A,3,078,079,081,082,087,088,,,,,,,1.0,0.6,0.8*2C
$GPGSA,A,3,002,006,012,019,020,022,024,025,029,032,,,1.0,0.6,0.8*3B
$GAGSA,A,3,111,124,125,,,,,,,,,,1.0,0.6,0.8*1C
$GPRMC,071029.80,A,4444.2214,N,03955.8563,E,000.00000,156.0,210522,,,A*58
$GPGGA,071030.00,4444.2214,N,03955.8563,E,1,19,0.6,00142.9,M,0017.2,M,,*6A
$GLGSA,A,3,078,079,081,082,087,088,,,,,,,1.0,0.6,0.8*2C
$GPGSA,A,3,002,006,012,019,020,022,024,025,029,032,,,1.0,0.6,0.8*3B
$GAGSA,A,3,111,124,125,,,,,,,,,,1.0,0.6,0.8*1C
$GPGSV,8,1,31,002,60,127,50,006,40,057,46,011,54,124,48,012,79,027,53*71
$GPGSV,8,2,31,019,15,056,38,020,07,130,37,022,11,312,46,024,41,191,51*7A
$GPGSV,8,3,31,025,42,301,47,029,20,243,37,032,12,291,42,070,02,314,*75
$GPGSV,8,4,31,071,04,359,23,077,02,135,,078,56,127,51,079,64,329,51*72
$GPGSV,8,5,31,081,65,206,54,082,15,211,48,087,10,033,40,088,55,039,53*7F
$GPGSV,8,6,31,102,14,300,,103,07,263,,108,08,311,,110,65,113,48*7C
$GPGSV,8,7,31,111,52,168,46,112,51,064,41,124,54,107,44,125,63,311,46*7C
$GPGSV,8,8,31,131,07,115,,133,07,034,,136,10,198,39*74
$GPRMC,071030.00,A,4444.2214,N,03955.8563,E,000.00000,218.8,210522,,,A*59
$GPZDA,071030.00,21,05,2022,+00,00*4C
$GPGGA,071030.20,4444.2214,N,03955.8563,E,1,19,0.6,00142.9,M,0017.2,M,,*68
$GLGSA,A,3,078,079,081,082,087,088,,,,,,,1.0,0.6,0.8*2C
$GPGSA,A,3,002,006,012,019,020,022,024,025,029,032,,,1.0,0.6,0.8*3B
$GAGSA,A,3,111,124,125,,,,,,,,,,1.0,0.6,0.8*1C
$GPRMC,071030.20,A,4444.2214,N,03955.8563,E,000.00000,238.8,210522,,,A*59
$GPGGA,071030.40,4444.2214,N,03955.8563,E,1,19,0.6,00142.9,M,0017.2,M,,*6E
$GLGSA,A,3,078,079,081,082,087,088,,,,,,,1.0,0.6,0.8*2C
$GPGSA,A,3,002,006,012,019,020,022,024,025,029,032,,,1.0,0.6,0.8*3B
$GAGSA,A,3,111,124,125,,,,,,,,,,1.0,0.6,0.8*1C
$GPRMC,071030.40,A,4444.2214,N,03955.8563,E,000.00000,236.8,210522,,,A*51
$GPGGA,071030.60,4444.2214,N,03955.8563,E,1,19,0.6,00142.9,M,0017.2,M,,*6C
$GLGSA,A,3,078,079,081,082,087,088,,,,,,,1.0,0.6,0.8*2C
$GPGSA,A,3,002,006,012,019,020,022,024,025,029,032,,,1.0,0.6,0.8*3B
$GAGSA,A,3,111,124,125,,,,,,,,,,1.0,0.6,0.8*1C
$GPRMC,071030.60,A,4444.2214,N,03955.8563,E,000.00000,237.1,210522,,,A*5B
$GPGGA,071030.80,4444.2214,N,03955.8563,E,1,19,0.6,00142.9,M,0017.2,M,,*62
$GLGSA,A,3,078,079,081,082,087,088,,,,,,,1.0,0.6,0.8*2C
$GPGSA,A,3,002,006,012,019,020,022,024,025,029,032,,,1.0,0.6,0.8*3B
$GAGSA,A,3,111,124,125,,,,,,,,,,1.0,0.6,0.8*1C
$GPRMC,071030.80,A,4444.2214,N,03955.8563,E,000.00000,256.5,210522,,,A*56
$GPGGA,071031.00,4444.2214,N,03955.8563,E,1,19,0.6,00142.9,M,0017.2,M,,*6B
$GLGSA,A,3,078,079,081,082,087,088,,,,,,,1.0,0.6,0.8*2C
$GPGSA,A,3,002,006,012,019,020,022,024,025,029,032,,,1.0,0.6,0.8*3B
$GAGSA,A,3,111,124,125,,,,,,,,,,1.0,0.6,0.8*1C
$GPGSV,8,1,31,002,60,127,50,006,40,057,45,011,54,124,47,012,79,027,53*7D
$GPGSV,8,2,31,019,15,056,38,020,07,130,37,022,11,312,46,024,41,191,51*7A
$GPGSV,8,3,31,025,42,301,47,029,20,243,38,032,12,291,42,070,02,314,*7A
$GPGSV,8,4,31,071,04,359,20,077,02,135,,078,56,127,51,079,64,329,52*72
$GPGSV,8,5,31,081,65,206,54,082,15,211,47,087,10,033,39,088,54,039,53*7F
$GPGSV,8,6,31,102,14,300,,103,07,263,,108,08,311,,110,65,113,48*7C
$GPGSV,8,7,31,111,52,168,46,112,51,064,41,124,54,107,44,125,63,311,46*7C
$GPGSV,8,8,31,131,07,115,,133,07,034,,136,10,198,39*74
$GPRMC,071031.00,A,4444.2214,N,03955.8563,E,000.00000,238.5,210522,,,A*57
$GPZDA,071031.00,21,05,2022,+00,00*4D
$GPGGA,071031.20,4444.2214,N,03955.8563,E,1,19,0.6,00142.9,M,0017.2,M,,*69
$GLGSA,A,3,078,079,081,082,087,088,,,,,,,1.0,0.6,0.8*2C
$GPGSA,A,3,002,006,012,019,020,022,024,025,029,032,,,1.0,0.6,0.8*3B
$GAGSA,A,3,111,124,125,,,,,,,,,,1.0,0.6,0.8*1C
$GPRMC,071031.20,A,4444.2214,N,03955.8563,E,000.00000,268.7,210522,,,A*52
$GPGGA,071031.40,4444.2214,N,03955.8563,E,1,19,0.6,00142.9,M,0017.2,M,,*6F
$GLGSA,A,3,078,079,081,082,087,088,,,,,,,1.0,0.6,0.8*2C
$GPGSA,A,3,002,006,012,019,020,022,024,025,029,032,,,1.0,0.6,0.8*3B
$GAGSA,A,3,111,124,125,,,,,,,,,,1.0,0.6,0.8*1C
$GPRMC,071031.40,A,4444.2214,N,03955.8563,E,000.00000,308.9,210522,,,A*5D
$GPGGA,071031.60,4444.2214,N,03955.8563,E,1,19,0.6,00142.9,M,0017.2,M,,*6D
$GLGSA,A,3,078,079,081,082,087,088,,,,,,,1.0,0.6,0.8*2C
$GPGSA,A,3,002,006,012,019,020,022,024,025,029,032,,,1.0,0.6,0.8*3B
$GAGSA,A,3,111,124,125,,,,,,,,,,1.0,0.6,0.8*1C
$GPRMC,071031.60,A,4444.2214,N,03955.8563,E,000.00000,326.4,210522,,,A*5E
$GPGGA,071031.80,4444.2214,N,03955.8563,E,1,19,0.6,00142.9,M,0017.2,M,,*63
$GLGSA,A,3,078,079,081,082,087,088,,,,,,,1.0,0.6,0.8*2C
$GPGSA,A,3,002,006,012,019,020,022,024,025,029,032,,,1.0,0.6,0.8*3B
$GAGSA,A,3,111,124,125,,,,,,,,,,1.0,0.6,0.8*1C
$GPRMC,071031.80,A,4444.2214,N,03955.8563,E,000.00000,337.4,210522,,,A*50
$GPGGA,071032.00,4444.2214,N,03955.8563,E,1,19,0.6,00142.9,M,0017.2,M,,*68
$GLGSA,A,3,078,079,081,082,087,088,,,,,,,1.0,0.6,0.8*2C
$GPGSA,A,3,002,006,012,019,020,022,024,025,029,032,,,1.0,0.6,0.8*3B
$GAGSA,A,3,111,124,125,,,,,,,,,,1.0,0.6,0.8*1C
$GPGSV,8,1,31,002,60,127,51,006,40,057,46,011,54,124,47,012,79,027,53*7F
$GPGSV,8,2,31,019,15,056,38,020,07,130,37,022,11,312,45,024,41,191,52*7A
$GPGSV,8,3,31,025,42,301,47,029,20,243,37,032,12,291,42,070,02,314,*75
$GPGSV,8,4,31,071,04,359,18,077,02,135,,078,56,127,51,079,64,329,51*7A
$GPGSV,8,5,31,081,65,206,54,082,15,211,47,087,10,033,39,088,54,039,53*7F
$GPGSV,8,6,31,102,14,300,,103,07,263,,108,08,311,,110,65,113,48*7C
$GPGSV,8,7,31,111,52,168,46,112,51,064,41,124,54,107,44,125,63,311,47*7D
$GPGSV,8,8,31,131,07,115,,133,07,034,,136,10,198,39*74
$GPRMC,071032.00,A,4444.2214,N,03955.8563,E,000.00000,342.9,210522,,,A*54
$GPZDA,071032.00,21,05,2022,+00,00*4E
$GPGGA,071032.20,4444.2214,N,03955.8563,E,1,19,0.6,00142.9,M,0017.2,M,,*6A
$GLGSA,A,3,078,079,081,082,087,088,,,,,,,1.0,0.6,0.8*2C
$GPGSA,A,3,002,006,012,019,020,022,024,025,029,032,,,1.0,0.6,0.8*3B
$GAGSA,A,3,111,124,125,,,,,,,,,,1.0,0.6,0.8*1C
$GPRMC,071032.20,A,4444.2214,N,03955.8563,E,000.00000,345.8,210522,,,A*50
$GPGGA,071032.40,4444.2214,N,03955.8563,E,1,19,0.6,00142.9,M,0017.2,M,,*6C
$GLGSA,A,3,078,079,081,082,087,088,,,,,,,1.0,0.6,0.8*2C
$GPGSA,A,3,002,006,012,019,020,022,024,025,029,032,,,1.0,0.6,0.8*3B
$GAGSA,A,3,111,124,125,,,,,,,,,,1.0,0.6,0.8*1C
$GPRMC,071032.40,A,4444.2214,N,03955.8563,E,000.00000,350.5,210522,,,A*5F
$GPGGA,071032.60,4444.2214,N,03955.8563,E,1,19,0.6,00142.9,M,0017.2,M,,*6E
$GLGSA,A,3,078,079,081,082,087,088,,,,,,,1.0,0.6,0.8*2C
$GPGSA,A,3,002,006,012,019,020,022,024,025,029,032,,,1.0,0.6,0.8*3B
$GAGSA,A,3,111,124,125,,,,,,,,,,1.0,0.6,0.8*1C
$GPRMC,071032.60,A,4444.2214,N,03955.8563,E,000.00000,354.3,210522,,,A*5F
$GPGGA,071032.80,4444.2214,N,03955.8563,E,1,19,0.6,00142.9,M,0017.2,M,,*60
$GLGSA,A,3,078,079,081,082,087,088,,,,,,,1.0,0.6,0.8*2C
$GPGSA,A,3,002,006,012,019,020,022,024,025,029,032,,,1.0,0.6,0.8*3B
$GAGSA,A,3,111,124,125,,,,,,,,,,1.0,0.6,0.8*1C
$GPRMC,071032.80,A,4444.2214,N,03955.8563,E,000.00000,016.3,210522,,,A*54
$GPGGA,071033.00,4444.2214,N,03955.8563,E,1,19,0.6,00142.9,M,0017.2,M,,*69
$GLGSA,A,3,078,079,081,082,087,088,,,,,,,1.0,0.6,0.8*2C
$GPGSA,A,3,002,006,012,019,020,022,024,025,029,032,,,1.0,0.6,0.8*3B
$GAGSA,A,3,111,124,125,,,,,,,,,,1.0,0.6,0.8*1C
$GPGSV,8,1,31,002,60,127,50,006,40,057,45,011,54,124,47,012,79,027,53*7D
$GPGSV,8,2,31,019,15,056,38,020,07,130,37,022,11,312,46,024,41,191,52*79
$GPGSV,8,3,31,025,42,301,47,029,20,243,38,032,12,291,41,070,02,314,*79
$GPGSV,8,4,31,071,04,359,23,077,02,135,,078,56,127,51,079,64,329,51*72
$GPGSV,8,5,31,081,65,206,54,082,15,211,47,087,10,033,41,088,54,039,53*70
$GPGSV,8,6,31,102,14,300,,103,07,263,,108,08,311,,110,65,113,48*7C
$GPGSV,8,7,31,111,52,168,46,112,51,064,41,124,54,107,44,125,63,311,47*7D
$GPGSV,8,8,31,131,07,115,,133,07,034,,136,10,198,39*74
$GPRMC,071033.00,A,4444.2214,N,03955.8563,E,000.00000,023.1,210522,,,A*59
$GPZDA,071033.00,21,05,2022,+00,00*4F
$GPGGA,071033.20,4444.2214,N,03955.8563,E,1,19,0.6,00142.9,M,0017.2,M,,*6B
$GLGSA,A,3,078,079,081,082,087,088,,,,,,,1.0,0.6,0.8*2C
$GPGSA,A,3,002,006,012,019,020,022,024,025,029,032,,,1.0,0.6,0.8*3B
$GAGSA,A,3,111,124,125,,,,,,,,,,1.0,0.6,0.8*1C
$GPRMC,071033.20,A,4444.2214,N,03955.8563,E,000.00000,022.4,210522,,,A*5F
$GPGGA,071033.40,4444.2214,N,03955.8563,E,1,19,0.6,00142.9,M,0017.2,M,,*6D
$GLGSA,A,3,078,079,081,082,087,088,,,,,,,1.0,0.6,0.8*2C
$GPGSA,A,3,002,006,012,019,020,022,024,025,029,032,,,1.0,0.6,0.8*3B
$GAGSA,A,3,111,124,125,,,,,,,,,,1.0,0.6,0.8*1C
$GPRMC,071033.40,A,4444.2214,N,03955.8563,E,000.00000,032.2,210522,,,A*5E
$GPGGA,071033.60,4444.2214,N,03955.8563,E,1,19,0.6,00142.9,M,0017.2,M,,*6F
$GLGSA,A,3,078,079,081,082,087,088,,,,,,,1.0,0.6,0.8*2C
$GPGSA,A,3,002,006,012,019,020,022,024,025,029,032,,,1.0,0.6,0.8*3B
$GAGSA,A,3,111,124,125,,,,,,,,,,1.0,0.6,0.8*1C
$GPRMC,071033.60,A,4444.2214,N,03955.8563,E,000.00000,044.9,210522,,,A*56
$GPGGA,071033.80,4444.2214,N,03955.8563,E,1,19,0.6,00142.9,M,0017.2,M,,*61
$GLGSA,A,3,078,079,081,082,087,088,,,,,,,1.0,0.6,0.8*2C
$GPGSA,A,3,002,006,012,019,020,022,024,025,029,032,,,1.0,0.6,0.8*3B
$GAGSA,A,3,111,124,125,,,,,,,,,,1.0,0.6,0.8*1C
$GPRMC,071033.80,A,4444.2214,N,03955.8563,E,000.00000,051.2,210522,,,A*57
$GPGGA,071034.00,4444.2214,N,03955.8563,E,1,19,0.6,00142.9,M,0017.2,M,,*6E
$GLGSA,A,3,078,079,081,082,087,088,,,,,,,1.0,0.6,0.8*2C
$GPGSA,A,3,002,006,012,019,020,022,024,025,029,032,,,1.0,0.6,0.8*3B
$GAGSA,A,3,111,124,125,,,,,,,,,,1.0,0.6,0.8*1C
$GPGSV,8,1,31,002,60,127,50,006,40,057,45,011,54,124,47,012,79,027,53*7D
$GPGSV,8,2,31,019,15,056,38,020,07,130,37,022,11,312,45,024,41,191,52*7A
$GPGSV,8,3,31,025,42,301,47,029,20,243,37,032,12,291,40,070,02,314,*77
$GPGSV,8,4,31,071,04,359,25,077,02,135,,078,56,127,51,079,64,329,51*74
$GPGSV,8,5,31,081,65,206,53,082,15,211,48,087,10,033,41,088,54,039,53*78
$GPGSV,8,6,31,102,14,300,,103,07,263,,108,08,311,,110,65,113,48*7C
$GPGSV,8,7,31,111,52,168,46,112,51,064,40,124,54,107,44,125,63,311,46*7D
$GPGSV,8,8,31,131,07,115,,133,07,034,,136,10,198,39*74
$GPRMC,071034.00,A,4444.2214,N,03955.8563,E,000.00000,042.0,210522,,,A*58
$GPZDA,071034.00,21,05,2022,+00,00*48
$GPGGA,071034.20,4444.2214,N,03955.8563,E,1,19,0.6,00142.9,M,0017.2,M,,*6C
$GLGSA,A,3,078,079,081,082,087,088,,,,,,,1.0,0.6,0.8*2C
$GPGSA,A,3,002,006,012,019,020,022,024,025,029,032,,,1.0,0.6,0.8*3B
$GAGSA,A,3,111,124,125,,,,,,,,,,1.0,0.6,0.8*1C
$GPRMC,071034.20,A,4444.2214,N,03955.8563,E,000.00000,049.8,210522,,,A*59
$GPGGA,071034.40,4444.2214,N,03955.8563,E,1,19,0.6,00142.9,M,0017.2,M,,*6A
$GLGSA,A,3,078,079,081,082,087,088,,,,,,,1.0,0.6,0.8*2C
$GPGSA,A,3,002,006,012,019,020,022,024,025,029,032,,,1.0,0.6,0.8*3B
$GAGSA,A,3,111,124,125,,,,,,,,,,1.0,0.6,0.8*1C
$GPRMC,071034.40,A,4444.2214,N,03955.8563,E,000.00000,050.3,210522,,,A*5C
$GPGGA,071034.60,4444.2214,N,03955.8563,E,1,19,0.6,00142.9,M,0017.2,M,,*68
$GLGSA,A,3,078,079,081,082,087,088,,,,,,,1.0,0.6,0.8*2C
$GPGSA,A,3,002,006,012,019,020,022,024,025,029,032,,,1.0,0.6,0.8*3B
$GAGSA,A,3,111,124,125,,,,,,,,,,1.0,0.6,0.8*1C
$GPRMC,071034.60,A,4444.2214,N,03955.8563,E,000.00000,055.5,210522,,,A*5D
$GPGGA,071034.80,4444.2214,N,03955.8563,E,1,19,0.6,00142.9,M,0017.2,M,,*66
$GLGSA,A,3,078,079,081,082,087,088,,,,,,,1.0,0.6,0.8*2C
$GPGSA,A,3,002,006,012,019,020,022,024,025,029,032,,,1.0,0.6,0.8*3B
$GAGSA,A,3,111,124,125,,,,,,,,,,1.0,0.6,0.8*1C
$GPRMC,071034.80,A,4444.2214,N,03955.8563,E,000.00000,061.3,210522,,,A*52
$GPGGA,071035.00,4444.2214,N,03955.8563,E,1,19,0.6,00142.9,M,0017.2,M,,*6F
$GLGSA,A,3,078,079,081,082,087,088,,,,,,,1.0,0.6,0.8*2C
$GPGSA,A,3,002,006,012,019,020,022,024,025,029,032,,,1.0,0.6,0.8*3B
$GAGSA,A,3,111,124,125,,,,,,,,,,1.0,0.6,0.8*1C
$GPGSV,8,1,31,002,60,127,50,006,40,057,45,011,54,124,47,012,79,027,53*7D
$GPGSV,8,2,31,019,15,056,39,020,07,130,36,022,11,312,45,024,41,191,52*7A
$GPGSV,8,3,31,025,43,301,47,029,20,243,38,032,12,291,41,070,02,314,*78
$GPGSV,8,4,31,071,04,359,22,077,02,135,,078,56,127,51,079,64,329,50*72
$GPGSV,8,5,31,081,65,206,53,082,15,211,49,087,10,033,39,088,54,039,53*76
$GPGSV,8,6,31,102,14,300,,103,07,263,,108,08,311,,110,65,113,48*7C
$GPGSV,8,7,31,111,52,168,46,112,51,064,40,124,54,107,44,125,63,311,46*7D
$GPGSV,8,8,31,131,07,115,,133,07,034,,136,10,198,39*74
$GPRMC,071035.00,A,4444.2214,N,03955.8563,E,000.00000,069.3,210522,,,A*53
$GPZDA,071035.00,21,05,2022,+00,00*49
$GPGGA,071035.20,4444.2214,N,03955.8563,E,1,19,0.6,00142.9,M,0017.2,M,,*6D
$GLGSA,A,3,078,079,081,082,087,088,,,,,,,1.0,0.6,0.8*2C
$GPGSA,A,3,002,006,012,019,020,022,024,025,029,032,,,1.0,0.6,0.8*3B
$GAGSA,A,3,111,124,125,,,,,,,,,,1.0,0.6,0.8*1C
$GPRMC,071035.20,A,4444.2214,N,03955.8563,E,000.00000,086.0,210522,,,A*53
$GPGGA,071035.40,4444.2214,N,03955.8563,E,1,19,0.6,00142.9,M,0017.2,M,,*6B
$GLGSA,A,3,078,079,081,082,087,088,,,,,,,1.0,0.6,0.8*2C
$GPGSA,A,3,002,006,012,019,020,022,024,025,029,032,,,1.0,0.6,0.8*3B
$GAGSA,A,3,111,124,125,,,,,,,,,,1.0,0.6,0.8*1C
$GPRMC,071035.40,A,4444.2214,N,03955.8563,E,000.00000,109.5,210522,,,A*56
$GPGGA,071035.60,4444.2214,N,03955.8563,E,1,19,0.6,00142.9,M,0017.2,M,,*69
$GLGSA,A,3,078,079,081,082,087,088,,,,,,,1.0,0.6,0.8*2C
$GPGSA,A,3,002,006,012,019,020,022,024,025,029,032,,,1.0,0.6,0.8*3B
$GAGSA,A,3,111,124,125,,,,,,,,,,1.0,0.6,0.8*1C
$GPRMC,071035.60,A,4444.2214,N,03955.8563,E,000.00000,129.5,210522,,,A*56
$GPGGA,071035.80,4444.2214,N,03955.8563,E,1,19,0.6,00142.9,M,0017.2,M,,*67
$GLGSA,A,3,078,079,081,082,087,088,,,,,,,1.0,0.6,0.8*2C
$GPGSA,A,3,002,006,012,019,020,022,024,025,029,032,,,1.0,0.6,0.8*3B
$GAGSA,A,3,111,124,125,,,,,,,,,,1.0,0.6,0.8*1C
$GPRMC,071035.80,A,4444.2214,N,03955.8563,E,000.00000,141.6,210522,,,A*55
$GPGGA,071036.00,4444.2214,N,03955.8563,E,1,19,0.6,00142.9,M,0017.2,M,,*6C
$GLGSA,A,3,078,079,081,082,087,088,,,,,,,1.0,0.6,0.8*2C
$GPGSA,A,3,002,006,012,019,020,022,024,025,029,032,,,1.0,0.6,0.8*3B
$GAGSA,A,3,111,124,125,,,,,,,,,,1.0,0.6,0.8*1C
$GPGSV,8,1,31,002,60,127,50,006,40,057,46,011,54,124,47,012,79,027,53*7E
$GPGSV,8,2,31,019,15,056,40,020,07,130,36,022,11,312,45,024,41,191,52*74
$GPGSV,8,3,31,025,43,301,47,029,20,243,38,032,12,291,42,070,02,314,*7B
$GPGSV,8,4,31,071,04,359,28,077,02,135,,078,56,127,51,079,64,329,50*78
$GPGSV,8,5,31,081,65,206,53,082,15,211,49,087,10,033,39,088,54,039,53*76
$GPGSV,8,6,31,102,14,300,,103,07,263,,108,08,311,,110,65,113,47*73
$GPGSV,8,7,31,111,52,168,46,112,51,064,40,124,54,107,44,125,63,311,46*7D
$GPGSV,8,8,31,131,07,115,,133,06,034,,136,10,198,39*75
$GPRMC,071036.00,A,4444.2214,N,03955.8563,E,000.00000,148.2,210522,,,A*53
$GPZDA,071036.00,21,05,2022,+00,00*4A
$GPGGA,071036.20,4444.2214,N,03955.8563,E,1,19,0.6,00142.9,M,0017.2,M,,*6E
$GLGSA,A,3,078,079,081,082,087,088,,,,,,,1.0,0.6,0.8*2C
$GPGSA,A,3,002,006,012,019,020,022,024,025,029,032,,,1.0,0.6,0.8*3B
$GAGSA,A,3,111,124,125,,,,,,,,,,1.0,0.6,0.8*1C
$GPRMC,071036.20,A,4444.2214,N,03955.8563,E,000.00000,151.7,210522,,,A*5C
$GPGGA,071036.40,4444.2214,N,03955.8563,E,1,19,0.6,00142.9,M,0017.2,M,,*68
$GLGSA,A,3,078,079,081,082,087,088,,,,,,,1.0,0.6,0.8*2C
$GPGSA,A,3,002,006,012,019,020,022,024,025,029,032,,,1.0,0.6,0.8*3B
$GAGSA,A,3,111,124,125,,,,,,,,,,1.0,0.6,0.8*1C
$GPRMC,071036.40,A,4444.2214,N,03955.8563,E,000.00000,153.7,210522,,,A*58
$GPGGA,071036.60,4444.2214,N,03955.8563,E,1,19,0.6,00142.9,M,0017.2,M,,*6A
$GLGSA,A,3,078,079,081,082,087,088,,,,,,,1.0,0.6,0.8*2C
$GPGSA,A,3,002,006,012,019,020,022,024,025,029,032,,,1.0,0.6,0.8*3B
$GAGSA,A,3,111,124,125,,,,,,,,,,1.0,0.6,0.8*1C
$GPRMC,071036.60,A,4444.2214,N,03955.8563,E,000.00000,154.7,210522,,,A*5D
$GPGGA,071036.80,4444.2214,N,03955.8563,E,1,19,0.6,00142.9,M,0017.2,M,,*64
$GLGSA,A,3,078,079,081,082,087,088,,,,,,,1.0,0.6,0.8*2C
$GPGSA,A,3,002,006,012,019,020,022,024,025,029,032,,,1.0,0.6,0.8*3B
$GAGSA,A,3,111,124,125,,,,,,,,,,1.0,0.6,0.8*1C
$GPRMC,071036.80,A,4444.2214,N,03955.8563,E,000.00000,155.3,210522,,,A*56
$GPGGA,071037.00,4444.2214,N,03955.8563,E,1,19,0.6,00142.9,M,0017.2,M,,*6D
$GLGSA,A,3,078,079,081,082,087,088,,,,,,,1.0,0.6,0.8*2C
$GPGSA,A,3,002,006,012,019,020,022,024,025,029,032,,,1.0,0.6,0.8*3B
$GAGSA,A,3,111,124,125,,,,,,,,,,1.0,0.6,0.8*1C
$GPGSV,8,1,31,002,60,127,50,006,40,057,46,011,54,124,47,012,79,027,53*7E
$GPGSV,8,2,31,019,15,056,39,020,07,130,36,022,11,312,45,024,41,191,51*79
$GPGSV,8,3,31,025,43,301,47,029,20,243,37,032,12,291,42,070,02,314,*74
$GPGSV,8,4,31,071,04,359,28,077,02,135,,078,56,127,51,079,64,329,50*78
$GPGSV,8,5,31,081,65,206,53,082,15,211,48,087,10,033,39,088,54,039,53*77
$GPGSV,8,6,31,102,14,300,,103,07,263,,108,08,311,,110,65,113,47*73
$GPGSV,8,7,31,111,52,168,46,112,51,064,40,124,54,107,44,125,63,311,46*7D
$GPGSV,8,8,31,131,07,115,,133,06,034,,136,10,198,39*75
$GPRMC,071037.00,A,4444.2214,N,03955.8563,E,000.00000,155.6,210522,,,A*5A
$GPZDA,071037.00,21,05,2022,+00,00*4B
$GPGGA,071037.20,4444.2214,N,03955.8563,E,1,19,0.6,00142.9,M,0017.2,M,,*6F
$GLGSA,A,3,078,079,081,082,087,088,,,,,,,1.0,0.6,0.8*2C
$GPGSA,A,3,002,006,012,019,020,022,024,025,029,032,,,1.0,0.6,0.8*3B
$GAGSA,A,3,111,124,125,,,,,,,,,,1.0,0.6,0.8*1C
$GPRMC,071037.20,A,4444.2214,N,03955.8563,E,000.00000,155.8,210522,,,A*56
$GPGGA,071037.40,4444.2214,N,03955.8563,E,1,19,0.6,00142.9,M,0017.2,M,,*69
$GLGSA,A,3,078,079,081,082,087,088,,,,,,,1.0,0.6,0.8*2C
$GPGSA,A,3,002,006,012,019,020,022,024,025,029,032,,,1.0,0.6,0.8*3B
$GAGSA,A,3,111,124,125,,,,,,,,,,1.0,0.6,0.8*1C
$GPRMC,071037.40,A,4444.2214,N,03955.8563,E,000.00000,155.9,210522,,,A*51
$GPGGA,071037.60,4444.2214,N,03955.8563,E,1,19,0.6,00142.9,M,0017.2,M,,*6B
$GLGSA,A,3,078,079,081,082,087,088,,,,,,,1.0,0.6,0.8*2C
$GPGSA,A,3,002,006,012,019,020,022,024,025,029,032,,,1.0,0.6,0.8*3B
$GAGSA,A,3,111,124,125,,,,,,,,,,1.0,0.6,0.8*1C
$GPRMC,071037.60,A,4444.2214,N,03955.8563,E,000.00000,156.0,210522,,,A*59
$GPGGA,071037.80,4444.2214,N,03955.8563,E,1,19,0.6,00142.9,M,0017.2,M,,*65
$GLGSA,A,3,078,079,081,082,087,088,,,,,,,1.0,0.6,0.8*2C
$GPGSA,A,3,002,006,012,019,020,022,024,025,029,032,,,1.0,0.6,0.8*3B
$GAGSA,A,3,111,124,125,,,,,,,,,,1.0,0.6,0.8*1C
$GPRMC,071037.80,A,4444.2214,N,03955.8563,E,000.00000,156.0,210522,,,A*57
$GPGGA,071038.00,4444.2214,N,03955.8563,E,1,19,0.6,00142.9,M,0017.2,M,,*62
$GLGSA,A,3,078,079,081,082,087,088,,,,,,,1.0,0.6,0.8*2C
$GPGSA,A,3,002,006,012,019,020,022,024,025,029,032,,,1.0,0.6,0.8*3B
$GAGSA,A,3,111,124,125,,,,,,,,,,1.0,0.6,0.8*1C
$GPGSV,8,1,31,002,60,127,50,006,40,057,46,011,54,124,46,012,79,027,53*7F
$GPGSV,8,2,31,019,15,056,39,020,07,130,35,022,11,312,45,024,41,191,51*7A
$GPGSV,8,3,31,025,43,301,47,029,20,243,37,032,12,291,42,070,02,314,*74
$GPGSV,8,4,31,071,04,359,30,077,02,135,,078,56,127,51,079,64,329,50*71
$GPGSV,8,5,31,081,65,206,53,082,15,211,48,087,10,033,39,088,54,039,53*77
$GPGSV,8,6,31,102,14,300,,103,07,263,,108,08,311,,110,65,113,47*73
$GPGSV,8,7,31,111,52,168,46,112,51,064,41,124,54,107,44,125,63,311,46*7C
$GPGSV,8,8,31,131,07,115,,133,06,034,,136,10,198,39*75
$GPRMC,071038.00,A,4444.2214,N,03955.8563,E,000.00000,156.0,210522,,,A*50
$GPZDA,071038.00,21,05,2022,+00,00*44
$GPGGA,071038.20,4444.2214,N,03955.8563,E,1,19,0.6,00142.9,M,0017.2,M,,*60
$GLGSA,A,3,078,079,081,082,087,088,,,,,,,1.0,0.6,0.8*2C
$GPGSA,A,3,002,006,012,019,020,022,024,025,029,032,,,1.0,0.6,0.8*3B
$GAGSA,A,3,111,124,125,,,,,,,,,,1.0,0.6,0.8*1C
$GPRMC,071038.20,A,4444.2214,N,03955.8563,E,000.00000,156.0,210522,,,A*52
$GPGGA,071038.40,4444.2214,N,03955.8563,E,1,19,0.6,00142.9,M,0017.2,M,,*66
$GLGSA,A,3,078,079,081,082,087,088,,,,,,,1.0,0.6,0.8*2C
$GPGSA,A,3,002,006,012,019,020,022,024,025,029,032,,,1.0,0.6,0.8*3B
$GAGSA,A,3,111,124,125,,,,,,,,,,1.0,0.6,0.8*1C
$GPRMC,071038.40,A,4444.2214,N,03955.8563,E,000.00000,156.0,210522,,,A*54
$GPGGA,071038.60,4444.2214,N,03955.8563,E,1,19,0.6,00142.9,M,0017.2,M,,*64
$GLGSA,A,3,078,079,081,082,087,088,,,,,,,1.0,0.6,0.8*2C
$GPGSA,A,3,002,006,012,019,020,022,024,025,029,032,,,1.0,0.6,0.8*3B
$GAGSA,A,3,111,124,125,,,,,,,,,,1.0,0.6,0.8*1C
$GPRMC,071038.60,A,4444.2214,N,03955.8563,E,000.00000,156.0,210522,,,A*56
$GPGGA,071038.80,4444.2214,N,03955.8563,E,1,19,0.6,00142.9,M,0017.2,M,,*6A
$GLGSA,A,3,078,079,081,082,087,088,,,,,,,1.0,0.6,0.8*2C
$GPGSA,A,3,002,006,012,019,020,022,024,025,029,032,,,1.0,0.6,0.8*3B
$GAGSA,A,3,111,124,125,,,,,,,,,,1.0,0.6,0.8*1C
$GPRMC,071038.80,A,4444.2214,N,03955.8563,E,000.00000,156.0,210522,,,A*58
$GPGGA,071039.00,4444.2214,N,03955.8563,E,1,19,0.6,00142.9,M,0017.2,M,,*63
$GLGSA,A,3,078,079,081,082,087,088,,,,,,,1.0,0.6,0.8*2C
$GPGSA,A,3,002,006,012,019,020,022,024,025,029,032,,,1.0,0.6,0.8*3B
$GAGSA,A,3,111,124,125,,,,,,,,,,1.0,0.6,0.8*1C
$GPGSV,8,1,31,002,60,127,50,006,40,057,45,011,54,124,47,012,79,027,53*7D
$GPGSV,8,2,31,019,15,056,38,020,07,130,35,022,11,312,45,024,41,191,51*7B
$GPGSV,8,3,31,025,43,301,47,029,20,243,38,032,12,291,42,070,02,314,*7B
$GPGSV,8,4,31,071,04,359,31,077,02,135,,078,56,127,51,079,64,329,50*70
$GPGSV,8,5,31,081,65,206,53,082,15,211,48,087,10,033,39,088,54,039,53*77
$GPGSV,8,6,31,102,14,300,,103,07,263,,108,08,311,,110,65,113,48*7C
$GPGSV,8,7,31,111,52,168,46,112,51,064,41,124,54,107,44,125,63,311,46*7C
$GPGSV,8,8,31,131,07,115,,133,06,034,,136,10,198,39*75
$GPRMC,071039.00,A,4444.2214,N,03955.8563,E,000.00000,156.0,210522,,,A*51
$GPZDA,071039.00,21,05,2022,+00,00*45
$GPGGA,071039.20,4444.2214,N,03955.8563,E,1,19,0.6,00142.9,M,0017.2,M,,*61
$GLGSA,A,3,078,079,081,082,087,088,,,,,,,1.0,0.6,0.8*2C
$GPGSA,A,3,002,006,012,019,020,022,024,025,029,032,,,1.0,0.6,0.8*3B
$GAGSA,A,3,111,124,125,,,,,,,,,,1.0,0.6,0.8*1C
$GPRMC,071039.20,A,4444.2214,N,03955.8563,E,000.00000,156.0,210522,,,A*53
$GPGGA,071039.40,4444.2214,N,03955.8563,E,1,19,0.6,00142.9,M,0017.2,M,,*67
$GLGSA,A,3,078,079,081,082,087,088,,,,,,,1.0,0.6,0.8*2C
$GPGSA,A,3,002,006,012,019,020,022,024,025,029,032,,,1.0,0.6,0.8*3B
$GAGSA,A,3,111,124,125,,,,,,,,,,1.0,0.6,0.8*1C
$GPRMC,071039.40,A,4444.2214,N,03955.8563,E,000.00000,156.0,210522,,,A*55
$GPGGA,071039.60,4444.2214,N,03955.8563,E,1,19,0.6,00142.9,M,0017.2,M,,*65
$GLGSA,A,3,078,079,081,082,087,088,,,,,,,1.0,0.6,0.8*2C
$GPGSA,A,3,002,006,012,019,020,022,024,025,029,032,,,1.0,0.6,0.8*3B
$GAGSA,A,3,111,124,125,,,,,,,,,,1.0,0.6,0.8*1C
$GPRMC,071039.60,A,4444.2214,N,03955.8563,E,000.00000,118.6,210522,,,A*5B
$GPGGA,071039.80,4444.2214,N,03955.8563,E,1,19,0.6,00142.9,M,0017.2,M,,*6B
$GLGSA,A,3,078,079,081,082,087,088,,,,,,,1.0,0.6,0.8*2C
$GPGSA,A,3,002,006,012,019,020,022,024,025,029,032,,,1.0,0.6,0.8*3B
$GAGSA,A,3,111,124,125,,,,,,,,,,1.0,0.6,0.8*1C
$GPRMC,071039.80,A,4444.2214,N,03955.8563,E,000.00000,134.7,210522,,,A*5A
$GPGGA,071040.00,4444.2214,N,03955.8563,E,1,19,0.6,00142.9,M,0017.2,M,,*6D
$GLGSA,A,3,078,079,081,082,087,088,,,,,,,1.0,0.6,0.8*2C
$GPGSA,A,3,002,006,012,019,020,022,024,025,029,032,,,1.0,0.6,0.8*3B
$GAGSA,A,3,111,124,125,,,,,,,,,,1.0,0.6,0.8*1C
$GPGSV,8,1,31,002,60,127,50,006,40,057,46,011,54,124,46,012,79,027,52*7E
$GPGSV,8,2,31,019,15,056,39,020,07,130,35,022,11,312,45,024,41,191,52*79
$GPGSV,8,3,31,025,43,301,47,029,20,243,38,032,12,291,41,070,02,314,*78
$GPGSV,8,4,31,071,04,359,31,077,02,135,,078,56,127,51,079,64,329,51*71
$GPGSV,8,5,31,081,65,206,53,082,15,211,48,087,10,033,40,088,54,039,53*79
$GPGSV,8,6,31,102,14,300,,103,07,263,,108,08,311,,110,65,113,47*73
$GPGSV,8,7,31,111,52,168,46,112,51,064,41,124,54,107,44,125,63,311,46*7C
$GPGSV,8,8,31,131,07,115,,133,06,034,,136,10,198,39*75
$GPRMC,071040.00,A,4444.2214,N,03955.8563,E,000.00000,144.3,210522,,,A*5F
$GPZDA,071040.00,21,05,2022,+00,00*4B
$GPGGA,071040.20,4444.2214,N,03955.8563,E,1,19,0.6,00142.9,M,0017.2,M,,*6F
$GLGSA,A,3,078,079,081,082,087,088,,,,,,,1.0,0.6,0.8*2C
$GPGSA,A,3,002,006,012,019,020,022,024,025,029,032,,,1.0,0.6,0.8*3B
$GAGSA,A,3,111,124,125,,,,,,,,,,1.0,0.6,0.8*1C
$GPRMC,071040.20,A,4444.2214,N,03955.8563,E,000.00000,149.6,210522,,,A*55
$GPGGA,071040.40,4444.2214,N,03955.8563,E,1,19,0.6,00142.9,M,0017.2,M,,*69
$GLGSA,A,3,078,079,081,082,087,088,,,,,,,1.0,0.6,0.8*2C
$GPGSA,A,3,002,006,012,019,020,022,024,025,029,032,,,1.0,0.6,0.8*3B
$GAGSA,A,3,111,124,125,,,,,,,,,,1.0,0.6,0.8*1C
$GPRMC,071040.40,A,4444.2214,N,03955.8563,E,000.00000,152.5,210522,,,A*5A
$GPGGA,071040.60,4444.2214,N,03955.8563,E,1,19,0.6,00142.9,M,0017.2,M,,*6B
$GLGSA,A,3,078,079,081,082,087,088,,,,,,,1.0,0.6,0.8*2C
$GPGSA,A,3,002,006,012,019,020,022,024,025,029,032,,,1.0,0.6,0.8*3B
$GAGSA,A,3,111,124,125,,,,,,,,,,1.0,0.6,0.8*1C
$GPRMC,071040.60,A,4444.2214,N,03955.8563,E,000.00000,154.0,210522,,,A*5B
$GPGGA,071040.80,4444.2214,N,03955.8563,E,1,19,0.6,00142.9,M,0017.2,M,,*65
$GLGSA,A,3,078,079,081,082,087,088,,,,,,,1.0,0.6,0.8*2C
$GPGSA,A,3,002,006,012,019,020,022,024,025,029,032,,,1.0,0.6,0.8*3B
$GAGSA,A,3,111,124,125,,,,,,,,,,1.0,0.6,0.8*1C
$GPRMC,071040.80,A,4444.2214,N,03955.8563,E,000.00000,078.0,210522,,,A*5A
$GPGGA,071041.00,4444.2214,N,03955.8563,E,1,19,0.6,00142.9,M,0017.2,M,,*6C
$GLGSA,A,3,078,079,081,082,087,088,,,,,,,1.0,0.6,0.8*2C
$GPGSA,A,3,002,006,012,019,020,022,024,025,029,032,,,1.0,0.6,0.8*3B
$GAGSA,A,3,111,124,125,,,,,,,,,,1.0,0.6,0.8*1C
$GPGSV,8,1,31,002,60,127,50,006,40,057,46,011,54,124,46,012,79,027,53*7F
$GPGSV,8,2,31,019,15,056,39,020,07,130,34,022,11,312,45,024,41,191,52*78
$GPGSV,8,3,31,025,43,301,47,029,20,243,39,032,12,291,42,070,02,314,*7A
$GPGSV,8,4,31,071,04,359,32,077,02,135,,078,56,127,51,079,64,329,51*72
$GPGSV,8,5,31,081,65,206,53,082,15,211,48,087,10,033,39,088,54,039,53*77
$GPGSV,8,6,31,102,14,300,,103,07,263,,108,08,311,,110,65,112,47*72
$GPGSV,8,7,31,111,52,168,46,112,51,064,41,124,54,107,44,125,63,311,46*7C
$GPGSV,8,8,31,131,07,115,,133,06,034,,136,10,198,38*74
$GPRMC,071041.00,A,4444.2214,N,03955.8563,E,000.00000,083.5,210522,,,A*52
$GPZDA,071041.00,21,05,2022,+00,00*4A
$GPGGA,071041.20,4444.2214,N,03955.8563,E,1,19,0.6,00142.9,M,0017.2,M,,*6E
$GLGSA,A,3,078,079,081,082,087,088,,,,,,,1.0,0.6,0.8*2C
$GPGSA,A,3,002,006,012,019,020,022,024,025,029,032,,,1.0,0.6,0.8*3B
$GAGSA,A,3,111,124,125,,,,,,,,,,1.0,0.6,0.8*1C
$GPRMC,071041.20,A,4444.2214,N,03955.8563,E,000.00000,071.9,210522,,,A*51
$GPGGA,071041.40,4444.2214,N,03955.8563,E,1,19,0.6,00142.9,M,0017.2,M,,*68
$GLGSA,A,3,078,079,081,082,087,088,,,,,,,1.0,0.6,0.8*2C
$GPGSA,A,3,002,006,012,019,020,022,024,025,029,032,,,1.0,0.6,0.8*3B
$GAGSA,A,3,111,124,125,,,,,,,,,,1.0,0.6,0.8*1C
$GPRMC,071041.40,A,4444.2214,N,03955.8563,E,000.00000,064.6,210522,,,A*5C
$GPGGA,071041.60,4444.2214,N,03955.8563,E,1,19,0.6,00142.9,M,0017.2,M,,*6A
$GLGSA,A,3,078,079,081,082,087,088,,,,,,,1.0,0.6,0.8*2C
$GPGSA,A,3,002,006,012,019,020,022,024,025,029,032,,,1.0,0.6,0.8*3B
$GAGSA,A,3,111,124,125,,,,,,,,,,1.0,0.6,0.8*1C
$GPRMC,071041.60,A,4444.2214,N,03955.8563,E,000.00000,053.5,210522,,,A*59
$GPGGA,071041.80,4444.2214,N,03955.8563,E,1,19,0.6,00142.9,M,0017.2,M,,*64
$GLGSA,A,3,078,079,081,082,087,088,,,,,,,1.0,0.6,0.8*2C
$GPGSA,A,3,002,006,012,019,020,022,024,025,029,032,,,1.0,0.6,0.8*3B
$GAGSA,A,3,111,124,125,,,,,,,,,,1.0,0.6,0.8*1C
$GPRMC,071041.80,A,4444.2214,N,03955.8563,E,000.00000,060.9,210522,,,A*5B
$GPGGA,071042.00,4444.2214,N,03955.8563,E,1,19,0.6,00142.9,M,0017.2,M,,*6F
$GLGSA,A,3,078,079,081,082,087,088,,,,,,,1.0,0.6,0.8*2C
$GPGSA,A,3,002,006,012,019,020,022,024,025,029,032,,,1.0,0.6,0.8*3B
$GAGSA,A,3,111,124,125,,,,,,,,,,1.0,0.6,0.8*1C
$GPGSV,8,1,31,002,60,127,50,006,40,057,46,011,54,124,46,012,79,027,53*7F
$GPGSV,8,2,31,019,15,056,39,020,07,130,33,022,11,312,45,024,41,191,52*7F
$GPGSV,8,3,31,025,43,301,47,029,20,243,39,032,12,291,42,070,02,314,*7A
$GPGSV,8,4,31,071,04,359,33,077,02,135,,078,56,128,51,079,64,329,50*7D
$GPGSV,8,5,31,081,65,206,53,082,15,211,48,087,10,033,38,088,54,039,53*76
$GPGSV,8,6,31,102,14,300,,103,07,263,,108,08,311,,110,65,112,47*72
$GPGSV,8,7,31,111,53,168,46,112,51,064,41,124,54,107,44,125,63,311,46*7D
$GPGSV,8,8,31,131,07,115,,133,06,034,,136,10,198,39*75
$GPRMC,071042.00,A,4444.2214,N,03955.8563,E,000.00000,069.0,210522,,,A*50
$GPZDA,071042.00,21,05,2022,+00,00*49
$GPGGA,071042.20,4444.2214,N,03955.8563,E,1,19,0.6,00142.9,M,0017.2,M,,*6D
$GLGSA,A,3,078,079,081,082,087,088,,,,,,,1.0,0.6,0.8*2C
$GPGSA,A,3,002,006,012,019,020,022,024,025,029,032,,,1.0,0.6,0.8*3B
$GAGSA,A,3,111,124,125,,,,,,,,,,1.0,0.6,0.8*1C
$GPRMC,071042.20,A,4444.2214,N,03955.8563,E,000.00000,088.1,210522,,,A*5C
$GPGGA,071042.40,4444.2214,N,03955.8563,E,1,19,0.6,00142.9,M,0017.2,M,,*6B
$GLGSA,A,3,078,079,081,082,087,088,,,,,,,1.0,0.6,0.8*2C
$GPGSA,A,3,002,006,012,019,020,022,024,025,029,032,,,1.0,0.6,0.8*3B
$GAGSA,A,3,111,124,125,,,,,,,,,,1.0,0.6,0.8*1C
$GPRMC,071042.40,A,4444.2214,N,03955.8563,E,000.00000,112.2,210522,,,A*5B
$GPGGA,071042.60,4444.2214,N,03955.8563,E,1,19,0.6,00142.9,M,0017.2,M,,*69
$GLGSA,A,3,078,079,081,082,087,088,,,,,,,1.0,0.6,0.8*2C
$GPGSA,A,3,002,006,012,019,020,022,024,025,029,032,,,1.0,0.6,0.8*3B
$GAGSA,A,3,111,124,125,,,,,,,,,,1.0,0.6,0.8*1C
$GPRMC,071042.60,A,4444.2214,N,03955.8563,E,000.00000,131.3,210522,,,A*59
$GPGGA,071042.80,4444.2214,N,03955.8563,E,1,19,0.6,00142.9,M,0017.2,M,,*67
$GLGSA,A,3,078,079,081,082,087,088,,,,,,,1.0,0.6,0.8*2C
$GPGSA,A,3,002,006,012,019,020,022,024,025,029,032,,,1.0,0.6,0.8*3B
$GAGSA,A,3,111,124,125,,,,,,,,,,1.0,0.6,0.8*1C
$GPRMC,071042.80,A,4444.2214,N,03955.8563,E,000.00000,142.7,210522,,,A*57
$GPGGA,071043.00,4444.2214,N,03955.8563,E,1,19,0.6,00142.9,M,0017.2,M,,*6E
$GLGSA,A,3,078,079,081,082,087,088,,,,,,,1.0,0.6,0.8*2C
$GPGSA,A,3,002,006,012,019,020,022,024,025,029,032,,,1.0,0.6,0.8*3B
$GAGSA,A,3,111,124,125,,,,,,,,,,1.0,0.6,0.8*1C
$GPGSV,8,1,31,002,60,127,50,006,40,057,46,011,54,124,46,012,79,028,53*70
$GPGSV,8,2,31,019,15,056,39,020,07,130,34,022,11,312,45,024,41,191,51*7B
$GPGSV,8,3,31,025,43,301,47,029,20,243,40,032,12,291,42,070,02,314,*74
$GPGSV,8,4,31,071,04,359,33,077,02,135,,078,56,128,51,079,64,329,51*7C
$GPGSV,8,5,31,081,65,206,53,082,15,211,49,087,10,033,39,088,54,039,53*76
$GPGSV,8,6,31,102,14,300,,103,07,263,,108,08,311,,110,65,112,47*72
$GPGSV,8,7,31,111,53,168,46,112,51,064,41,124,54,107,44,125,63,311,46*7D
$GPGSV,8,8,31,131,07,115,,133,06,034,,136,10,198,39*75
$GPRMC,071043.00,A,4444.2214,N,03955.8563,E,000.00000,148.8,210522,,,A*5B
$GPZDA,071043.00,21,05,2022,+00,00*48
$GPGGA,071043.20,4444.2214,N,03955.8563,E,1,19,0.6,00142.9,M,0017.2,M,,*6C
$GLGSA,A,3,078,079,081,082,087,088,,,,,,,1.0,0.6,0.8*2C
$GPGSA,A,3,002,006,012,019,020,022,024,025,029,032,,,1.0,0.6,0.8*3B
$GAGSA,A,3,111,124,125,,,,,,,,,,1.0,0.6,0.8*1C
$GPRMC,071043.20,A,4444.2214,N,03955.8563,E,000.00000,152.0,210522,,,A*5A
$GPGGA,071043.40,4444.2214,N,03955.8563,E,1,19,0.6,00142.9,M,0017.2,M,,*6A
$GLGSA,A,3,078,079,081,082,087,088,,,,,,,1.0,0.6,0.8*2C
$GPGSA,A,3,002,006,012,019,020,022,024,025,029,032,,,1.0,0.6,0.8*3B
$GAGSA,A,3,111,124,125,,,,,,,,,,1.0,0.6,0.8*1C
$GPRMC,071043.40,A,4444.2214,N,03955.8563,E,000.00000,153.8,210522,,,A*55
$GPGGA,071043.60,4444.2214,N,03955.8563,E,1,19,0.6,00142.9,M,0017.2,M,,*68
$GLGSA,A,3,078,079,081,082,087,088,,,,,,,1.0,0.6,0.8*2C
$GPGSA,A,3,002,006,012,019,020,022,024,025,029,032,,,1.0,0.6,0.8*3B
$GAGSA,A,3,111,124,125,,,,,,,,,,1.0,0.6,0.8*1C
$GPRMC,071043.60,A,4444.2214,N,03955.8563,E,000.00000,154.8,210522,,,A*50
$GPGGA,071043.80,4444.2214,N,03955.8563,E,1,19,0.6,00142.9,M,0017.2,M,,*66
$GLGSA,A,3,078,079,081,082,087,088,,,,,,,1.0,0.6,0.8*2C
$GPGSA,A,3,002,006,012,019,020,022,024,025,029,032,,,1.0,0.6,0.8*3B
$GAGSA,A,3,111,124,125,,,,,,,,,,1.0,0.6,0.8*1C
$GPRMC,071043.80,A,4444.2214,N,03955.8563,E,000.00000,155.4,210522,,,A*53
$GPGGA,071044.00,4444.2214,N,03955.8563,E,1,19,0.6,00142.9,M,0017.2,M,,*69
$GLGSA,A,3,078,079,081,082,087,088,,,,,,,1.0,0.6,0.8*2C
$GPGSA,A,3,002,006,012,019,020,022,024,025,029,032,,,1.0,0.6,0.8*3B
$GAGSA,A,3,111,124,125,,,,,,,,,,1.0,0.6,0.8*1C
$GPGSV,8,1,31,002,60,127,50,006,40,057,46,011,54,124,46,012,79,028,52*71
$GPGSV,8,2,31,019,15,056,39,020,07,130,35,022,11,312,45,024,41,191,51*7A
$GPGSV,8,3,31,025,43,301,47,029,20,243,40,032,12,291,41,070,02,314,*77
$GPGSV,8,4,31,071,04,359,34,077,02,135,,078,56,128,50,079,64,329,51*7A
$GPGSV,8,5,31,081,65,206,53,082,15,211,49,087,10,033,39,088,54,039,53*76
$GPGSV,8,6,31,102,14,300,,103,07,263,,108,08,311,,110,65,112,47*72
$GPGSV,8,7,31,111,53,168,46,112,51,064,41,124,54,107,44,125,63,311,46*7D
$GPGSV,8,8,31,131,07,115,,133,06,034,,136,10,198,39*75
$GPRMC,071044.00,A,4444.2214,N,03955.8563,E,000.00000,155.7,210522,,,A*5F
$GPZDA,071044.00,21,05,2022,+00,00*4F
$GPGGA,071044.20,4444.2214,N,03955.8563,E,1,19,0.6,00142.9,M,0017.2,M,,*6B
$GLGSA,A,3,078,079,081,082,087,088,,,,,,,1.0,0.6,0.8*2C
$GPGSA,A,3,002,006,012,019,020,022,024,025,029,032,,,1.0,0.6,0.8*3B
$GAGSA,A,3,111,124,125,,,,,,,,,,1.0,0.6,0.8*1C
$GPRMC,071044.20,A,4444.2214,N,03955.8563,E,000.00000,155.8,210522,,,A*52
$GPGGA,071044.40,4444.2214,N,03955.8563,E,1,19,0.6,00142.9,M,0017.2,M,,*6D
$GLGSA,A,3,078,079,081,082,087,088,,,,,,,1.0,0.6,0.8*2C
$GPGSA,A,3,002,006,012,019,020,022,024,025,029,032,,,1.0,0.6,0.8*3B
$GAGSA,A,3,111,124,125,,,,,,,,,,1.0,0.6,0.8*1C
$GPRMC,071044.40,A,4444.2214,N,03955.8563,E,000.00000,155.9,210522,,,A*55
$GPGGA,071044.60,4444.2214,N,03955.8563,E,1,19,0.6,00142.9,M,0017.2,M,,*6F
$GLGSA,A,3,078,079,081,082,087,088,,,,,,,1.0,0.6,0.8*2C
$GPGSA,A,3,002,006,012,019,020,022,024,025,029,032,,,1.0,0.6,0.8*3B
$GAGSA,A,3,111,124,125,,,,,,,,,,1.0,0.6,0.8*1C
$GPRMC,071044.60,A,4444.2214,N,03955.8563,E,000.00000,156.0,210522,,,A*5D
$GPGGA,071044.80,4444.2214,N,03955.8563,E,1,19,0.6,00142.9,M,0017.2,M,,*61
$GLGSA,A,3,078,079,081,082,087,088,,,,,,,1.0,0.6,0.8*2C
$GPGSA,A,3,002,006,012,019,020,022,024,025,029,032,,,1.0,0.6,0.8*3B
$GAGSA,A,3,111,124,125,,,,,,,,,,1.0,0.6,0.8*1C
$GPRMC,071044.80,A,4444.2214,N,03955.8563,E,000.00000,156.0,210522,,,A*53
$GPGGA,071045.00,4444.2214,N,03955.8563,E,1,19,0.6,00142.9,M,0017.2,M,,*68
$GLGSA,A,3,078,079,081,082,087,088,,,,,,,1.0,0.6,0.8*2C
$GPGSA,A,3,002,006,012,019,020,022,024,025,029,032,,,1.0,0.6,0.8*3B
$GAGSA,A,3,111,124,125,,,,,,,,,,1.0,0.6,0.8*1C
$GPGSV,8,1,31,002,60,127,50,006,40,057,46,011,54,124,46,012,79,028,52*71
$GPGSV,8,2,31,019,15,056,39,020,07,130,35,022,11,312,45,024,41,191,52*79
$GPGSV,8,3,31,025,43,301,47,029,20,243,39,032,12,290,41,070,02,314,*78
$GPGSV,8,4,31,071,04,359,32,077,02,135,,078,56,128,51,079,64,329,50*7C
$GPGSV,8,5,31,081,65,206,53,082,15,211,48,087,10,033,38,088,54,039,53*76
$GPGSV,8,6,31,102,14,300,,103,07,263,,108,08,311,,110,65,112,47*72
$GPGSV,8,7,31,111,53,168,46,112,51,064,41,124,54,107,44,125,64,311,46*7A
$GPGSV,8,8,31,131,07,115,,133,06,034,,136,10,198,39*75
$GPRMC,071045.00,A,4444.2214,N,03955.8563,E,000.00000,156.0,210522,,,A*5A
$GPZDA,071045.00,21,05,2022,+00,00*4E
$GPGGA,071045.20,4444.2214,N,03955.8563,E,1,19,0.6,00142.9,M,0017.2,M,,*6A
$GLGSA,A,3,078,079,081,082,087,088,,,,,,,1.0,0.6,0.8*2C
$GPGSA,A,3,002,006,012,019,020,022,024,025,029,032,,,1.0,0.6,0.8*3B
$GAGSA,A,3,111,124,125,,,,,,,,,,1.0,0.6,0.8*1C
$GPRMC,071045.20,A,4444.2214,N,03955.8563,E,000.00000,156.0,210522,,,A*58
$GPGGA,071045.40,4444.2214,N,03955.8563,E,1,19,0.6,00142.9,M,0017.2,M,,*6C
$GLGSA,A,3,078,079,081,082,087,088,,,,,,,1.0,0.6,0.8*2C
$GPGSA,A,3,002,006,012,019,020,022,024,025,029,032,,,1.0,0.6,0.8*3B
$GAGSA,A,3,111,124,125,,,,,,,,,,1.0,0.6,0.8*1C
$GPRMC,071045.40,A,4444.2214,N,03955.8563,E,000.00000,156.0,210522,,,A*5E
$GPGGA,071045.60,4444.2214,N,03955.8563,E,1,19,0.6,00142.9,M,0017.2,M,,*6E
$GLGSA,A,3,078,079,081,082,087,088,,,,,,,1.0,0.6,0.8*2C
$GPGSA,A,3,002,006,012,019,020,022,024,025,029,032,,,1.0,0.6,0.8*3B
$GAGSA,A,3,111,124,125,,,,,,,,,,1.0,0.6,0.8*1C
$GPRMC,071045.60,A,4444.2214,N,03955.8563,E,000.00000,156.0,210522,,,A*5C
$GPGGA,071045.80,4444.2214,N,03955.8563,E,1,19,0.6,00142.9,M,0017.2,M,,*60
$GLGSA,A,3,078,079,081,082,087,088,,,,,,,1.0,0.6,0.8*2C
$GPGSA,A,3,002,006,012,019,020,022,024,025,029,032,,,1.0,0.6,0.8*3B
$GAGSA,A,3,111,124,125,,,,,,,,,,1.0,0.6,0.8*1C
$GPRMC,071045.80,A,4444.2214,N,03955.8563,E,000.00000,156.0,210522,,,A*52
$GPGGA,071046.00,4444.2214,N,03955.8563,E,1,19,0.6,00142.9,M,0017.2,M,,*6B
$GLGSA,A,3,078,079,081,082,087,088,,,,,,,1.0,0.6,0.8*2C
$GPGSA,A,3,002,006,012,019,020,022,024,025,029,032,,,1.0,0.6,0.8*3B
$GAGSA,A,3,111,124,125,,,,,,,,,,1.0,0.6,0.8*1C
$GPGSV,8,1,31,002,60,127,49,006,40,057,46,011,54,124,47,012,79,028,52*78
$GPGSV,8,2,31,019,15,056,39,020,07,130,35,022,11,312,45,024,41,191,52*79
$GPGSV,8,3,31,025,43,301,47,029,20,243,37,032,12,290,41,070,02,314,*76
$GPGSV,8,4,31,071,04,359,31,077,02,135,,078,56,128,51,079,64,329,51*7E
$GPGSV,8,5,31,081,65,206,53,082,15,211,48,087,10,033,37,088,54,039,54*7E
$GPGSV,8,6,31,102,14,300,,103,07,263,,108,08,311,,110,65,112,47*72
$GPGSV,8,7,31,111,53,168,46,112,51,064,41,124,54,107,44,125,64,311,46*7A
$GPGSV,8,8,31,131,07,115,,133,06,034,,136,10,198,39*75
$GPRMC,071046.00,A,4444.2214,N,03955.8563,E,000.00000,156.0,210522,,,A*59
$GPZDA,071046.00,21,05,2022,+00,00*4D
$GPGGA,071046.20,4444.2214,N,03955.8563,E,1,19,0.6,00142.9,M,0017.2,M,,*69
$GLGSA,A,3,078,079,081,082,087,088,,,,,,,1.0,0.6,0.8*2C
$GPGSA,A,3,002,006,012,019,020,022,024,025,029,032,,,1.0,0.6,0.8*3B
$GAGSA,A,3,111,124,125,,,,,,,,,,1.0,0.6,0.8*1C
$GPRMC,071046.20,A,4444.2214,N,03955.8563,E,000.00000,156.0,210522,,,A*5B
$GPGGA,071046.40,4444.2214,N,03955.8563,E,1,19,0.6,00142.9,M,0017.2,M,,*6F
$GLGSA,A,3,078,079,081,082,087,088,,,,,,,1.0,0.6,0.8*2C
$GPGSA,A,3,002,006,012,019,020,022,024,025,029,032,,,1.0,0.6,0.8*3B
$GAGSA,A,3,111,124,125,,,,,,,,,,1.0,0.6,0.8*1C
$GPRMC,071046.40,A,4444.2214,N,03955.8563,E,000.00000,156.0,210522,,,A*5D
$GPGGA,071046.60,4444.2214,N,03955.8563,E,1,19,0.6,00142.9,M,0017.2,M,,*6D
$GLGSA,A,3,078,079,081,082,087,088,,,,,,,1.0,0.6,0.8*2C
$GPGSA,A,3,002,006,012,019,020,022,024,025,029,032,,,1.0,0.6,0.8*3B
$GAGSA,A,3,111,124,125,,,,,,,,,,1.0,0.6,0.8*1C
$GPRMC,071046.60,A,4444.2214,N,03955.8563,E,000.00000,124.7,210522,,,A*5D
$GPGGA,071046.80,4444.2214,N,03955.8563,E,1,19,0.6,00142.9,M,0017.2,M,,*63
$GLGSA,A,3,078,079,081,082,087,088,,,,,,,1.0,0.6,0.8*2C
$GPGSA,A,3,002,006,012,019,020,022,024,025,029,032,,,1.0,0.6,0.8*3B
$GAGSA,A,3,111,124,125,,,,,,,,,,1.0,0.6,0.8*1C
$GPRMC,071046.80,A,4444.2214,N,03955.8563,E,000.00000,138.4,210522,,,A*5D
$GPGGA,071047.00,4444.2214,N,03955.8563,E,1,19,0.6,00142.9,M,0017.2,M,,*6A
$GLGSA,A,3,078,079,081,082,087,088,,,,,,,1.0,0.6,0.8*2C
$GPGSA,A,3,002,006,012,019,020,022,024,025,029,032,,,1.0,0.6,0.8*3B
$GAGSA,A,3,111,124,125,,,,,,,,,,1.0,0.6,0.8*1C
$GPGSV,8,1,31,002,60,127,49,006,40,057,46,011,54,124,47,012,79,028,52*78
$GPGSV,8,2,31,019,15,056,40,020,07,130,35,022,11,312,45,024,41,191,51*74
$GPGSV,8,3,31,025,43,301,47,029,20,243,37,032,12,290,42,070,02,314,*75
$GPGSV,8,4,31,071,04,359,33,077,02,135,,078,56,128,51,079,64,329,50*7D
$GPGSV,8,5,31,081,65,206,53,082,15,211,49,087,10,033,39,088,54,039,54*71
$GPGSV,8,6,31,102,14,300,,103,07,263,,108,08,311,,110,65,112,47*72
$GPGSV,8,7,31,111,53,168,46,112,51,064,40,124,54,107,44,125,64,311,46*7B
$GPGSV,8,8,31,131,07,115,,133,06,034,,136,10,198,39*75
$GPRMC,071047.00,A,4444.2214,N,03955.8563,E,000.00000,137.4,210522,,,A*5B
$GPZDA,071047.00,21,05,2022,+00,00*4C
$GPGGA,071047.20,4444.2214,N,03955.8563,E,1,19,0.6,00142.9,M,0017.2,M,,*68
$GLGSA,A,3,078,079,081,082,087,088,,,,,,,1.0,0.6,0.8*2C
$GPGSA,A,3,002,006,012,019,020,022,024,025,029,032,,,1.0,0.6,0.8*3B
$GAGSA,A,3,111,124,125,,,,,,,,,,1.0,0.6,0.8*1C
$GPRMC,071047.20,A,4444.2214,N,03955.8563,E,000.00000,110.8,210522,,,A*50
$GPGGA,071047.40,4444.2214,N,03955.8563,E,1,19,0.6,00142.9,M,0017.2,M,,*6E
$GLGSA,A,3,078,079,081,082,087,088,,,,,,,1.0,0.6,0.8*2C
$GPGSA,A,3,002,006,012,019,020,022,024,025,029,032,,,1.0,0.6,0.8*3B
$GAGSA,A,3,111,124,125,,,,,,,,,,1.0,0.6,0.8*1C
$GPRMC,071047.40,A,4444.2214,N,03955.8563,E,000.00000,101.6,210522,,,A*58
$GPGGA,071047.60,4444.2214,N,03955.8563,E,1,19,0.6,00142.9,M,0017.2,M,,*6C
$GLGSA,A,3,078,079,081,082,087,088,,,,,,,1.0,0.6,0.8*2C
$GPGSA,A,3,002,006,012,019,020,022,024,025,029,032,,,1.0,0.6,0.8*3B
$GAGSA,A,3,111,124,125,,,,,,,,,,1.0,0.6,0.8*1C
$GPRMC,071047.60,A,4444.2214,N,03955.8563,E,000.00000,070.0,210522,,,A*5B
$GPGGA,071047.80,4444.2214,N,03955.8563,E,1,19,0.6,00142.9,M,0017.2,M,,*62
$GLGSA,A,3,078,079,081,082,087,088,,,,,,,1.0,0.6,0.8*2C
$GPGSA,A,3,002,006,012,019,020,022,024,025,029,032,,,1.0,0.6,0.8*3B
$GAGSA,A,3,111,124,125,,,,,,,,,,1.0,0.6,0.8*1C
$GPRMC,071047.80,A,4444.2214,N,03955.8563,E,000.00000,079.5,210522,,,A*59
$GPGGA,071048.00,4444.2214,N,03955.8563,E,1,19,0.6,00142.9,M,0017.2,M,,*65
$GLGSA,A,3,078,079,081,082,087,088,,,,,,,1.0,0.6,0.8*2C
$GPGSA,A,3,002,006,012,019,020,022,024,025,029,032,,,1.0,0.6,0.8*3B
$GAGSA,A,3,111,124,125,,,,,,,,,,1.0,0.6,0.8*1C
$GPGSV,8,1,31,002,60,127,49,006,40,057,46,011,54,124,47,012,79,028,52*78
$GPGSV,8,2,31,019,15,056,40,020,07,130,35,022,11,312,45,024,41,191,51*74
$GPGSV,8,3,31,025,43,301,46,029,20,243,38,032,12,290,42,070,02,314,*7B
$GPGSV,8,4,31,071,04,359,35,077,02,135,,078,56,128,51,079,64,329,51*7A
$GPGSV,8,5,31,081,65,206,53,082,15,211,49,087,10,033,39,088,54,039,54*71
$GPGSV,8,6,31,102,14,300,,103,07,263,,108,08,311,,110,65,112,47*72
$GPGSV,8,7,31,111,53,168,46,112,51,064,41,124,54,107,44,125,64,311,46*7A
$GPGSV,8,8,31,131,07,115,,133,06,034,,136,10,198,39*75
$GPRMC,071048.00,A,4444.2214,N,03955.8563,E,000.00000,070.6,210522,,,A*54
$GPZDA,071048.00,21,05,2022,+00,00*43
$GPGGA,071048.20,4444.2214,N,03955.8563,E,1,19,0.6,00142.9,M,0017.2,M,,*67
$GLGSA,A,3,078,079,081,082,087,088,,,,,,,1.0,0.6,0.8*2C
$GPGSA,A,3,002,006,012,019,020,022,024,025,029,032,,,1.0,0.6,0.8*3B
$GAGSA,A,3,111,124,125,,,,,,,,,,1.0,0.6,0.8*1C
$GPRMC,071048.20,A,4444.2214,N,03955.8563,E,000.00000,299.8,210522,,,A*5D
$GPGGA,071048.40,4444.2214,N,03955.8563,E,1,19,0.6,00142.9,M,0017.2,M,,*61
$GLGSA,A,3,078,079,081,082,087,088,,,,,,,1.0,0.6,0.8*2C
$GPGSA,A,3,002,006,012,019,020,022,024,025,029,032,,,1.0,0.6,0.8*3B
$GAGSA,A,3,111,124,125,,,,,,,,,,1.0,0.6,0.8*1C
$GPRMC,071048.40,A,4444.2214,N,03955.8563,E,000.00000,292.6,210522,,,A*5E
$GPGGA,071048.60,4444.2214,N,03955.8563,E,1,19,0.6,00142.9,M,0017.2,M,,*63
$GLGSA,A,3,078,079,081,082,087,088,,,,,,,1.0,0.6,0.8*2C
$GPGSA,A,3,002,006,012,019,020,022,024,025,029,032,,,1.0,0.6,0.8*3B
$GAGSA,A,3,111,124,125,,,,,,,,,,1.0,0.6,0.8*1C
$GPRMC,071048.60,A,4444.2214,N,03955.8563,E,000.00000,281.7,210522,,,A*5F
$GPGGA,071048.80,4444.2214,N,03955.8563,E,1,19,0.6,00142.9,M,0017.2,M,,*6D
$GLGSA,A,3,078,079,081,082,087,088,,,,,,,1.0,0.6,0.8*2C
$GPGSA,A,3,002,006,012,019,020,022,024,025,029,032,,,1.0,0.6,0.8*3B
$GAGSA,A,3,111,124,125,,,,,,,,,,1.0,0.6,0.8*1C
$GPRMC,071048.80,A,4444.2214,N,03955.8563,E,000.00000,242.0,210522,,,A*59
$GPGGA,071049.00,4444.2214,N,03955.8563,E,1,19,0.6,00142.9,M,0017.2,M,,*64
$GLGSA,A,3,078,079,081,082,087,088,,,,,,,1.0,0.6,0.8*2C
$GPGSA,A,3,002,006,012,019,020,022,024,025,029,032,,,1.0,0.6,0.8*3B
$GAGSA,A,3,111,124,125,,,,,,,,,,1.0,0.6,0.8*1C
$GPGSV,8,1,31,002,60,127,49,006,40,057,45,011,54,124,46,012,79,028,52*7A
$GPGSV,8,2,31,019,15,056,41,020,07,130,36,022,11,312,45,024,41,191,51*76
$GPGSV,8,3,31,025,43,301,46,029,20,243,39,032,12,290,43,070,02,314,*7B
$GPGSV,8,4,31,071,04,359,34,077,02,135,,078,56,128,51,079,64,329,51*7B
$GPGSV,8,5,31,081,65,206,53,082,15,211,49,087,10,033,40,088,54,039,54*7F
$GPGSV,8,6,31,102,14,300,,103,07,262,,108,08,311,,110,65,112,47*73
$GPGSV,8,7,31,111,53,168,46,112,51,064,40,124,54,107,44,125,64,311,46*7B
$GPGSV,8,8,31,131,07,115,,133,06,034,,136,10,198,40*7B
$GPRMC,071049.00,A,4444.2214,N,03955.8563,E,000.00000,189.2,210522,,,A*56
$GPZDA,071049.00,21,05,2022,+00,00*42
$GPGGA,071049.20,4444.2214,N,03955.8563,E,1,19,0.6,00142.9,M,0017.2,M,,*66
$GLGSA,A,3,078,079,081,082,087,088,,,,,,,1.0,0.6,0.8*2C
$GPGSA,A,3,002,006,012,019,020,022,024,025,029,032,,,1.0,0.6,0.8*3B
$GAGSA,A,3,111,124,125,,,,,,,,,,1.0,0.6,0.8*1C
$GPRMC,071049.20,A,4444.2214,N,03955.8563,E,000.00000,169.6,210522,,,A*5E
$GPGGA,071049.40,4444.2214,N,03955.8563,E,1,19,0.6,00142.9,M,0017.2,M,,*60
$GLGSA,A,3,078,079,081,082,087,088,,,,,,,1.0,0.6,0.8*2C
$GPGSA,A,3,002,006,012,019,020,022,024,025,029,032,,,1.0,0.6,0.8*3B
$GAGSA,A,3,111,124,125,,,,,,,,,,1.0,0.6,0.8*1C
$GPRMC,071049.40,A,4444.2214,N,03955.8563,E,000.00000,162.5,210522,,,A*50
$GPGGA,071049.60,4444.2214,N,03955.8563,E,1,19,0.6,00142.9,M,0017.2,M,,*62
$GLGSA,A,3,078,079,081,082,087,088,,,,,,,1.0,0.6,0.8*2C
$GPGSA,A,3,002,006,012,019,020,022,024,025,029,032,,,1.0,0.6,0.8*3B
$GAGSA,A,3,111,124,125,,,,,,,,,,1.0,0.6,0.8*1C
$GPRMC,071049.60,A,4444.2214,N,03955.8563,E,000.00000,159.4,210522,,,A*5B
$GPGGA,071049.80,4444.2214,N,03955.8563,E,1,19,0.6,00142.9,M,0017.2,M,,*6C
$GLGSA,A,3,078,079,081,082,087,088,,,,,,,1.0,0.6,0.8*2C
$GPGSA,A,3,002,006,012,019,020,022,024,025,029,032,,,1.0,0.6,0.8*3B
$GAGSA,A,3,111,124,125,,,,,,,,,,1.0,0.6,0.8*1C
$GPRMC,071049.80,A,4444.2214,N,03955.8563,E,000.00000,157.8,210522,,,A*57
$GPGGA,071050.00,4444.2214,N,03955.8563,E,1,19,0.6,00142.9,M,0017.2,M,,*6C
$GLGSA,A,3,078,079,081,082,087,088,,,,,,,1.0,0.6,0.8*2C
$GPGSA,A,3,002,006,012,019,020,022,024,025,029,032,,,1.0,0.6,0.8*3B
$GAGSA,A,3,111,124,125,,,,,,,,,,1.0,0.6,0.8*1C
$GPGSV,8,1,31,002,60,127,49,006,40,057,46,011,54,124,46,012,79,028,52*79
$GPGSV,8,2,31,019,15,056,41,020,07,130,35,022,11,312,45,024,41,191,51*75
$GPGSV,8,3,31,025,43,301,46,029,20,243,39,032,12,290,43,070,02,314,*7B
$GPGSV,8,4,31,071,04,359,33,077,02,135,,078,56,128,51,079,64,329,50*7D
$GPGSV,8,5,31,081,65,206,53,082,15,211,49,087,10,033,40,088,54,039,54*7F
$GPGSV,8,6,31,102,14,300,,103,07,262,,108,08,311,,110,65,112,47*73
$GPGSV,8,7,31,111,53,168,45,112,51,064,40,124,54,107,44,125,64,311,46*78
$GPGSV,8,8,31,131,07,115,,133,06,034,,136,10,198,40*7B
$GPRMC,071050.00,A,4444.2214,N,03955.8563,E,000.00000,157.0,210522,,,A*5F
$GPZDA,071050.00,21,05,2022,+00,00*4A
$GPGGA,071050.20,4444.2214,N,03955.8563,E,1,19,0.6,00142.9,M,0017.2,M,,*6E
$GLGSA,A,3,078,079,081,082,087,088,,,,,,,1.0,0.6,0.8*2C
$GPGSA,A,3,002,006,012,019,020,022,024,025,029,032,,,1.0,0.6,0.8*3B
$GAGSA,A,3,111,124,125,,,,,,,,,,1.0,0.6,0.8*1C
$GPRMC,071050.20,A,4444.2214,N,03955.8563,E,000.00000,156.6,210522,,,A*5A
$GPGGA,071050.40,4444.2214,N,03955.8563,E,1,19,0.6,00142.9,M,0017.2,M,,*68
$GLGSA,A,3,078,079,081,082,087,088,,,,,,,1.0,0.6,0.8*2C
$GPGSA,A,3,002,006,012,019,020,022,024,025,029,032,,,1.0,0.6,0.8*3B
$GAGSA,A,3,111,124,125,,,,,,,,,,1.0,0.6,0.8*1C
$GPRMC,071050.40,A,4444.2214,N,03955.8563,E,000.00000,156.3,210522,,,A*59
$GPGGA,071050.60,4444.2214,N,03955.8563,E,1,19,0.6,00142.9,M,0017.2,M,,*6A
$GLGSA,A,3,078,079,081,082,087,088,,,,,,,1.0,0.6,0.8*2C
$GPGSA,A,3,002,006,012,019,020,022,024,025,029,032,,,1.0,0.6,0.8*3B
$GAGSA,A,3,111,124,125,,,,,,,,,,1.0,0.6,0.8*1C
$GPRMC,071050.60,A,4444.2214,N,03955.8563,E,000.00000,156.2,210522,,,A*5A
$GPGGA,071050.80,4444.2214,N,03955.8563,E,1,19,0.6,00142.9,M,0017.2,M,,*64
$GLGSA,A,3,078,079,081,082,087,088,,,,,,,1.0,0.6,0.8*2C
$GPGSA,A,3,002,006,012,019,020,022,024,025,029,032,,,1.0,0.6,0.8*3B
$GAGSA,A,3,111,124,125,,,,,,,,,,1.0,0.6,0.8*1C
$GPRMC,071050.80,A,4444.2214,N,03955.8563,E,000.00000,156.1,210522,,,A*57
$GPGGA,071051.00,4444.2214,N,03955.8563,E,1,19,0.6,00142.9,M,0017.2,M,,*6D
$GLGSA,A,3,078,079,081,082,087,088,,,,,,,1.0,0.6,0.8*2C
