$GPGSV,7,2,26,017,16,051,42,019,37,051,49,022,05,331,,024,64,211,49*71
$GPGSV,7,3,26,025,22,288,41,029,11,236,,032,13,313,50,071,08,286,45*71
$GPGSV,7,4,26,072,09,332,49,073,35,317,50,079,26,117,45,081,28,033,50*75
$GPGSV,7,5,26,082,73,085,51,083,44,185,40,102,07,100,41,107,07,220,*7A
$GPGSV,7,6,26,113,00,192,,115,40,160,47,127,56,305,47,130,59,086,46*70
$GPGSV,7,7,26,134,50,081,47,136,14,035,*73
$GPRMC,060910.00,A,4444.1060,N,03955.9738,E,000.00000,336.0,230522,,,A*5A
$GPZDA,060910.00,23,05,2022,+00,00*45
$GPGGA,060910.20,4444.1060,N,03955.9738,E,1,17,0.7,00156.4,M,0017.2,M,,*6B
$GLGSA,A,3,071,072,073,079,081,082,083,,,,,,1.3,0.7,1.1*1A
$GPGSA,A,3,002,006,012,017,019,024,025,032,,,,,1.3,0.7,1.1*3E
$GAGSA,A,3,115,127,,,,,,,,,,,1.3,0.7,1.1*27
$GPRMC,060910.20,A,4444.1060,N,03955.9738,E,000.00000,336.0,230522,,,A*58
$GPGGA,060910.40,4444.1060,N,03955.9738,E,1,17,0.7,00156.4,M,0017.2,M,,*6D
$GLGSA,A,3,071,072,073,079,081,082,083,,,,,,1.3,0.7,1.1*1A
$GPGSA,A,3,002,006,012,017,019,024,025,032,,,,,1.3,0.7,1.1*3E
$GAGSA,A,3,115,127,,,,,,,,,,,1.3,0.7,1.1*27
$GPRMC,060910.40,A,4444.1060,N,03955.9738,E,000.00000,336.0,230522,,,A*5E
$GPGGA,060910.60,4444.1060,N,03955.9738,E,1,17,0.7,00156.4,M,0017.2,M,,*6F
$GLGSA,A,3,071,072,073,079,081,082,083,,,,,,1.3,0.7,1.1*1A
$GPGSA,A,3,002,006,012,017,019,024,025,032,,,,,1.3,0.7,1.1*3E
$GAGSA,A,3,115,127,,,,,,,,,,,1.3,0.7,1.1*27
$GPRMC,060910.60,A,4444.1060,N,03955.9738,E,000.00000,336.0,230522,,,A*5C
$GPGGA,060910.80,4444.1060,N,03955.9738,E,1,17,0.7,00156.4,M,0017.2,M,,*61
$GLGSA,A,3,071,072,073,079,081,082,083,,,,,,1.3,0.7,1.1*1A
$GPGSA,A,3,002,006,012,017,019,024,025,032,,,,,1.3,0.7,1.1*3E
$GAGSA,A,3,115,127,,,,,,,,,,,1.3,0.7,1.1*27
$GPRMC,060910.80,A,4444.1060,N,03955.9738,E,000.00000,336.0,230522,,,A*52
$GPGGA,060911.00,4444.1060,N,03955.9738,E,1,17,0.7,00156.4,M,0017.2,M,,*68
$GLGSA,A,3,071,072,073,079,081,082,083,,,,,,1.3,0.7,1.1*1A
$GPGSA,A,3,002,006,012,017,019,024,025,032,,,,,1.3,0.7,1.1*3E
$GAGSA,A,3,115,127,,,,,,,,,,,1.3,0.7,1.1*27
$GPGSV,7,1,26,002,39,153,48,006,45,090,48,011,45,137,47,012,64,309,49*7B
$GPGSV,7,2,26,017,16,051,42,019,37,051,49,022,05,331,,024,64,211,49*71
$GPGSV,7,3,26,025,22,288,40,029,11,236,,032,13,313,49,071,08,286,45*78
$GPGSV,7,4,26,072,09,332,49,073,35,317,50,079,26,117,45,081,28,033,50*75
$GPGSV,7,5,26,082,73,085,51,083,44,185,40,102,07,100,41,107,07,220,*7A
$GPGSV,7,6,26,113,00,192,,115,40,160,47,127,56,305,47,130,59,086,46*70
$GPGSV,7,7,26,134,50,081,47,136,14,035,*73
$GPRMC,060911.00,A,4444.1060,N,03955.9738,E,000.00000,336.0,230522,,,A*5B
$GPZDA,060911.00,23,05,2022,+00,00*44
$GPGGA,060911.20,4444.1060,N,03955.9738,E,1,17,0.7,00156.4,M,0017.2,M,,*6A
$GLGSA,A,3,071,072,073,079,081,082,083,,,,,,1.3,0.7,1.1*1A
$GPGSA,A,3,002,006,012,017,019,024,025,032,,,,,1.3,0.7,1.1*3E
$GAGSA,A,3,115,127,,,,,,,,,,,1.3,0.7,1.1*27
$GPRMC,060911.20,A,4444.1060,N,03955.9738,E,000.00000,336.0,230522,,,A*59
$GPGGA,060911.40,4444.1060,N,03955.9738,E,1,17,0.7,00156.4,M,0017.2,M,,*6C
$GLGSA,A,3,071,072,073,079,081,082,083,,,,,,1.3,0.7,1.1*1A
$GPGSA,A,3,002,006,012,017,019,024,025,032,,,,,1.3,0.7,1.1*3E
$GAGSA,A,3,115,127,,,,,,,,,,,1.3,0.7,1.1*27
$GPRMC,060911.40,A,4444.1060,N,03955.9738,E,000.00000,336.0,230522,,,A*5F
$GPGGA,060911.60,4444.1060,N,03955.9738,E,1,17,0.7,00156.4,M,0017.2,M,,*6E
$GLGSA,A,3,071,072,073,079,081,082,083,,,,,,1.3,0.7,1.1*1A
$GPGSA,A,3,002,006,012,017,019,024,025,032,,,,,1.3,0.7,1.1*3E
$GAGSA,A,3,115,127,,,,,,,,,,,1.3,0.7,1.1*27
$GPRMC,060911.60,A,4444.1060,N,03955.9738,E,000.00000,336.0,230522,,,A*5D
$GPGGA,060911.80,4444.1060,N,03955.9738,E,1,17,0.7,00156.4,M,0017.2,M,,*60
$GLGSA,A,3,071,072,073,079,081,082,083,,,,,,1.3,0.7,1.1*1A
$GPGSA,A,3,002,006,012,017,019,024,025,032,,,,,1.3,0.7,1.1*3E
$GAGSA,A,3,115,127,,,,,,,,,,,1.3,0.7,1.1*27
$GPRMC,060911.80,A,4444.1060,N,03955.9738,E,000.00000,336.0,230522,,,A*53
$GPGGA,060912.00,4444.1060,N,03955.9738,E,1,17,0.7,00156.4,M,0017.2,M,,*6B
$GLGSA,A,3,071,072,073,079,081,082,083,,,,,,1.3,0.7,1.1*1A
$GPGSA,A,3,002,006,012,017,019,024,025,032,,,,,1.3,0.7,1.1*3E
$GAGSA,A,3,115,127,,,,,,,,,,,1.3,0.7,1.1*27
$GPGSV,7,1,26,002,39,153,48,006,45,090,48,011,45,137,47,012,64,309,49*7B
$GPGSV,7,2,26,017,16,051,42,019,37,051,49,022,05,331,,024,64,211,49*71
$GPGSV,7,3,26,025,22,288,40,029,11,236,,032,13,313,49,071,08,286,46*7B
$GPGSV,7,4,26,072,09,332,49,073,35,317,50,079,26,117,44,081,28,033,50*74
$GPGSV,7,5,26,082,73,085,51,083,44,185,40,102,07,100,41,107,07,220,*7A
$GPGSV,7,6,26,113,00,192,,115,40,160,47,127,56,305,47,130,59,086,46*70
$GPGSV,7,7,26,134,50,081,47,136,14,035,*73
$GPRMC,060912.00,A,4444.1060,N,03955.9738,E,000.00000,336.0,230522,,,A*58
$GPZDA,060912.00,23,05,2022,+00,00*47
$GPGGA,060912.20,4444.1060,N,03955.9738,E,1,17,0.7,00156.4,M,0017.2,M,,*69
$GLGSA,A,3,071,072,073,079,081,082,083,,,,,,1.3,0.7,1.1*1A
$GPGSA,A,3,002,006,012,017,019,024,025,032,,,,,1.3,0.7,1.1*3E
$GAGSA,A,3,115,127,,,,,,,,,,,1.3,0.7,1.1*27
$GPRMC,060912.20,A,4444.1060,N,03955.9738,E,000.00000,336.0,230522,,,A*5A
$GPGGA,060912.40,4444.1060,N,03955.9738,E,1,17,0.7,00156.4,M,0017.2,M,,*6F
$GLGSA,A,3,071,072,073,079,081,082,083,,,,,,1.3,0.7,1.1*1A
$GPGSA,A,3,002,006,012,017,019,024,025,032,,,,,1.3,0.7,1.1*3E
$GAGSA,A,3,115,127,,,,,,,,,,,1.3,0.7,1.1*27
$GPRMC,060912.40,A,4444.1060,N,03955.9738,E,000.00000,336.0,230522,,,A*5C
$GPGGA,060912.60,4444.1060,N,03955.9738,E,1,17,0.7,00156.4,M,0017.2,M,,*6D
$GLGSA,A,3,071,072,073,079,081,082,083,,,,,,1.3,0.7,1.1*1A
$GPGSA,A,3,002,006,012,017,019,024,025,032,,,,,1.3,0.7,1.1*3E
$GAGSA,A,3,115,127,,,,,,,,,,,1.3,0.7,1.1*27
$GPRMC,060912.60,A,4444.1060,N,03955.9738,E,000.00000,336.0,230522,,,A*5E
$GPGGA,060912.80,4444.1060,N,03955.9738,E,1,17,0.7,00156.4,M,0017.2,M,,*63
$GLGSA,A,3,071,072,073,079,081,082,083,,,,,,1.3,0.7,1.1*1A
$GPGSA,A,3,002,006,012,017,019,024,025,032,,,,,1.3,0.7,1.1*3E
$GAGSA,A,3,115,127,,,,,,,,,,,1.3,0.7,1.1*27
$GPRMC,060912.80,A,4444.1060,N,03955.9738,E,000.00000,336.0,230522,,,A*50
$GPGGA,060913.00,4444.1060,N,03955.9738,E,1,17,0.7,00156.4,M,0017.2,M,,*6A
$GLGSA,A,3,071,072,073,079,081,082,083,,,,,,1.3,0.7,1.1*1A
$GPGSA,A,3,002,006,012,017,019,024,025,032,,,,,1.3,0.7,1.1*3E
$GAGSA,A,3,115,127,,,,,,,,,,,1.3,0.7,1.1*27
$GPGSV,7,1,26,002,39,153,48,006,45,090,47,011,45,137,46,012,64,309,49*75
$GPGSV,7,2,26,017,16,051,42,019,37,051,49,022,05,331,,024,64,211,49*71
$GPGSV,7,3,26,025,22,288,41,029,11,236,,032,14,313,49,071,08,286,46*7D
$GPGSV,7,4,26,072,09,332,49,073,35,317,50,079,26,117,44,081,28,033,50*74
$GPGSV,7,5,26,082,73,085,51,083,44,185,40,102,07,100,41,107,07,219,*70
$GPGSV,7,6,26,113,00,192,,115,40,160,47,127,56,305,47,130,59,086,46*70
$GPGSV,7,7,26,134,50,081,47,136,14,035,*73
$GPRMC,060913.00,A,4444.1060,N,03955.9738,E,000.00000,336.0,230522,,,A*59
$GPZDA,060913.00,23,05,2022,+00,00*46
$GPGGA,060913.20,4444.1060,N,03955.9738,E,1,17,0.7,00156.4,M,0017.2,M,,*68
$GLGSA,A,3,071,072,073,079,081,082,083,,,,,,1.3,0.7,1.1*1A
$GPGSA,A,3,002,006,012,017,019,024,025,032,,,,,1.3,0.7,1.1*3E
$GAGSA,A,3,115,127,,,,,,,,,,,1.3,0.7,1.1*27
$GPRMC,060913.20,A,4444.1060,N,03955.9738,E,000.00000,336.0,230522,,,A*5B
$GPGGA,060913.40,4444.1060,N,03955.9738,E,1,17,0.7,00156.4,M,0017.2,M,,*6E
$GLGSA,A,3,071,072,073,079,081,082,083,,,,,,1.3,0.7,1.1*1A
$GPGSA,A,3,002,006,012,017,019,024,025,032,,,,,1.3,0.7,1.1*3E
$GAGSA,A,3,115,127,,,,,,,,,,,1.3,0.7,1.1*27
$GPRMC,060913.40,A,4444.1060,N,03955.9738,E,000.00000,336.0,230522,,,A*5D
$GPGGA,060913.60,4444.1060,N,03955.9738,E,1,17,0.7,00156.4,M,0017.2,M,,*6C
$GLGSA,A,3,071,072,073,079,081,082,083,,,,,,1.3,0.7,1.1*1A
$GPGSA,A,3,002,006,012,017,019,024,025,032,,,,,1.3,0.7,1.1*3E
$GAGSA,A,3,115,127,,,,,,,,,,,1.3,0.7,1.1*27
$GPRMC,060913.60,A,4444.1060,N,03955.9738,E,000.00000,336.0,230522,,,A*5F
$GPGGA,060913.80,4444.1060,N,03955.9738,E,1,17,0.7,00156.4,M,0017.2,M,,*62
$GLGSA,A,3,071,072,073,079,081,082,083,,,,,,1.3,0.7,1.1*1A
$GPGSA,A,3,002,006,012,017,019,024,025,032,,,,,1.3,0.7,1.1*3E
$GAGSA,A,3,115,127,,,,,,,,,,,1.3,0.7,1.1*27
$GPRMC,060913.80,A,4444.1060,N,03955.9738,E,000.00000,336.0,230522,,,A*51
$GPGGA,060914.00,4444.1060,N,03955.9738,E,1,17,0.7,00156.4,M,0017.2,M,,*6D
$GLGSA,A,3,071,072,073,079,081,082,083,,,,,,1.3,0.7,1.1*1A
$GPGSA,A,3,002,006,012,017,019,024,025,032,,,,,1.3,0.7,1.1*3E
$GAGSA,A,3,115,127,,,,,,,,,,,1.3,0.7,1.1*27
$GPGSV,7,1,26,002,39,153,49,006,45,090,47,011,45,137,46,012,64,309,49*74
$GPGSV,7,2,26,017,16,051,42,019,37,051,49,022,05,331,,024,64,211,49*71
$GPGSV,7,3,26,025,22,288,40,029,11,236,,032,14,313,50,071,08,286,46*74
$GPGSV,7,4,26,072,09,332,50,073,35,317,50,079,26,117,44,081,28,033,50*7C
$GPGSV,7,5,26,082,73,085,51,083,44,185,40,102,07,100,41,107,07,219,*70
$GPGSV,7,6,26,113,00,192,,115,40,160,47,127,56,305,47,130,59,086,46*70
$GPGSV,7,7,26,134,50,081,47,136,14,035,*73
$GPRMC,060914.00,A,4444.1060,N,03955.9738,E,000.00000,336.0,230522,,,A*5E
$GPZDA,060914.00,23,05,2022,+00,00*41
$GPGGA,060914.20,4444.1060,N,03955.9738,E,1,17,0.7,00156.4,M,0017.2,M,,*6F
$GLGSA,A,3,071,072,073,079,081,082,083,,,,,,1.3,0.7,1.1*1A
$GPGSA,A,3,002,006,012,017,019,024,025,032,,,,,1.3,0.7,1.1*3E
$GAGSA,A,3,115,127,,,,,,,,,,,1.3,0.7,1.1*27
$GPRMC,060914.20,A,4444.1060,N,03955.9738,E,000.00000,336.0,230522,,,A*5C
$GPGGA,060914.40,4444.1060,N,03955.9738,E,1,17,0.7,00156.4,M,0017.2,M,,*69
$GLGSA,A,3,071,072,073,079,081,082,083,,,,,,1.3,0.7,1.1*1A
$GPGSA,A,3,002,006,012,017,019,024,025,032,,,,,1.3,0.7,1.1*3E
$GAGSA,A,3,115,127,,,,,,,,,,,1.3,0.7,1.1*27
$GPRMC,060914.40,A,4444.1060,N,03955.9738,E,000.00000,336.0,230522,,,A*5A
$GPGGA,060914.60,4444.1060,N,03955.9738,E,1,17,0.7,00156.4,M,0017.2,M,,*6B
$GLGSA,A,3,071,072,073,079,081,082,083,,,,,,1.3,0.7,1.1*1A
$GPGSA,A,3,002,006,012,017,019,024,025,032,,,,,1.3,0.7,1.1*3E
$GAGSA,A,3,115,127,,,,,,,,,,,1.3,0.7,1.1*27
$GPRMC,060914.60,A,4444.1060,N,03955.9738,E,000.00000,336.0,230522,,,A*58
$GPGGA,060914.80,4444.1060,N,03955.9738,E,1,17,0.7,00156.4,M,0017.2,M,,*65
$GLGSA,A,3,071,072,073,079,081,082,083,,,,,,1.3,0.7,1.1*1A
$GPGSA,A,3,002,006,012,017,019,024,025,032,,,,,1.3,0.7,1.1*3E
$GAGSA,A,3,115,127,,,,,,,,,,,1.3,0.7,1.1*27
$GPRMC,060914.80,A,4444.1060,N,03955.9738,E,000.00000,336.0,230522,,,A*56
$GPGGA,060915.00,4444.1060,N,03955.9738,E,1,17,0.7,00156.4,M,0017.2,M,,*6C
$GLGSA,A,3,071,072,073,079,081,082,083,,,,,,1.3,0.7,1.1*1A
$GPGSA,A,3,002,006,012,017,019,024,025,032,,,,,1.3,0.7,1.1*3E
$GAGSA,A,3,115,127,,,,,,,,,,,1.3,0.7,1.1*27
$GPGSV,7,1,26,002,39,153,49,006,45,090,47,011,45,137,46,012,64,309,49*74
$GPGSV,7,2,26,017,16,051,42,019,37,051,49,022,05,331,,024,64,211,49*71
$GPGSV,7,3,26,025,22,288,41,029,11,236,,032,14,313,50,071,08,286,46*75
$GPGSV,7,4,26,072,09,332,50,073,35,317,50,079,26,117,45,081,28,033,51*7C
$GPGSV,7,5,26,082,73,085,51,083,44,185,40,102,07,100,41,107,07,219,*70
$GPGSV,7,6,26,113,00,192,,115,40,160,47,127,56,305,47,130,59,086,46*70
$GPGSV,7,7,26,134,50,081,47,136,14,035,*73
$GPRMC,060915.00,A,4444.1060,N,03955.9738,E,000.00000,336.0,230522,,,A*5F
$GPZDA,060915.00,23,05,2022,+00,00*40
$GPGGA,060915.20,4444.1060,N,03955.9738,E,1,17,0.7,00156.4,M,0017.2,M,,*6E
$GLGSA,A,3,071,072,073,079,081,082,083,,,,,,1.3,0.7,1.1*1A
$GPGSA,A,3,002,006,012,017,019,024,025,032,,,,,1.3,0.7,1.1*3E
$GAGSA,A,3,115,127,,,,,,,,,,,1.3,0.7,1.1*27
$GPRMC,060915.20,A,4444.1060,N,03955.9738,E,000.00000,336.0,230522,,,A*5D
$GPGGA,060915.40,4444.1060,N,03955.9738,E,1,17,0.7,00156.4,M,0017.2,M,,*68
$GLGSA,A,3,071,072,073,079,081,082,083,,,,,,1.3,0.7,1.1*1A
$GPGSA,A,3,002,006,012,017,019,024,025,032,,,,,1.3,0.7,1.1*3E
$GAGSA,A,3,115,127,,,,,,,,,,,1.3,0.7,1.1*27
$GPRMC,060915.40,A,4444.1060,N,03955.9738,E,000.00000,336.0,230522,,,A*5B
$GPGGA,060915.60,4444.1060,N,03955.9738,E,1,17,0.7,00156.4,M,0017.2,M,,*6A
$GLGSA,A,3,071,072,073,079,081,082,083,,,,,,1.3,0.7,1.1*1A
$GPGSA,A,3,002,006,012,017,019,024,025,032,,,,,1.3,0.7,1.1*3E
$GAGSA,A,3,115,127,,,,,,,,,,,1.3,0.7,1.1*27
$GPRMC,060915.60,A,4444.1060,N,03955.9738,E,000.00000,336.0,230522,,,A*59
$GPGGA,060915.80,4444.1060,N,03955.9738,E,1,17,0.7,00156.4,M,0017.2,M,,*64
$GLGSA,A,3,071,072,073,079,081,082,083,,,,,,1.3,0.7,1.1*1A
$GPGSA,A,3,002,006,012,017,019,024,025,032,,,,,1.3,0.7,1.1*3E
$GAGSA,A,3,115,127,,,,,,,,,,,1.3,0.7,1.1*27
$GPRMC,060915.80,A,4444.1060,N,03955.9738,E,000.00000,336.0,230522,,,A*57
$GPGGA,060916.00,4444.1060,N,03955.9738,E,1,17,0.7,00156.4,M,0017.2,M,,*6F
$GLGSA,A,3,071,072,073,079,081,082,083,,,,,,1.3,0.7,1.1*1A
$GPGSA,A,3,002,006,012,017,019,024,025,032,,,,,1.3,0.7,1.1*3E
$GAGSA,A,3,115,127,,,,,,,,,,,1.3,0.7,1.1*27
$GPGSV,7,1,26,002,39,153,49,006,45,090,47,011,45,137,46,012,64,309,50*7C
$GPGSV,7,2,26,017,16,051,42,019,37,051,49,022,05,331,,024,64,211,49*71
$GPGSV,7,3,26,025,22,288,41,029,11,236,,032,14,313,50,071,08,286,46*75
$GPGSV,7,4,26,072,09,332,50,073,35,317,50,079,26,117,45,081,28,033,51*7C
$GPGSV,7,5,26,082,73,085,51,083,44,185,40,102,07,100,42,107,07,219,*73
$GPGSV,7,6,26,113,00,192,,115,40,160,47,127,56,305,47,130,59,086,46*70
$GPGSV,7,7,26,134,50,081,46,136,14,035,*72
$GPRMC,060916.00,A,4444.1060,N,03955.9738,E,000.00000,336.0,230522,,,A*5C
$GPZDA,060916.00,23,05,2022,+00,00*43
$GPGGA,060916.20,4444.1060,N,03955.9738,E,1,17,0.7,00156.4,M,0017.2,M,,*6D
$GLGSA,A,3,071,072,073,079,081,082,083,,,,,,1.3,0.7,1.1*1A
$GPGSA,A,3,002,006,012,017,019,024,025,032,,,,,1.3,0.7,1.1*3E
$GAGSA,A,3,115,127,,,,,,,,,,,1.3,0.7,1.1*27
$GPRMC,060916.20,A,4444.1060,N,03955.9738,E,000.00000,336.0,230522,,,A*5E
$GPGGA,060916.40,4444.1060,N,03955.9738,E,1,17,0.7,00156.4,M,0017.2,M,,*6B
$GLGSA,A,3,071,072,073,079,081,082,083,,,,,,1.3,0.7,1.1*1A
$GPGSA,A,3,002,006,012,017,019,024,025,032,,,,,1.3,0.7,1.1*3E
$GAGSA,A,3,115,127,,,,,,,,,,,1.3,0.7,1.1*27
$GPRMC,060916.40,A,4444.1060,N,03955.9738,E,000.00000,336.0,230522,,,A*58
$GPGGA,060916.60,4444.1060,N,03955.9738,E,1,17,0.7,00156.4,M,0017.2,M,,*69
$GLGSA,A,3,071,072,073,079,081,082,083,,,,,,1.3,0.7,1.1*1A
$GPGSA,A,3,002,006,012,017,019,024,025,032,,,,,1.3,0.7,1.1*3E
$GAGSA,A,3,115,127,,,,,,,,,,,1.3,0.7,1.1*27
$GPRMC,060916.60,A,4444.1060,N,03955.9738,E,000.00000,336.0,230522,,,A*5A
$GPGGA,060916.80,4444.1060,N,03955.9738,E,1,17,0.7,00156.4,M,0017.2,M,,*67
$GLGSA,A,3,071,072,073,079,081,082,083,,,,,,1.3,0.7,1.1*1A
$GPGSA,A,3,002,006,012,017,019,024,025,032,,,,,1.3,0.7,1.1*3E
$GAGSA,A,3,115,127,,,,,,,,,,,1.3,0.7,1.1*27
$GPRMC,060916.80,A,4444.1060,N,03955.9738,E,000.00000,336.0,230522,,,A*54
$GPGGA,060917.00,4444.1060,N,03955.9738,E,1,17,0.7,00156.4,M,0017.2,M,,*6E
$GLGSA,A,3,071,072,073,079,081,082,083,,,,,,1.3,0.7,1.1*1A
$GPGSA,A,3,002,006,012,017,019,024,025,032,,,,,1.3,0.7,1.1*3E
$GAGSA,A,3,115,127,,,,,,,,,,,1.3,0.7,1.1*27
$GPGSV,7,1,26,002,39,153,49,006,45,090,47,011,45,137,47,012,64,309,50*7D
$GPGSV,7,2,26,017,16,051,42,019,37,051,50,022,05,331,,024,64,211,49*79
$GPGSV,7,3,26,025,22,288,41,029,11,236,,032,14,313,50,071,08,286,46*75
$GPGSV,7,4,26,072,09,332,49,073,35,317,50,079,26,117,46,081,28,033,51*77
$GPGSV,7,5,26,082,73,085,51,083,44,185,40,102,07,100,41,107,07,219,*70
$GPGSV,7,6,26,113,00,192,,115,40,160,47,127,56,305,47,130,59,086,46*70
$GPGSV,7,7,26,134,50,081,47,136,14,035,*73
$GPRMC,060917.00,A,4444.1060,N,03955.9738,E,000.00000,336.0,230522,,,A*5D
$GPZDA,060917.00,23,05,2022,+00,00*42
$GPGGA,060917.20,4444.1060,N,03955.9738,E,1,17,0.7,00156.4,M,0017.2,M,,*6C
$GLGSA,A,3,071,072,073,079,081,082,083,,,,,,1.3,0.7,1.1*1A
$GPGSA,A,3,002,006,012,017,019,024,025,032,,,,,1.3,0.7,1.1*3E
$GAGSA,A,3,115,127,,,,,,,,,,,1.3,0.7,1.1*27
$GPRMC,060917.20,A,4444.1060,N,03955.9738,E,000.00000,336.0,230522,,,A*5F
$GPGGA,060917.40,4444.1060,N,03955.9738,E,1,17,0.7,00156.4,M,0017.2,M,,*6A
$GLGSA,A,3,071,072,073,079,081,082,083,,,,,,1.3,0.7,1.1*1A
$GPGSA,A,3,002,006,012,017,019,024,025,032,,,,,1.3,0.7,1.1*3E
$GAGSA,A,3,115,127,,,,,,,,,,,1.3,0.7,1.1*27
$GPRMC,060917.40,A,4444.1060,N,03955.9738,E,000.00000,336.0,230522,,,A*59
$GPGGA,060917.60,4444.1060,N,03955.9738,E,1,17,0.7,00156.4,M,0017.2,M,,*68
$GLGSA,A,3,071,072,073,079,081,082,083,,,,,,1.3,0.7,1.1*1A
$GPGSA,A,3,002,006,012,017,019,024,025,032,,,,,1.3,0.7,1.1*3E
$GAGSA,A,3,115,127,,,,,,,,,,,1.3,0.7,1.1*27
$GPRMC,060917.60,A,4444.1060,N,03955.9738,E,000.00000,336.0,230522,,,A*5B
$GPGGA,060917.80,4444.1060,N,03955.9738,E,1,17,0.7,00156.4,M,0017.2,M,,*66
$GLGSA,A,3,071,072,073,079,081,082,083,,,,,,1.3,0.7,1.1*1A
$GPGSA,A,3,002,006,012,017,019,024,025,032,,,,,1.3,0.7,1.1*3E
$GAGSA,A,3,115,127,,,,,,,,,,,1.3,0.7,1.1*27
$GPRMC,060917.80,A,4444.1060,N,03955.9738,E,000.00000,336.0,230522,,,A*55
$GPGGA,060918.00,4444.1060,N,03955.9738,E,1,17,0.7,00156.4,M,0017.2,M,,*61
$GLGSA,A,3,071,072,073,079,081,082,083,,,,,,1.3,0.7,1.1*1A
$GPGSA,A,3,002,006,012,017,019,024,025,032,,,,,1.3,0.7,1.1*3E
$GAGSA,A,3,115,127,,,,,,,,,,,1.3,0.7,1.1*27
$GPGSV,7,1,27,002,39,153,49,006,45,090,47,011,45,137,47,012,64,309,49*74
$GPGSV,7,2,27,017,16,051,42,019,37,051,50,020,00,137,,022,05,331,*74
$GPGSV,7,3,27,024,64,211,49,025,22,288,41,029,11,236,,032,14,313,50*7F
$GPGSV,7,4,27,071,08,286,46,072,09,332,49,073,35,317,50,079,26,117,46*71
$GPGSV,7,5,27,081,28,033,51,082,73,084,51,083,44,185,40,102,07,100,42*7F
$GPGSV,7,6,27,107,07,219,,113,00,192,,115,40,160,47,127,56,305,47*78
$GPGSV,7,7,27,130,59,086,46,134,50,081,47,136,14,035,*70
$GPRMC,060918.00,A,4444.1060,N,03955.9738,E,000.00000,336.0,230522,,,A*52
$GPZDA,060918.00,23,05,2022,+00,00*4D
$GPGGA,060918.20,4444.1060,N,03955.9738,E,1,17,0.7,00156.4,M,0017.2,M,,*63
$GLGSA,A,3,071,072,073,079,081,082,083,,,,,,1.3,0.7,1.1*1A
$GPGSA,A,3,002,006,012,017,019,024,025,032,,,,,1.3,0.7,1.1*3E
$GAGSA,A,3,115,127,,,,,,,,,,,1.3,0.7,1.1*27
$GPRMC,060918.20,A,4444.1060,N,03955.9738,E,000.00000,336.0,230522,,,A*50
$GPGGA,060918.40,4444.1060,N,03955.9738,E,1,17,0.7,00156.4,M,0017.2,M,,*65
$GLGSA,A,3,071,072,073,079,081,082,083,,,,,,1.3,0.7,1.1*1A
$GPGSA,A,3,002,006,012,017,019,024,025,032,,,,,1.3,0.7,1.1*3E
$GAGSA,A,3,115,127,,,,,,,,,,,1.3,0.7,1.1*27
$GPRMC,060918.40,A,4444.1060,N,03955.9738,E,000.00000,336.0,230522,,,A*56
$GPGGA,060918.60,4444.1060,N,03955.9738,E,1,17,0.7,00156.4,M,0017.2,M,,*67
$GLGSA,A,3,071,072,073,079,081,082,083,,,,,,1.3,0.7,1.1*1A
$GPGSA,A,3,002,006,012,017,019,024,025,032,,,,,1.3,0.7,1.1*3E
$GAGSA,A,3,115,127,,,,,,,,,,,1.3,0.7,1.1*27
$GPRMC,060918.60,A,4444.1060,N,03955.9738,E,000.00000,336.0,230522,,,A*54
$GPGGA,060918.80,4444.1060,N,03955.9738,E,1,17,0.7,00156.4,M,0017.2,M,,*69
$GLGSA,A,3,071,072,073,079,081,082,083,,,,,,1.3,0.7,1.1*1A
$GPGSA,A,3,002,006,012,017,019,024,025,032,,,,,1.3,0.7,1.1*3E
$GAGSA,A,3,115,127,,,,,,,,,,,1.3,0.7,1.1*27
$GPRMC,060918.80,A,4444.1060,N,03955.9738,E,000.00000,336.0,230522,,,A*5A
$GPGGA,060919.00,4444.1060,N,03955.9738,E,1,17,0.7,00156.4,M,0017.2,M,,*60
$GLGSA,A,3,071,072,073,079,081,082,083,,,,,,1.3,0.7,1.1*1A
$GPGSA,A,3,002,006,012,017,019,024,025,032,,,,,1.3,0.7,1.1*3E
$GAGSA,A,3,115,127,,,,,,,,,,,1.3,0.7,1.1*27
$GPGSV,7,1,27,002,39,153,49,006,45,090,47,011,45,137,47,012,64,309,49*74
$GPGSV,7,2,27,017,16,051,42,019,37,051,49,020,00,137,,022,05,331,*7C
$GPGSV,7,3,27,024,64,211,50,025,22,288,41,029,11,236,,032,14,313,49*7F
$GPGSV,7,4,27,071,08,286,46,072,09,332,49,073,35,317,50,079,26,117,46*71
$GPGSV,7,5,27,081,28,033,50,082,73,084,51,083,44,185,40,102,07,100,42*7E
$GPGSV,7,6,27,107,07,219,,113,00,192,,115,40,160,47,127,56,305,47*78
$GPGSV,7,7,27,130,59,086,46,134,50,081,47,136,14,035,*70
$GPRMC,060919.00,A,4444.1060,N,03955.9738,E,000.00000,336.0,230522,,,A*53
$GPZDA,060919.00,23,05,2022,+00,00*4C
$GPGGA,060919.20,4444.1060,N,03955.9738,E,1,17,0.7,00156.4,M,0017.2,M,,*62
$GLGSA,A,3,071,072,073,079,081,082,083,,,,,,1.3,0.7,1.1*1A
$GPGSA,A,3,002,006,012,017,019,024,025,032,,,,,1.3,0.7,1.1*3E
$GAGSA,A,3,115,127,,,,,,,,,,,1.3,0.7,1.1*27
$GPRMC,060919.20,A,4444.1060,N,03955.9738,E,000.00000,336.0,230522,,,A*51
$GPGGA,060919.40,4444.1060,N,03955.9738,E,1,17,0.7,00156.4,M,0017.2,M,,*64
$GLGSA,A,3,071,072,073,079,081,082,083,,,,,,1.3,0.7,1.1*1A
$GPGSA,A,3,002,006,012,017,019,024,025,032,,,,,1.3,0.7,1.1*3E
$GAGSA,A,3,115,127,,,,,,,,,,,1.3,0.7,1.1*27
$GPRMC,060919.40,A,4444.1060,N,03955.9738,E,000.00000,336.0,230522,,,A*57
$GPGGA,060919.60,4444.1060,N,03955.9738,E,1,17,0.7,00156.4,M,0017.2,M,,*66
$GLGSA,A,3,071,072,073,079,081,082,083,,,,,,1.3,0.7,1.1*1A
$GPGSA,A,3,002,006,012,017,019,024,025,032,,,,,1.3,0.7,1.1*3E
$GAGSA,A,3,115,127,,,,,,,,,,,1.3,0.7,1.1*27
$GPRMC,060919.60,A,4444.1060,N,03955.9738,E,000.00000,336.0,230522,,,A*55
$GPGGA,060919.80,4444.1060,N,03955.9738,E,1,17,0.7,00156.4,M,0017.2,M,,*68
$GLGSA,A,3,071,072,073,079,081,082,083,,,,,,1.3,0.7,1.1*1A
$GPGSA,A,3,002,006,012,017,019,024,025,032,,,,,1.3,0.7,1.1*3E
$GAGSA,A,3,115,127,,,,,,,,,,,1.3,0.7,1.1*27
$GPRMC,060919.80,A,4444.1060,N,03955.9738,E,000.00000,336.0,230522,,,A*5B
$GPGGA,060920.00,4444.1060,N,03955.9738,E,1,17,0.7,00156.4,M,0017.2,M,,*6A
$GLGSA,A,3,071,072,073,079,081,082,083,,,,,,1.3,0.7,1.1*1A
$GPGSA,A,3,002,006,012,017,019,024,025,032,,,,,1.3,0.7,1.1*3E
$GAGSA,A,3,115,127,,,,,,,,,,,1.3,0.7,1.1*27
$GPGSV,7,1,27,002,39,153,49,006,45,090,47,011,45,137,47,012,64,309,49*74
$GPGSV,7,2,27,017,16,051,42,019,37,051,49,020,00,137,,022,05,331,*7C
$GPGSV,7,3,27,024,64,211,50,025,22,288,42,029,11,236,,032,14,313,49*7C
$GPGSV,7,4,27,071,08,286,46,072,09,332,49,073,35,317,50,079,26,117,46*71
$GPGSV,7,5,27,081,28,033,50,082,73,084,51,083,44,185,40,102,07,100,42*7E
$GPGSV,7,6,27,107,07,219,,113,00,192,,115,40,160,47,127,56,305,47*78
$GPGSV,7,7,27,130,59,086,46,134,50,081,47,136,14,035,*70
$GPRMC,060920.00,A,4444.1060,N,03955.9738,E,000.00000,336.0,230522,,,A*59
$GPZDA,060920.00,23,05,2022,+00,00*46
$GPGGA,060920.20,4444.1060,N,03955.9738,E,1,17,0.7,00156.4,M,0017.2,M,,*68
$GLGSA,A,3,071,072,073,079,081,082,083,,,,,,1.3,0.7,1.1*1A
$GPGSA,A,3,002,006,012,017,019,024,025,032,,,,,1.3,0.7,1.1*3E
$GAGSA,A,3,115,127,,,,,,,,,,,1.3,0.7,1.1*27
$GPRMC,060920.20,A,4444.1060,N,03955.9738,E,000.00000,336.0,230522,,,A*5B
$GPGGA,060920.40,4444.1060,N,03955.9738,E,1,17,0.7,00156.4,M,0017.2,M,,*6E
$GLGSA,A,3,071,072,073,079,081,082,083,,,,,,1.3,0.7,1.1*1A
$GPGSA,A,3,002,006,012,017,019,024,025,032,,,,,1.3,0.7,1.1*3E
$GAGSA,A,3,115,127,,,,,,,,,,,1.3,0.7,1.1*27
$GPRMC,060920.40,A,4444.1060,N,03955.9738,E,000.00000,336.0,230522,,,A*5D
$GPGGA,060920.60,4444.1060,N,03955.9738,E,1,17,0.7,00156.4,M,0017.2,M,,*6C
$GLGSA,A,3,071,072,073,079,081,082,083,,,,,,1.3,0.7,1.1*1A
$GPGSA,A,3,002,006,012,017,019,024,025,032,,,,,1.3,0.7,1.1*3E
$GAGSA,A,3,115,127,,,,,,,,,,,1.3,0.7,1.1*27
$GPRMC,060920.60,A,4444.1060,N,03955.9738,E,000.00000,336.0,230522,,,A*5F
$GPGGA,060920.80,4444.1060,N,03955.9738,E,1,17,0.7,00156.4,M,0017.2,M,,*62
$GLGSA,A,3,071,072,073,079,081,082,083,,,,,,1.3,0.7,1.1*1A
$GPGSA,A,3,002,006,012,017,019,024,025,032,,,,,1.3,0.7,1.1*3E
$GAGSA,A,3,115,127,,,,,,,,,,,1.3,0.7,1.1*27
$GPRMC,060920.80,A,4444.1060,N,03955.9738,E,000.00000,336.0,230522,,,A*51
$GPGGA,060921.00,4444.1060,N,03955.9738,E,1,17,0.7,00156.4,M,0017.2,M,,*6B
$GLGSA,A,3,071,072,073,079,081,082,083,,,,,,1.3,0.7,1.1*1A
$GPGSA,A,3,002,006,012,017,019,024,025,032,,,,,1.3,0.7,1.1*3E
$GAGSA,A,3,115,127,,,,,,,,,,,1.3,0.7,1.1*27
$GPGSV,7,1,27,002,39,153,49,006,45,090,47,011,45,137,47,012,64,309,49*74
$GPGSV,7,2,27,017,16,051,43,019,37,051,49,020,00,137,,022,05,331,*7D
$GPGSV,7,3,27,024,64,211,50,025,22,288,42,029,11,236,,032,14,313,49*7C
$GPGSV,7,4,27,071,08,286,46,072,09,332,49,073,35,317,50,079,26,117,46*71
$GPGSV,7,5,27,081,28,033,50,082,73,084,51,083,44,185,40,102,07,100,42*7E
$GPGSV,7,6,27,107,07,219,,113,00,192,,115,40,160,47,127,56,305,47*78
$GPGSV,7,7,27,130,59,086,46,134,50,081,46,136,14,035,*71
$GPRMC,060921.00,A,4444.1060,N,03955.9738,E,000.00000,336.0,230522,,,A*58
$GPZDA,060921.00,23,05,2022,+00,00*47
$GPGGA,060921.20,4444.1060,N,03955.9738,E,1,17,0.7,00156.4,M,0017.2,M,,*69
$GLGSA,A,3,071,072,073,079,081,082,083,,,,,,1.3,0.7,1.1*1A
$GPGSA,A,3,002,006,012,017,019,024,025,032,,,,,1.3,0.7,1.1*3E
$GAGSA,A,3,115,127,,,,,,,,,,,1.3,0.7,1.1*27
$GPRMC,060921.20,A,4444.1060,N,03955.9738,E,000.00000,344.4,230522,,,A*5B
$GPGGA,060921.40,4444.1060,N,03955.9738,E,1,17,0.7,00156.4,M,0017.2,M,,*6F
$GLGSA,A,3,071,072,073,079,081,082,083,,,,,,1.3,0.7,1.1*1A
$GPGSA,A,3,002,006,012,017,019,024,025,032,,,,,1.3,0.7,1.1*3E
$GAGSA,A,3,115,127,,,,,,,,,,,1.3,0.7,1.1*27
$GPRMC,060921.40,A,4444.1060,N,03955.9738,E,000.00000,348.2,230522,,,A*57
$GPGGA,060921.60,4444.1060,N,03955.9738,E,1,17,0.7,00156.4,M,0017.2,M,,*6D
$GLGSA,A,3,071,072,073,079,081,082,083,,,,,,1.3,0.7,1.1*1A
$GPGSA,A,3,002,006,012,017,019,024,025,032,,,,,1.3,0.7,1.1*3E
$GAGSA,A,3,115,127,,,,,,,,,,,1.3,0.7,1.1*27
$GPRMC,060921.60,A,4444.1060,N,03955.9738,E,000.00000,345.5,230522,,,A*5F
$GPGGA,060921.80,4444.1060,N,03955.9738,E,1,17,0.7,00156.4,M,0017.2,M,,*63
$GLGSA,A,3,071,072,073,079,081,082,083,,,,,,1.3,0.7,1.1*1A
$GPGSA,A,3,002,006,012,017,019,024,025,032,,,,,1.3,0.7,1.1*3E
$GAGSA,A,3,115,127,,,,,,,,,,,1.3,0.7,1.1*27
$GPRMC,060921.80,A,4444.1060,N,03955.9738,E,000.00000,342.4,230522,,,A*57
$GPGGA,060922.00,4444.1060,N,03955.9738,E,1,17,0.7,00156.4,M,0017.2,M,,*68
$GLGSA,A,3,071,072,073,079,081,082,083,,,,,,1.3,0.7,1.1*1A
$GPGSA,A,3,002,006,012,017,019,024,025,032,,,,,1.3,0.7,1.1*3E
$GAGSA,A,3,115,127,,,,,,,,,,,1.3,0.7,1.1*27
$GPGSV,7,1,27,002,39,153,49,006,45,090,47,011,45,137,47,012,64,309,49*74
$GPGSV,7,2,27,017,16,051,42,019,37,051,49,020,00,137,,022,05,331,*7C
$GPGSV,7,3,27,024,64,211,50,025,22,288,42,029,11,236,,032,14,313,49*7C
$GPGSV,7,4,27,071,08,286,46,072,09,332,49,073,35,317,50,079,26,117,46*71
$GPGSV,7,5,27,081,28,033,50,082,73,084,51,083,44,185,40,102,07,100,42*7E
$GPGSV,7,6,27,107,07,219,,113,00,192,,115,40,160,47,127,56,305,47*78
$GPGSV,7,7,27,130,59,086,46,134,50,081,47,136,14,035,*70
$GPRMC,060922.00,A,4444.1060,N,03955.9738,E,000.00000,340.0,230522,,,A*5A
$GPZDA,060922.00,23,05,2022,+00,00*44
$GPGGA,060922.20,4444.1060,N,03955.9738,E,1,17,0.7,00156.4,M,0017.2,M,,*6A
$GLGSA,A,3,071,072,073,079,081,082,083,,,,,,1.3,0.7,1.1*1A
$GPGSA,A,3,002,006,012,017,019,024,025,032,,,,,1.3,0.7,1.1*3E
$GAGSA,A,3,115,127,,,,,,,,,,,1.3,0.7,1.1*27
$GPRMC,060922.20,A,4444.1060,N,03955.9738,E,000.00000,338.4,230522,,,A*53
$GPGGA,060922.40,4444.1060,N,03955.9738,E,1,17,0.7,00156.4,M,0017.2,M,,*6C
$GLGSA,A,3,071,072,073,079,081,082,083,,,,,,1.3,0.7,1.1*1A
$GPGSA,A,3,002,006,012,017,019,024,025,032,,,,,1.3,0.7,1.1*3E
$GAGSA,A,3,115,127,,,,,,,,,,,1.3,0.7,1.1*27
$GPRMC,060922.40,A,4444.1060,N,03955.9738,E,000.00000,337.4,230522,,,A*5A
$GPGGA,060922.60,4444.1060,N,03955.9738,E,1,17,0.7,00156.4,M,0017.2,M,,*6E
$GLGSA,A,3,071,072,073,079,081,082,083,,,,,,1.3,0.7,1.1*1A
$GPGSA,A,3,002,006,012,017,019,024,025,032,,,,,1.3,0.7,1.1*3E
$GAGSA,A,3,115,127,,,,,,,,,,,1.3,0.7,1.1*27
$GPRMC,060922.60,A,4444.1060,N,03955.9738,E,000.00000,336.8,230522,,,A*55
$GPGGA,060922.80,4444.1060,N,03955.9738,E,1,17,0.7,00156.4,M,0017.2,M,,*60
$GLGSA,A,3,071,072,073,079,081,082,083,,,,,,1.3,0.7,1.1*1A
$GPGSA,A,3,002,006,012,017,019,024,025,032,,,,,1.3,0.7,1.1*3E
$GAGSA,A,3,115,127,,,,,,,,,,,1.3,0.7,1.1*27
$GPRMC,060922.80,A,4444.1060,N,03955.9738,E,000.00000,336.5,230522,,,A*56
$GPGGA,060923.00,4444.1060,N,03955.9738,E,1,17,0.7,00156.4,M,0017.2,M,,*69
$GLGSA,A,3,071,072,073,079,081,082,083,,,,,,1.3,0.7,1.1*1A
$GPGSA,A,3,002,006,012,017,019,024,025,032,,,,,1.3,0.7,1.1*3E
$GAGSA,A,3,115,127,,,,,,,,,,,1.3,0.7,1.1*27
$GPGSV,7,1,27,002,39,153,49,006,45,090,47,011,45,137,47,012,64,309,49*74
$GPGSV,7,2,27,017,16,051,42,019,37,051,49,020,00,137,,022,05,331,*7C
$GPGSV,7,3,27,024,64,211,50,025,22,288,42,029,11,236,,032,14,313,49*7C
$GPGSV,7,4,27,071,08,286,45,072,09,332,49,073,35,317,50,079,26,117,45*71
$GPGSV,7,5,27,081,28,033,50,082,73,084,51,083,44,185,40,102,07,100,42*7E
$GPGSV,7,6,27,107,07,219,,113,00,192,,115,40,160,47,127,56,305,47*78
$GPGSV,7,7,27,130,59,086,46,134,50,081,46,136,14,035,*71
$GPRMC,060923.00,A,4444.1060,N,03955.9738,E,000.00000,336.3,230522,,,A*59
$GPZDA,060923.00,23,05,2022,+00,00*45
$GPGGA,060923.20,4444.1060,N,03955.9738,E,1,17,0.7,00156.4,M,0017.2,M,,*6B
$GLGSA,A,3,071,072,073,079,081,082,083,,,,,,1.3,0.7,1.1*1A
$GPGSA,A,3,002,006,012,017,019,024,025,032,,,,,1.3,0.7,1.1*3E
$GAGSA,A,3,115,127,,,,,,,,,,,1.3,0.7,1.1*27
$GPRMC,060923.20,A,4444.1060,N,03955.9738,E,000.00000,336.2,230522,,,A*5A
$GPGGA,060923.40,4444.1060,N,03955.9738,E,1,17,0.7,00156.4,M,0017.2,M,,*6D
$GLGSA,A,3,071,072,073,079,081,082,083,,,,,,1.3,0.7,1.1*1A
$GPGSA,A,3,002,006,012,017,019,024,025,032,,,,,1.3,0.7,1.1*3E
$GAGSA,A,3,115,127,,,,,,,,,,,1.3,0.7,1.1*27
$GPRMC,060923.40,A,4444.1060,N,03955.9738,E,000.00000,336.1,230522,,,A*5F
$GPGGA,060923.60,4444.1060,N,03955.9738,E,1,17,0.7,00156.4,M,0017.2,M,,*6F
$GLGSA,A,3,071,072,073,079,081,082,083,,,,,,1.3,0.7,1.1*1A
$GPGSA,A,3,002,006,012,017,019,024,025,032,,,,,1.3,0.7,1.1*3E
$GAGSA,A,3,115,127,,,,,,,,,,,1.3,0.7,1.1*27
$GPRMC,060923.60,A,4444.1060,N,03955.9738,E,000.00000,336.1,230522,,,A*5D
$GPGGA,060923.80,4444.1060,N,03955.9738,E,1,17,0.7,00156.4,M,0017.2,M,,*61
$GLGSA,A,3,071,072,073,079,081,082,083,,,,,,1.3,0.7,1.1*1A
$GPGSA,A,3,002,006,012,017,019,024,025,032,,,,,1.3,0.7,1.1*3E
$GAGSA,A,3,115,127,,,,,,,,,,,1.3,0.7,1.1*27
$GPRMC,060923.80,A,4444.1060,N,03955.9738,E,000.00000,336.1,230522,,,A*53
$GPGGA,060924.00,4444.1060,N,03955.9738,E,1,17,0.7,00156.4,M,0017.2,M,,*6E
$GLGSA,A,3,071,072,073,079,081,082,083,,,,,,1.3,0.7,1.1*1A
$GPGSA,A,3,002,006,012,017,019,024,025,032,,,,,1.3,0.7,1.1*3E
$GAGSA,A,3,115,127,,,,,,,,,,,1.3,0.7,1.1*27
$GPGSV,7,1,27,002,39,153,49,006,45,090,47,011,45,137,47,012,64,309,49*74
$GPGSV,7,2,27,017,16,051,42,019,37,051,49,020,00,137,,022,05,331,*7C
$GPGSV,7,3,27,024,64,211,49,025,22,288,41,029,11,236,,032,14,313,49*77
$GPGSV,7,4,27,071,08,286,45,072,09,332,49,073,35,317,50,079,26,117,45*71
$GPGSV,7,5,27,081,28,033,51,082,73,084,51,083,44,185,40,102,07,100,42*7F
$GPGSV,7,6,27,107,07,219,,113,00,192,,115,40,160,47,127,56,305,47*78
$GPGSV,7,7,27,130,59,086,46,134,50,081,46,136,14,035,*71
$GPRMC,060924.00,A,4444.1060,N,03955.9738,E,000.00000,336.1,230522,,,A*5C
$GPZDA,060924.00,23,05,2022,+00,00*42
$GPGGA,060924.20,4444.1060,N,03955.9738,E,1,17,0.7,00156.4,M,0017.2,M,,*6C
$GLGSA,A,3,071,072,073,079,081,082,083,,,,,,1.3,0.7,1.1*1A
$GPGSA,A,3,002,006,012,017,019,024,025,032,,,,,1.3,0.7,1.1*3E
$GAGSA,A,3,115,127,,,,,,,,,,,1.3,0.7,1.1*27
$GPRMC,060924.20,A,4444.1060,N,03955.9738,E,000.00000,336.1,230522,,,A*5E
$GPGGA,060924.40,4444.1060,N,03955.9738,E,1,17,0.7,00156.4,M,0017.2,M,,*6A
$GLGSA,A,3,071,072,073,079,081,082,083,,,,,,1.3,0.7,1.1*1A
$GPGSA,A,3,002,006,012,017,019,024,025,032,,,,,1.3,0.7,1.1*3E
$GAGSA,A,3,115,127,,,,,,,,,,,1.3,0.7,1.1*27
$GPRMC,060924.40,A,4444.1060,N,03955.9738,E,000.00000,336.0,230522,,,A*59
$GPGGA,060924.60,4444.1060,N,03955.9738,E,1,17,0.7,00156.4,M,0017.2,M,,*68
$GLGSA,A,3,071,072,073,079,081,082,083,,,,,,1.3,0.7,1.1*1A
$GPGSA,A,3,002,006,012,017,019,024,025,032,,,,,1.3,0.7,1.1*3E
$GAGSA,A,3,115,127,,,,,,,,,,,1.3,0.7,1.1*27
$GPRMC,060924.60,A,4444.1060,N,03955.9738,E,000.00000,336.0,230522,,,A*5B
$GPGGA,060924.80,4444.1060,N,03955.9738,E,1,17,0.7,00156.4,M,0017.2,M,,*66
$GLGSA,A,3,071,072,073,079,081,082,083,,,,,,1.3,0.7,1.1*1A
$GPGSA,A,3,002,006,012,017,019,024,025,032,,,,,1.3,0.7,1.1*3E
$GAGSA,A,3,115,127,,,,,,,,,,,1.3,0.7,1.1*27
$GPRMC,060924.80,A,4444.1060,N,03955.9738,E,000.00000,336.0,230522,,,A*55
$GPGGA,060925.00,4444.1060,N,03955.9738,E,1,17,0.7,00156.4,M,0017.2,M,,*6F
$GLGSA,A,3,071,072,073,079,081,082,083,,,,,,1.3,0.7,1.1*1A
$GPGSA,A,3,002,006,012,017,019,024,025,032,,,,,1.3,0.7,1.1*3E
$GAGSA,A,3,115,127,,,,,,,,,,,1.3,0.7,1.1*27
$GPGSV,7,1,27,002,39,153,49,006,45,090,47,011,45,137,47,012,64,309,49*74
$GPGSV,7,2,27,017,16,051,42,019,37,051,49,020,00,137,,022,05,331,*7C
$GPGSV,7,3,27,024,64,211,49,025,22,288,42,029,11,236,,032,14,313,48*75
$GPGSV,7,4,27,071,08,286,45,072,09,332,49,073,35,317,50,079,26,117,45*71
$GPGSV,7,5,27,081,28,033,51,082,73,084,51,083,44,185,40,102,07,100,42*7F
$GPGSV,7,6,27,107,07,219,,113,00,192,,115,40,160,47,127,56,305,47*78
$GPGSV,7,7,27,130,59,086,46,134,50,081,46,136,14,035,*71
$GPRMC,060925.00,A,4444.1060,N,03955.9738,E,000.00000,336.0,230522,,,A*5C
$GPZDA,060925.00,23,05,2022,+00,00*43
$GPGGA,060925.20,4444.1060,N,03955.9738,E,1,17,0.7,00156.4,M,0017.2,M,,*6D
$GLGSA,A,3,071,072,073,079,081,082,083,,,,,,1.3,0.7,1.1*1A
$GPGSA,A,3,002,006,012,017,019,024,025,032,,,,,1.3,0.7,1.1*3E
$GAGSA,A,3,115,127,,,,,,,,,,,1.3,0.7,1.1*27
$GPRMC,060925.20,A,4444.1060,N,03955.9738,E,000.00000,336.0,230522,,,A*5E
$GPGGA,060925.40,4444.1060,N,03955.9738,E,1,17,0.7,00156.4,M,0017.2,M,,*6B
$GLGSA,A,3,071,072,073,079,081,082,083,,,,,,1.3,0.7,1.1*1A
$GPGSA,A,3,002,006,012,017,019,024,025,032,,,,,1.3,0.7,1.1*3E
$GAGSA,A,3,115,127,,,,,,,,,,,1.3,0.7,1.1*27
$GPRMC,060925.40,A,4444.1060,N,03955.9738,E,000.00000,336.0,230522,,,A*58
$GPGGA,060925.60,4444.1060,N,03955.9738,E,1,17,0.7,00156.4,M,0017.2,M,,*69
$GLGSA,A,3,071,072,073,079,081,082,083,,,,,,1.3,0.7,1.1*1A
$GPGSA,A,3,002,006,012,017,019,024,025,032,,,,,1.3,0.7,1.1*3E
$GAGSA,A,3,115,127,,,,,,,,,,,1.3,0.7,1.1*27
$GPRMC,060925.60,A,4444.1060,N,03955.9738,E,000.00000,336.0,230522,,,A*5A
$GPGGA,060925.80,4444.1060,N,03955.9738,E,1,17,0.7,00156.4,M,0017.2,M,,*67
$GLGSA,A,3,071,072,073,079,081,082,083,,,,,,1.3,0.7,1.1*1A
$GPGSA,A,3,002,006,012,017,019,024,025,032,,,,,1.3,0.7,1.1*3E
$GAGSA,A,3,115,127,,,,,,,,,,,1.3,0.7,1.1*27
$GPRMC,060925.80,A,4444.1060,N,03955.9738,E,000.00000,336.0,230522,,,A*54
$GPGGA,060926.00,4444.1060,N,03955.9738,E,1,17,0.7,00156.4,M,0017.2,M,,*6C
$GLGSA,A,3,071,072,073,079,081,082,083,,,,,,1.3,0.7,1.1*1A
$GPGSA,A,3,002,006,012,017,019,024,025,032,,,,,1.3,0.7,1.1*3E
$GAGSA,A,3,115,127,,,,,,,,,,,1.3,0.7,1.1*27
$GPGSV,7,1,27,002,39,153,49,006,45,090,48,011,45,137,46,012,64,309,49*7A
$GPGSV,7,2,27,017,16,051,42,019,37,051,49,020,00,137,,022,05,331,*7C
$GPGSV,7,3,27,024,64,211,49,025,22,288,41,029,11,236,,032,14,313,48*76
$GPGSV,7,4,27,071,08,286,45,072,09,332,49,073,35,317,50,079,26,117,45*71
$GPGSV,7,5,27,081,28,033,51,082,73,084,51,083,44,185,40,102,07,100,42*7F
$GPGSV,7,6,27,107,07,219,,113,00,192,,115,40,160,47,127,56,305,47*78
$GPGSV,7,7,27,130,59,086,46,134,50,081,46,136,14,035,*71
$GPRMC,060926.00,A,4444.1060,N,03955.9738,E,000.00000,336.0,230522,,,A*5F
$GPZDA,060926.00,23,05,2022,+00,00*40
$GPGGA,060926.20,4444.1060,N,03955.9738,E,1,17,0.7,00156.4,M,0017.2,M,,*6E
$GLGSA,A,3,071,072,073,079,081,082,083,,,,,,1.3,0.7,1.1*1A
$GPGSA,A,3,002,006,012,017,019,024,025,032,,,,,1.3,0.7,1.1*3E
$GAGSA,A,3,115,127,,,,,,,,,,,1.3,0.7,1.1*27
$GPRMC,060926.20,A,4444.1060,N,03955.9738,E,000.00000,336.0,230522,,,A*5D
$GPGGA,060926.40,4444.1060,N,03955.9738,E,1,17,0.7,00156.4,M,0017.2,M,,*68
$GLGSA,A,3,071,072,073,079,081,082,083,,,,,,1.3,0.7,1.1*1A
$GPGSA,A,3,002,006,012,017,019,024,025,032,,,,,1.3,0.7,1.1*3E
$GAGSA,A,3,115,127,,,,,,,,,,,1.3,0.7,1.1*27
$GPRMC,060926.40,A,4444.1060,N,03955.9738,E,000.00000,336.0,230522,,,A*5B
$GPGGA,060926.60,4444.1060,N,03955.9738,E,1,17,0.7,00156.4,M,0017.2,M,,*6A
$GLGSA,A,3,071,072,073,079,081,082,083,,,,,,1.3,0.7,1.1*1A
$GPGSA,A,3,002,006,012,017,019,024,025,032,,,,,1.3,0.7,1.1*3E
$GAGSA,A,3,115,127,,,,,,,,,,,1.3,0.7,1.1*27
$GPRMC,060926.60,A,4444.1060,N,03955.9738,E,000.00000,336.0,230522,,,A*59
$GPGGA,060926.80,4444.1060,N,03955.9738,E,1,17,0.7,00156.4,M,0017.2,M,,*64
$GLGSA,A,3,071,072,073,079,081,082,083,,,,,,1.3,0.7,1.1*1A
$GPGSA,A,3,002,006,012,017,019,024,025,032,,,,,1.3,0.7,1.1*3E
$GAGSA,A,3,115,127,,,,,,,,,,,1.3,0.7,1.1*27
$GPRMC,060926.80,A,4444.1060,N,03955.9738,E,000.00000,336.0,230522,,,A*57
$GPGGA,060927.00,4444.1060,N,03955.9738,E,1,17,0.7,00156.4,M,0017.2,M,,*6D
$GLGSA,A,3,071,072,073,079,081,082,083,,,,,,1.3,0.7,1.1*1A
$GPGSA,A,3,002,006,012,017,019,024,025,032,,,,,1.3,0.7,1.1*3E
$GAGSA,A,3,115,127,,,,,,,,,,,1.3,0.7,1.1*27
$GPGSV,7,1,27,002,39,153,49,006,45,090,47,011,45,137,47,012,64,309,49*74
$GPGSV,7,2,27,017,16,051,42,019,37,051,49,020,00,137,,022,05,331,*7C
$GPGSV,7,3,27,024,64,211,49,025,22,288,41,029,11,236,,032,14,313,48*76
$GPGSV,7,4,27,071,08,286,45,072,09,332,49,073,35,317,50,079,26,117,46*72
$GPGSV,7,5,27,081,28,033,50,082,73,084,51,083,44,185,40,102,07,100,41*7D
$GPGSV,7,6,27,107,07,219,,113,00,192,,115,40,160,47,127,56,305,47*78
$GPGSV,7,7,27,130,59,086,46,134,50,081,46,136,14,035,*71
$GPRMC,060927.00,A,4444.1060,N,03955.9738,E,000.00000,336.0,230522,,,A*5E
$GPZDA,060927.00,23,05,2022,+00,00*41
$GPGGA,060927.20,4444.1060,N,03955.9738,E,1,17,0.7,00156.4,M,0017.2,M,,*6F
$GLGSA,A,3,071,072,073,079,081,082,083,,,,,,1.3,0.7,1.1*1A
$GPGSA,A,3,002,006,012,017,019,024,025,032,,,,,1.3,0.7,1.1*3E
$GAGSA,A,3,115,127,,,,,,,,,,,1.3,0.7,1.1*27
$GPRMC,060927.20,A,4444.1060,N,03955.9738,E,000.00000,336.0,230522,,,A*5C
$GPGGA,060927.40,4444.1060,N,03955.9738,E,1,17,0.7,00156.4,M,0017.2,M,,*69
$GLGSA,A,3,071,072,073,079,081,082,083,,,,,,1.3,0.7,1.1*1A
$GPGSA,A,3,002,006,012,017,019,024,025,032,,,,,1.3,0.7,1.1*3E
$GAGSA,A,3,115,127,,,,,,,,,,,1.3,0.7,1.1*27
$GPRMC,060927.40,A,4444.1060,N,03955.9738,E,000.00000,336.0,230522,,,A*5A
$GPGGA,060927.60,4444.1060,N,03955.9738,E,1,17,0.7,00156.4,M,0017.2,M,,*6B
$GLGSA,A,3,071,072,073,079,081,082,083,,,,,,1.3,0.7,1.1*1A
$GPGSA,A,3,002,006,012,017,019,024,025,032,,,,,1.3,0.7,1.1*3E
$GAGSA,A,3,115,127,,,,,,,,,,,1.3,0.7,1.1*27
$GPRMC,060927.60,A,4444.1060,N,03955.9738,E,000.00000,336.0,230522,,,A*58
$GPGGA,060927.80,4444.1060,N,03955.9738,E,1,17,0.7,00156.4,M,0017.2,M,,*65
$GLGSA,A,3,071,072,073,079,081,082,083,,,,,,1.3,0.7,1.1*1A
$GPGSA,A,3,002,006,012,017,019,024,025,032,,,,,1.3,0.7,1.1*3E
$GAGSA,A,3,115,127,,,,,,,,,,,1.3,0.7,1.1*27
$GPRMC,060927.80,A,4444.1060,N,03955.9738,E,000.00000,336.0,230522,,,A*56
$GPGGA,060928.00,4444.1060,N,03955.9738,E,1,17,0.7,00156.4,M,0017.2,M,,*62
$GLGSA,A,3,071,072,073,079,081,082,083,,,,,,1.3,0.7,1.1*1A
$GPGSA,A,3,002,006,012,017,019,024,025,032,,,,,1.3,0.7,1.1*3E
$GAGSA,A,3,115,127,,,,,,,,,,,1.3,0.7,1.1*27
$GPGSV,7,1,27,002,39,153,49,006,45,090,47,011,45,137,47,012,64,309,49*74
$GPGSV,7,2,27,017,16,051,43,019,37,051,49,020,00,137,,022,05,331,*7D
$GPGSV,7,3,27,024,64,211,48,025,22,288,41,029,11,236,,032,14,313,48*77
$GPGSV,7,4,27,071,08,286,45,072,09,332,49,073,35,317,50,079,26,117,47*73
$GPGSV,7,5,27,081,28,033,50,082,73,084,51,083,44,185,40,102,07,100,42*7E
$GPGSV,7,6,27,107,07,219,,113,00,192,,115,40,160,46,127,56,305,47*79
$GPGSV,7,7,27,130,59,086,46,134,50,080,46,136,14,035,*70
$GPRMC,060928.00,A,4444.1060,N,03955.9738,E,000.00000,336.0,230522,,,A*51
$GPZDA,060928.00,23,05,2022,+00,00*4E
$GPGGA,060928.20,4444.1060,N,03955.9738,E,1,17,0.7,00156.4,M,0017.2,M,,*60
$GLGSA,A,3,071,072,073,079,081,082,083,,,,,,1.3,0.7,1.1*1A
$GPGSA,A,3,002,006,012,017,019,024,025,032,,,,,1.3,0.7,1.1*3E
$GAGSA,A,3,115,127,,,,,,,,,,,1.3,0.7,1.1*27
$GPRMC,060928.20,A,4444.1060,N,03955.9738,E,000.00000,336.0,230522,,,A*53
$GPGGA,060928.40,4444.1060,N,03955.9738,E,1,17,0.7,00156.4,M,0017.2,M,,*66
$GLGSA,A,3,071,072,073,079,081,082,083,,,,,,1.3,0.7,1.1*1A
$GPGSA,A,3,002,006,012,017,019,024,025,032,,,,,1.3,0.7,1.1*3E
$GAGSA,A,3,115,127,,,,,,,,,,,1.3,0.7,1.1*27
$GPRMC,060928.40,A,4444.1060,N,03955.9738,E,000.00000,336.0,230522,,,A*55
$GPGGA,060928.60,4444.1060,N,03955.9738,E,1,17,0.7,00156.4,M,0017.2,M,,*64
$GLGSA,A,3,071,072,073,079,081,082,083,,,,,,1.3,0.7,1.1*1A
$GPGSA,A,3,002,006,012,017,019,024,025,032,,,,,1.3,0.7,1.1*3E
$GAGSA,A,3,115,127,,,,,,,,,,,1.3,0.7,1.1*27
$GPRMC,060928.60,A,4444.1060,N,03955.9738,E,000.00000,336.0,230522,,,A*57
$GPGGA,060928.80,4444.1060,N,03955.9738,E,1,17,0.7,00156.4,M,0017.2,M,,*6A
$GLGSA,A,3,071,072,073,079,081,082,083,,,,,,1.3,0.7,1.1*1A
$GPGSA,A,3,002,006,012,017,019,024,025,032,,,,,1.3,0.7,1.1*3E
$GAGSA,A,3,115,127,,,,,,,,,,,1.3,0.7,1.1*27
$GPRMC,060928.80,A,4444.1060,N,03955.9738,E,000.00000,336.0,230522,,,A*59
$GPGGA,060929.00,4444.1060,N,03955.9738,E,1,17,0.7,00156.4,M,0017.2,M,,*63
$GLGSA,A,3,071,072,073,079,081,082,083,,,,,,1.3,0.7,1.1*1A
$GPGSA,A,3,002,006,012,017,019,024,025,032,,,,,1.3,0.7,1.1*3E
$GAGSA,A,3,115,127,,,,,,,,,,,1.3,0.7,1.1*27
$GPGSV,7,1,27,002,39,153,49,006,45,090,47,011,45,137,47,012,64,309,49*74
$GPGSV,7,2,27,017,16,051,42,019,37,051,49,020,00,137,,022,05,331,*7C
$GPGSV,7,3,27,024,64,211,48,025,22,288,41,029,11,236,,032,14,313,49*76
$GPGSV,7,4,27,071,08,286,45,072,09,332,49,073,35,317,50,079,26,117,47*73
$GPGSV,7,5,27,081,28,033,50,082,73,084,51,083,44,185,40,102,07,100,42*7E
$GPGSV,7,6,27,107,07,219,,113,00,192,,115,40,160,46,127,56,305,47*79
$GPGSV,7,7,27,130,59,086,46,134,50,080,46,136,14,035,*70
$GPRMC,060929.00,A,4444.1060,N,03955.9738,E,000.00000,336.0,230522,,,A*50
$GPZDA,060929.00,23,05,2022,+00,00*4F
$GPGGA,060929.20,4444.1060,N,03955.9738,E,1,17,0.7,00156.4,M,0017.2,M,,*61
$GLGSA,A,3,071,072,073,079,081,082,083,,,,,,1.3,0.7,1.1*1A
$GPGSA,A,3,002,006,012,017,019,024,025,032,,,,,1.3,0.7,1.1*3E
$GAGSA,A,3,115,127,,,,,,,,,,,1.3,0.7,1.1*27
$GPRMC,060929.20,A,4444.1060,N,03955.9738,E,000.00000,336.0,230522,,,A*52
$GPGGA,060929.40,4444.1060,N,03955.9738,E,1,17,0.7,00156.4,M,0017.2,M,,*67
$GLGSA,A,3,071,072,073,079,081,082,083,,,,,,1.3,0.7,1.1*1A
$GPGSA,A,3,002,006,012,017,019,024,025,032,,,,,1.3,0.7,1.1*3E
$GAGSA,A,3,115,127,,,,,,,,,,,1.3,0.7,1.1*27
$GPRMC,060929.40,A,4444.1060,N,03955.9738,E,000.00000,336.0,230522,,,A*54
$GPGGA,060929.60,4444.1060,N,03955.9738,E,1,17,0.7,00156.4,M,0017.2,M,,*65
$GLGSA,A,3,071,072,073,079,081,082,083,,,,,,1.3,0.7,1.1*1A
$GPGSA,A,3,002,006,012,017,019,024,025,032,,,,,1.3,0.7,1.1*3E
$GAGSA,A,3,115,127,,,,,,,,,,,1.3,0.7,1.1*27
$GPRMC,060929.60,A,4444.1060,N,03955.9738,E,000.00000,336.0,230522,,,A*56
$GPGGA,060929.80,4444.1060,N,03955.9738,E,1,17,0.7,00156.4,M,0017.2,M,,*6B
$GLGSA,A,3,071,072,073,079,081,082,083,,,,,,1.3,0.7,1.1*1A
$GPGSA,A,3,002,006,012,017,019,024,025,032,,,,,1.3,0.7,1.1*3E
$GAGSA,A,3,115,127,,,,,,,,,,,1.3,0.7,1.1*27
$GPRMC,060929.80,A,4444.1060,N,03955.9738,E,000.00000,336.0,230522,,,A*58
$GPGGA,060930.00,4444.1060,N,03955.9738,E,1,17,0.7,00156.4,M,0017.2,M,,*6B
$GLGSA,A,3,071,072,073,079,081,082,083,,,,,,1.3,0.7,1.1*1A
$GPGSA,A,3,002,006,012,017,019,024,025,032,,,,,1.3,0.7,1.1*3E
$GAGSA,A,3,115,127,,,,,,,,,,,1.3,0.7,1.1*27
$GPGSV,7,1,27,002,39,153,49,006,45,090,47,011,45,137,47,012,64,309,49*74
$GPGSV,7,2,27,017,16,051,42,019,37,051,48,020,00,137,,022,05,331,*7D
$GPGSV,7,3,27,024,64,211,49,025,22,288,41,029,11,236,,032,14,313,49*77
$GPGSV,7,4,27,071,08,286,44,072,09,332,49,073,35,317,50,079,26,117,47*72
$GPGSV,7,5,27,081,28,033,50,082,73,084,51,083,44,185,40,102,07,100,42*7E
$GPGSV,7,6,27,107,07,219,,113,00,192,,115,40,160,46,127,56,305,47*79
$GPGSV,7,7,27,130,59,086,46,134,50,080,47,136,14,035,*71
$GPRMC,060930.00,A,4444.1060,N,03955.9738,E,000.00000,336.0,230522,,,A*58
$GPZDA,060930.00,23,05,2022,+00,00*47
$GPGGA,060930.20,4444.1060,N,03955.9738,E,1,17,0.7,00156.4,M,0017.2,M,,*69
$GLGSA,A,3,071,072,073,079,081,082,083,,,,,,1.3,0.7,1.1*1A
$GPGSA,A,3,002,006,012,017,019,024,025,032,,,,,1.3,0.7,1.1*3E
$GAGSA,A,3,115,127,,,,,,,,,,,1.3,0.7,1.1*27
$GPRMC,060930.20,A,4444.1060,N,03955.9738,E,000.00000,336.0,230522,,,A*5A
$GPGGA,060930.40,4444.1060,N,03955.9738,E,1,17,0.7,00156.4,M,0017.2,M,,*6F
$GLGSA,A,3,071,072,073,079,081,082,083,,,,,,1.3,0.7,1.1*1A
$GPGSA,A,3,002,006,012,017,019,024,025,032,,,,,1.3,0.7,1.1*3E
$GAGSA,A,3,115,127,,,,,,,,,,,1.3,0.7,1.1*27
$GPRMC,060930.40,A,4444.1060,N,03955.9738,E,000.00000,336.0,230522,,,A*5C
$GPGGA,060930.60,4444.1060,N,03955.9738,E,1,17,0.7,00156.4,M,0017.2,M,,*6D
$GLGSA,A,3,071,072,073,079,081,082,083,,,,,,1.3,0.7,1.1*1A
$GPGSA,A,3,002,006,012,017,019,024,025,032,,,,,1.3,0.7,1.1*3E
$GAGSA,A,3,115,127,,,,,,,,,,,1.3,0.7,1.1*27
$GPRMC,060930.60,A,4444.1060,N,03955.9738,E,000.00000,336.0,230522,,,A*5E
$GPGGA,060930.80,4444.1060,N,03955.9738,E,1,17,0.7,00156.4,M,0017.2,M,,*63
$GLGSA,A,3,071,072,073,079,081,082,083,,,,,,1.3,0.7,1.1*1A
$GPGSA,A,3,002,006,012,017,019,024,025,032,,,,,1.3,0.7,1.1*3E
$GAGSA,A,3,115,127,,,,,,,,,,,1.3,0.7,1.1*27
$GPRMC,060930.80,A,4444.1060,N,03955.9738,E,000.00000,336.0,230522,,,A*50
$GPGGA,060931.00,4444.1060,N,03955.9738,E,1,17,0.7,00156.4,M,0017.2,M,,*6A
$GLGSA,A,3,071,072,073,079,081,082,083,,,,,,1.3,0.7,1.1*1A
$GPGSA,A,3,002,006,012,017,019,024,025,032,,,,,1.3,0.7,1.1*3E
$GAGSA,A,3,115,127,,,,,,,,,,,1.3,0.7,1.1*27
$GPGSV,7,1,27,002,39,153,49,006,45,090,47,011,45,137,47,012,64,309,49*74
$GPGSV,7,2,27,017,16,051,42,019,37,051,48,020,00,137,,022,05,331,*7D
$GPGSV,7,3,27,024,64,211,49,025,22,288,41,029,11,236,,032,14,313,49*77
$GPGSV,7,4,27,071,08,286,44,072,09,332,48,073,35,317,51,079,26,117,47*72
$GPGSV,7,5,27,081,28,033,50,082,73,084,51,083,44,185,40,102,07,100,42*7E
$GPGSV,7,6,27,107,07,219,,113,00,192,,115,40,160,46,127,56,305,47*79
$GPGSV,7,7,27,130,59,086,46,134,50,080,47,136,14,035,*71
$GPRMC,060931.00,A,4444.1060,N,03955.9738,E,000.00000,336.0,230522,,,A*59
$GPZDA,060931.00,23,05,2022,+00,00*46
$GPGGA,060931.20,4444.1060,N,03955.9738,E,1,17,0.7,00156.4,M,0017.2,M,,*68
$GLGSA,A,3,071,072,073,079,081,082,083,,,,,,1.3,0.7,1.1*1A
$GPGSA,A,3,002,006,012,017,019,024,025,032,,,,,1.3,0.7,1.1*3E
$GAGSA,A,3,115,127,,,,,,,,,,,1.3,0.7,1.1*27
$GPRMC,060931.20,A,4444.1060,N,03955.9738,E,000.00000,336.0,230522,,,A*5B
$GPGGA,060931.40,4444.1060,N,03955.9738,E,1,17,0.7,00156.4,M,0017.2,M,,*6E
$GLGSA,A,3,071,072,073,079,081,082,083,,,,,,1.3,0.7,1.1*1A
$GPGSA,A,3,002,006,012,017,019,024,025,032,,,,,1.3,0.7,1.1*3E
$GAGSA,A,3,115,127,,,,,,,,,,,1.3,0.7,1.1*27
$GPRMC,060931.40,A,4444.1060,N,03955.9738,E,000.00000,336.0,230522,,,A*5D
$GPGGA,060931.60,4444.1060,N,03955.9738,E,1,17,0.7,00156.4,M,0017.2,M,,*6C
$GLGSA,A,3,071,072,073,079,081,082,083,,,,,,1.3,0.7,1.1*1A
$GPGSA,A,3,002,006,012,017,019,024,025,032,,,,,1.3,0.7,1.1*3E
$GAGSA,A,3,115,127,,,,,,,,,,,1.3,0.7,1.1*27
$GPRMC,060931.60,A,4444.1060,N,03955.9738,E,000.00000,336.0,230522,,,A*5F
$GPGGA,060931.80,4444.1060,N,03955.9738,E,1,17,0.7,00156.4,M,0017.2,M,,*62
$GLGSA,A,3,071,072,073,079,081,082,083,,,,,,1.3,0.7,1.1*1A
$GPGSA,A,3,002,006,012,017,019,024,025,032,,,,,1.3,0.7,1.1*3E
$GAGSA,A,3,115,127,,,,,,,,,,,1.3,0.7,1.1*27
$GPRMC,060931.80,A,4444.1060,N,03955.9738,E,000.00000,336.0,230522,,,A*51
$GPGGA,060932.00,4444.1060,N,03955.9738,E,1,17,0.7,00156.4,M,0017.2,M,,*69
$GLGSA,A,3,071,072,073,079,081,082,083,,,,,,1.3,0.7,1.1*1A
$GPGSA,A,3,002,006,012,017,019,024,025,032,,,,,1.3,0.7,1.1*3E
$GAGSA,A,3,115,127,,,,,,,,,,,1.3,0.7,1.1*27
$GPGSV,7,1,27,002,39,153,49,006,45,090,47,011,45,137,47,012,64,309,49*74
$GPGSV,7,2,27,017,16,051,42,019,37,051,48,020,00,137,,022,05,331,*7D
$GPGSV,7,3,27,024,64,211,48,025,22,288,40,029,11,236,,032,14,313,48*76
$GPGSV,7,4,27,071,08,286,44,072,09,332,48,073,35,317,51,079,26,117,47*72
$GPGSV,7,5,27,081,28,033,50,082,73,084,51,083,44,185,40,102,07,100,42*7E
$GPGSV,7,6,27,107,07,219,,113,00,192,,115,40,160,46,127,56,305,47*79
$GPGSV,7,7,27,130,59,086,46,134,50,080,47,136,14,035,*71
$GPRMC,060932.00,A,4444.1060,N,03955.9738,E,000.00000,336.0,230522,,,A*5A
$GPZDA,060932.00,23,05,2022,+00,00*45
$GPGGA,060932.20,4444.1060,N,03955.9738,E,1,17,0.7,00156.4,M,0017.2,M,,*6B
$GLGSA,A,3,071,072,073,079,081,082,083,,,,,,1.3,0.7,1.1*1A
$GPGSA,A,3,002,006,012,017,019,024,025,032,,,,,1.3,0.7,1.1*3E
$GAGSA,A,3,115,127,,,,,,,,,,,1.3,0.7,1.1*27
$GPRMC,060932.20,A,4444.1060,N,03955.9738,E,000.00000,336.0,230522,,,A*58
$GPGGA,060932.40,4444.1060,N,03955.9738,E,1,17,0.7,00156.4,M,0017.2,M,,*6D
$GLGSA,A,3,071,072,073,079,081,082,083,,,,,,1.3,0.7,1.1*1A
$GPGSA,A,3,002,006,012,017,019,024,025,032,,,,,1.3,0.7,1.1*3E
$GAGSA,A,3,115,127,,,,,,,,,,,1.3,0.7,1.1*27
$GPRMC,060932.40,A,4444.1060,N,03955.9738,E,000.00000,336.0,230522,,,A*5E
$GPGGA,060932.60,4444.1060,N,03955.9738,E,1,17,0.7,00156.4,M,0017.2,M,,*6F
$GLGSA,A,3,071,072,073,079,081,082,083,,,,,,1.3,0.7,1.1*1A
$GPGSA,A,3,002,006,012,017,019,024,025,032,,,,,1.3,0.7,1.1*3E
$GAGSA,A,3,115,127,,,,,,,,,,,1.3,0.7,1.1*27
$GPRMC,060932.60,A,4444.1060,N,03955.9738,E,000.00000,336.0,230522,,,A*5C
$GPGGA,060932.80,4444.1060,N,03955.9738,E,1,17,0.7,00156.4,M,0017.2,M,,*61
$GLGSA,A,3,071,072,073,079,081,082,083,,,,,,1.3,0.7,1.1*1A
$GPGSA,A,3,002,006,012,017,019,024,025,032,,,,,1.3,0.7,1.1*3E
$GAGSA,A,3,115,127,,,,,,,,,,,1.3,0.7,1.1*27
$GPRMC,060932.80,A,4444.1060,N,03955.9738,E,000.00000,336.0,230522,,,A*52
$GPGGA,060933.00,4444.1060,N,03955.9738,E,1,17,0.7,00156.4,M,0017.2,M,,*68
$GLGSA,A,3,071,072,073,079,081,082,083,,,,,,1.3,0.7,1.1*1A
$GPGSA,A,3,002,006,012,017,019,024,025,032,,,,,1.3,0.7,1.1*3E
$GAGSA,A,3,115,127,,,,,,,,,,,1.3,0.7,1.1*27
$GPGSV,7,1,27,002,39,153,49,006,45,090,47,011,45,137,48,012,64,309,50*73
$GPGSV,7,2,27,017,16,051,42,019,37,051,48,020,00,137,,022,05,331,*7D
$GPGSV,7,3,27,024,64,211,48,025,22,288,41,029,11,236,,032,14,313,48*77
$GPGSV,7,4,27,071,08,286,44,072,09,332,49,073,35,317,51,079,26,117,47*73
$GPGSV,7,5,27,081,28,033,50,082,73,084,51,083,44,185,40,102,07,100,41*7D
$GPGSV,7,6,27,107,07,219,,113,00,192,,115,40,160,47,127,56,305,47*78
$GPGSV,7,7,27,130,59,086,46,134,50,080,47,136,14,035,*71
$GPRMC,060933.00,A,4444.1060,N,03955.9738,E,000.00000,336.0,230522,,,A*5B
$GPZDA,060933.00,23,05,2022,+00,00*44
$GPGGA,060933.20,4444.1060,N,03955.9738,E,1,17,0.7,00156.4,M,0017.2,M,,*6A
$GLGSA,A,3,071,072,073,079,081,082,083,,,,,,1.3,0.7,1.1*1A
$GPGSA,A,3,002,006,012,017,019,024,025,032,,,,,1.3,0.7,1.1*3E
$GAGSA,A,3,115,127,,,,,,,,,,,1.3,0.7,1.1*27
$GPRMC,060933.20,A,4444.1060,N,03955.9738,E,000.00000,336.0,230522,,,A*59
$GPGGA,060933.40,4444.1060,N,03955.9738,E,1,17,0.7,00156.4,M,0017.2,M,,*6C
$GLGSA,A,3,071,072,073,079,081,082,083,,,,,,1.3,0.7,1.1*1A
$GPGSA,A,3,002,006,012,017,019,024,025,032,,,,,1.3,0.7,1.1*3E
$GAGSA,A,3,115,127,,,,,,,,,,,1.3,0.7,1.1*27
$GPRMC,060933.40,A,4444.1060,N,03955.9738,E,000.00000,336.0,230522,,,A*5F
$GPGGA,060933.60,4444.1060,N,03955.9738,E,1,17,0.7,00156.4,M,0017.2,M,,*6E
$GLGSA,A,3,071,072,073,079,081,082,083,,,,,,1.3,0.7,1.1*1A
$GPGSA,A,3,002,006,012,017,019,024,025,032,,,,,1.3,0.7,1.1*3E
$GAGSA,A,3,115,127,,,,,,,,,,,1.3,0.7,1.1*27
$GPRMC,060933.60,A,4444.1060,N,03955.9738,E,000.00000,336.0,230522,,,A*5D
$GPGGA,060933.80,4444.1060,N,03955.9738,E,1,17,0.7,00156.4,M,0017.2,M,,*60
$GLGSA,A,3,071,072,073,079,081,082,083,,,,,,1.3,0.7,1.1*1A
$GPGSA,A,3,002,006,012,017,019,024,025,032,,,,,1.3,0.7,1.1*3E
$GAGSA,A,3,115,127,,,,,,,,,,,1.3,0.7,1.1*27
$GPRMC,060933.80,A,4444.1060,N,03955.9738,E,000.00000,336.0,230522,,,A*53
$GPGGA,060934.00,4444.1060,N,03955.9738,E,1,17,0.7,00156.4,M,0017.2,M,,*6F
$GLGSA,A,3,071,072,073,079,081,082,083,,,,,,1.3,0.7,1.1*1A
$GPGSA,A,3,002,006,012,017,019,024,025,032,,,,,1.3,0.7,1.1*3E
$GAGSA,A,3,115,127,,,,,,,,,,,1.3,0.7,1.1*27
$GPGSV,7,1,27,002,39,153,49,006,45,090,47,011,45,137,48,012,64,309,50*73
$GPGSV,7,2,27,017,16,051,41,019,37,051,48,020,00,137,,022,05,331,*7E
$GPGSV,7,3,27,024,64,211,48,025,22,288,41,029,11,236,,032,14,313,48*77
$GPGSV,7,4,27,071,08,286,44,072,09,332,48,073,35,317,51,079,26,117,46*73
$GPGSV,7,5,27,081,28,033,50,082,73,084,51,083,44,185,40,102,07,100,41*7D
$GPGSV,7,6,27,107,07,219,,113,00,192,,115,40,160,47,127,56,305,47*78
$GPGSV,7,7,27,130,59,086,46,134,50,080,46,136,14,035,*70
$GPRMC,060934.00,A,4444.1060,N,03955.9738,E,000.00000,336.0,230522,,,A*5C
$GPZDA,060934.00,23,05,2022,+00,00*43
$GPGGA,060934.20,4444.1060,N,03955.9738,E,1,17,0.7,00156.4,M,0017.2,M,,*6D
$GLGSA,A,3,071,072,073,079,081,082,083,,,,,,1.3,0.7,1.1*1A
$GPGSA,A,3,002,006,012,017,019,024,025,032,,,,,1.3,0.7,1.1*3E
$GAGSA,A,3,115,127,,,,,,,,,,,1.3,0.7,1.1*27
$GPRMC,060934.20,A,4444.1060,N,03955.9738,E,000.00000,336.0,230522,,,A*5E
$GPGGA,060934.40,4444.1060,N,03955.9738,E,1,17,0.7,00156.4,M,0017.2,M,,*6B
$GLGSA,A,3,071,072,073,079,081,082,083,,,,,,1.3,0.7,1.1*1A
$GPGSA,A,3,002,006,012,017,019,024,025,032,,,,,1.3,0.7,1.1*3E
$GAGSA,A,3,115,127,,,,,,,,,,,1.3,0.7,1.1*27
$GPRMC,060934.40,A,4444.1060,N,03955.9738,E,000.00000,336.0,230522,,,A*58
$GPGGA,060934.60,4444.1060,N,03955.9738,E,1,17,0.7,00156.4,M,0017.2,M,,*69
$GLGSA,A,3,071,072,073,079,081,082,083,,,,,,1.3,0.7,1.1*1A
$GPGSA,A,3,002,006,012,017,019,024,025,032,,,,,1.3,0.7,1.1*3E
$GAGSA,A,3,115,127,,,,,,,,,,,1.3,0.7,1.1*27
$GPRMC,060934.60,A,4444.1060,N,03955.9738,E,000.00000,336.0,230522,,,A*5A
$GPGGA,060934.80,4444.1060,N,03955.9738,E,1,17,0.7,00156.4,M,0017.2,M,,*67
$GLGSA,A,3,071,072,073,079,081,082,083,,,,,,1.3,0.7,1.1*1A
$GPGSA,A,3,002,006,012,017,019,024,025,032,,,,,1.3,0.7,1.1*3E
$GAGSA,A,3,115,127,,,,,,,,,,,1.3,0.7,1.1*27
$GPRMC,060934.80,A,4444.1060,N,03955.9738,E,000.00000,336.0,230522,,,A*54
$GPGGA,060935.00,4444.1060,N,03955.9738,E,1,17,0.7,00156.4,M,0017.2,M,,*6E
$GLGSA,A,3,071,072,073,079,081,082,083,,,,,,1.3,0.7,1.1*1A
$GPGSA,A,3,002,006,012,017,019,024,025,032,,,,,1.3,0.7,1.1*3E
$GAGSA,A,3,115,127,,,,,,,,,,,1.3,0.7,1.1*27
$GPGSV,7,1,27,002,39,153,49,006,45,090,47,011,45,137,48,012,64,309,50*73
$GPGSV,7,2,27,017,16,051,42,019,37,051,48,020,00,137,,022,05,331,*7D
$GPGSV,7,3,27,024,64,211,48,025,22,288,41,029,11,236,,032,14,313,48*77
$GPGSV,7,4,27,071,08,286,44,072,09,332,49,073,35,317,51,079,26,117,47*73
$GPGSV,7,5,27,081,28,033,50,082,73,084,51,083,44,185,40,102,07,100,41*7D
$GPGSV,7,6,27,107,07,219,,113,00,192,,115,40,160,47,127,56,305,47*78
$GPGSV,7,7,27,130,59,086,46,134,50,080,47,136,14,035,*71
$GPRMC,060935.00,A,4444.1060,N,03955.9738,E,000.00000,336.0,230522,,,A*5D
$GPZDA,060935.00,23,05,2022,+00,00*42
$GPGGA,060935.20,4444.1060,N,03955.9738,E,1,17,0.7,00156.4,M,0017.2,M,,*6C
$GLGSA,A,3,071,072,073,079,081,082,083,,,,,,1.3,0.7,1.1*1A
$GPGSA,A,3,002,006,012,017,019,024,025,032,,,,,1.3,0.7,1.1*3E
$GAGSA,A,3,115,127,,,,,,,,,,,1.3,0.7,1.1*27
$GPRMC,060935.20,A,4444.1060,N,03955.9738,E,000.00000,336.0,230522,,,A*5F
$GPGGA,060935.40,4444.1060,N,03955.9738,E,1,17,0.7,00156.4,M,0017.2,M,,*6A
$GLGSA,A,3,071,072,073,079,081,082,083,,,,,,1.3,0.7,1.1*1A
$GPGSA,A,3,002,006,012,017,019,024,025,032,,,,,1.3,0.7,1.1*3E
$GAGSA,A,3,115,127,,,,,,,,,,,1.3,0.7,1.1*27
$GPRMC,060935.40,A,4444.1060,N,03955.9738,E,000.00000,336.0,230522,,,A*59
$GPGGA,060935.60,4444.1060,N,03955.9738,E,1,17,0.7,00156.4,M,0017.2,M,,*68
$GLGSA,A,3,071,072,073,079,081,082,083,,,,,,1.3,0.7,1.1*1A
$GPGSA,A,3,002,006,012,017,019,024,025,032,,,,,1.3,0.7,1.1*3E
$GAGSA,A,3,115,127,,,,,,,,,,,1.3,0.7,1.1*27
$GPRMC,060935.60,A,4444.1060,N,03955.9738,E,000.00000,336.0,230522,,,A*5B
$GPGGA,060935.80,4444.1060,N,03955.9738,E,1,17,0.7,00156.4,M,0017.2,M,,*66
$GLGSA,A,3,071,072,073,079,081,082,083,,,,,,1.3,0.7,1.1*1A
$GPGSA,A,3,002,006,012,017,019,024,025,032,,,,,1.3,0.7,1.1*3E
$GAGSA,A,3,115,127,,,,,,,,,,,1.3,0.7,1.1*27
$GPRMC,060935.80,A,4444.1060,N,03955.9738,E,000.00000,336.0,230522,,,A*55
$GPGGA,060936.00,4444.1060,N,03955.9738,E,1,17,0.7,00156.4,M,0017.2,M,,*6D
$GLGSA,A,3,071,072,073,079,081,082,083,,,,,,1.3,0.7,1.1*1A
$GPGSA,A,3,002,006,012,017,019,024,025,032,,,,,1.3,0.7,1.1*3E
$GAGSA,A,3,115,127,,,,,,,,,,,1.3,0.7,1.1*27
$GPGSV,7,1,27,002,39,153,49,006,45,090,47,011,45,137,48,012,64,309,50*73
$GPGSV,7,2,27,017,16,051,41,019,37,051,48,020,00,137,,022,05,331,*7E
$GPGSV,7,3,27,024,64,210,48,025,22,288,41,029,11,236,,032,14,313,47*79
$GPGSV,7,4,27,071,08,286,44,072,09,332,49,073,35,317,51,079,26,117,47*73
$GPGSV,7,5,27,081,28,033,50,082,73,084,51,083,44,185,40,102,07,100,41*7D
$GPGSV,7,6,27,107,07,219,,113,00,192,,115,40,160,47,127,56,305,47*78
$GPGSV,7,7,27,130,59,086,46,134,50,080,47,136,14,035,*71
$GPRMC,060936.00,A,4444.1060,N,03955.9738,E,000.00000,336.0,230522,,,A*5E
$GPZDA,060936.00,23,05,2022,+00,00*41
$GPGGA,060936.20,4444.1060,N,03955.9738,E,1,17,0.7,00156.4,M,0017.2,M,,*6F
$GLGSA,A,3,071,072,073,079,081,082,083,,,,,,1.3,0.7,1.1*1A
$GPGSA,A,3,002,006,012,017,019,024,025,032,,,,,1.3,0.7,1.1*3E
$GAGSA,A,3,115,127,,,,,,,,,,,1.3,0.7,1.1*27
$GPRMC,060936.20,A,4444.1060,N,03955.9738,E,000.00000,336.0,230522,,,A*5C
$GPGGA,060936.40,4444.1060,N,03955.9738,E,1,17,0.7,00156.4,M,0017.2,M,,*69
$GLGSA,A,3,071,072,073,079,081,082,083,,,,,,1.3,0.7,1.1*1A
$GPGSA,A,3,002,006,012,017,019,024,025,032,,,,,1.3,0.7,1.1*3E
$GAGSA,A,3,115,127,,,,,,,,,,,1.3,0.7,1.1*27
$GPRMC,060936.40,A,4444.1060,N,03955.9738,E,000.00000,336.0,230522,,,A*5A
$GPGGA,060936.60,4444.1060,N,03955.9738,E,1,17,0.7,00156.4,M,0017.2,M,,*6B
$GLGSA,A,3,071,072,073,079,081,082,083,,,,,,1.3,0.7,1.1*1A
$GPGSA,A,3,002,006,012,017,019,024,025,032,,,,,1.3,0.7,1.1*3E
$GAGSA,A,3,115,127,,,,,,,,,,,1.3,0.7,1.1*27
$GPRMC,060936.60,A,4444.1060,N,03955.9738,E,000.00000,336.0,230522,,,A*58
$GPGGA,060936.80,4444.1060,N,03955.9738,E,1,17,0.7,00156.4,M,0017.2,M,,*65
$GLGSA,A,3,071,072,073,079,081,082,083,,,,,,1.3,0.7,1.1*1A
$GPGSA,A,3,002,006,012,017,019,024,025,032,,,,,1.3,0.7,1.1*3E
$GAGSA,A,3,115,127,,,,,,,,,,,1.3,0.7,1.1*27
$GPRMC,060936.80,A,4444.1060,N,03955.9738,E,000.00000,336.0,230522,,,A*56
$GPGGA,060937.00,4444.1060,N,03955.9738,E,1,17,0.7,00156.4,M,0017.2,M,,*6C
$GLGSA,A,3,071,072,073,079,081,082,083,,,,,,1.3,0.7,1.1*1A
$GPGSA,A,3,002,006,012,017,019,024,025,032,,,,,1.3,0.7,1.1*3E
$GAGSA,A,3,115,127,,,,,,,,,,,1.3,0.7,1.1*27
$GPGSV,7,1,27,002,39,153,49,006,45,090,47,011,45,137,48,012,64,309,50*73
$GPGSV,7,2,27,017,16,051,41,019,37,051,48,020,00,137,,022,05,331,*7E
$GPGSV,7,3,27,024,64,210,48,025,22,288,41,029,11,236,,032,14,313,47*79
$GPGSV,7,4,27,071,08,286,44,072,09,332,48,073,35,317,51,079,26,117,47*72
$GPGSV,7,5,27,081,28,033,50,082,73,084,51,083,44,185,40,102,07,100,41*7D
$GPGSV,7,6,27,107,07,219,,113,00,192,,115,40,160,47,127,56,305,47*78
$GPGSV,7,7,27,130,59,086,46,134,50,080,47,136,14,035,*71
$GPRMC,060937.00,A,4444.1060,N,03955.9738,E,000.00000,336.0,230522,,,A*5F
$GPZDA,060937.00,23,05,2022,+00,00*40
$GPGGA,060937.20,4444.1060,N,03955.9738,E,1,17,0.7,00156.4,M,0017.2,M,,*6E
$GLGSA,A,3,071,072,073,079,081,082,083,,,,,,1.3,0.7,1.1*1A
$GPGSA,A,3,002,006,012,017,019,024,025,032,,,,,1.3,0.7,1.1*3E
$GAGSA,A,3,115,127,,,,,,,,,,,1.3,0.7,1.1*27
$GPRMC,060937.20,A,4444.1060,N,03955.9738,E,000.00000,336.0,230522,,,A*5D
$GPGGA,060937.40,4444.1060,N,03955.9738,E,1,17,0.7,00156.4,M,0017.2,M,,*68
$GLGSA,A,3,071,072,073,079,081,082,083,,,,,,1.3,0.7,1.1*1A
$GPGSA,A,3,002,006,012,017,019,024,025,032,,,,,1.3,0.7,1.1*3E
$GAGSA,A,3,115,127,,,,,,,,,,,1.3,0.7,1.1*27
$GPRMC,060937.40,A,4444.1060,N,03955.9738,E,000.00000,336.0,230522,,,A*5B
$GPGGA,060937.60,4444.1060,N,03955.9738,E,1,17,0.7,00156.4,M,0017.2,M,,*6A
$GLGSA,A,3,071,072,073,079,081,082,083,,,,,,1.3,0.7,1.1*1A
$GPGSA,A,3,002,006,012,017,019,024,025,032,,,,,1.3,0.7,1.1*3E
$GAGSA,A,3,115,127,,,,,,,,,,,1.3,0.7,1.1*27
$GPRMC,060937.60,A,4444.1060,N,03955.9738,E,000.00000,336.0,230522,,,A*59
$GPGGA,060937.80,4444.1060,N,03955.9738,E,1,17,0.7,00156.4,M,0017.2,M,,*64
$GLGSA,A,3,071,072,073,079,081,082,083,,,,,,1.3,0.7,1.1*1A
$GPGSA,A,3,002,006,012,017,019,024,025,032,,,,,1.3,0.7,1.1*3E
$GAGSA,A,3,115,127,,,,,,,,,,,1.3,0.7,1.1*27
