$GPRMC,110314.40,A,4445.1705,N,03954.9096,E,000.00000,113.8,230522,,,A*5C
$GPGGA,110314.60,4445.1705,N,03954.9096,E,1,25,0.5,00143.2,M,0017.1,M,,*62
$GLGSA,A,3,068,069,070,074,075,076,084,085,086,,,,1.0,0.5,0.8*1B
$GPGSA,A,3,005,015,016,018,023,025,026,029,031,,,,1.0,0.5,0.8*0A
$GAGSA,A,3,103,108,113,115,121,126,127,,,,,,1.0,0.5,0.8*11
$GPRMC,110314.60,A,4445.1705,N,03954.9096,E,000.00000,113.8,230522,,,A*5E
$GPGGA,110314.80,4445.1705,N,03954.9096,E,1,25,0.5,00143.2,M,0017.1,M,,*6C
$GLGSA,A,3,068,069,070,074,075,076,084,085,086,,,,1.0,0.5,0.8*1B
$GPGSA,A,3,005,015,016,018,023,025,026,029,031,,,,1.0,0.5,0.8*0A
$GAGSA,A,3,103,108,113,115,121,126,127,,,,,,1.0,0.5,0.8*11
$GPRMC,110314.80,A,4445.1705,N,03954.9096,E,000.00000,113.8,230522,,,A*50
$GPGGA,110315.00,4445.1705,N,03954.9096,E,1,25,0.5,00143.2,M,0017.1,M,,*65
$GLGSA,A,3,068,069,070,074,075,076,084,085,086,,,,1.0,0.5,0.8*1B
$GPGSA,A,3,005,015,016,018,023,025,026,029,031,,,,1.0,0.5,0.8*0A
$GAGSA,A,3,103,108,113,115,121,126,127,,,,,,1.0,0.5,0.8*11
$GPGSV,8,1,31,005,34,053,46,010,03,196,43,013,03,084,,015,09,118,44*77
$GPGSV,8,2,31,016,26,313,48,018,78,279,48,020,08,039,16,023,29,182,50*7A
$GPGSV,8,3,31,025,19,168,46,026,48,285,49,029,58,089,48,031,08,240,36*7A
$GPGSV,8,4,31,068,17,027,42,069,34,080,49,070,15,144,35,074,17,202,40*74
$GPGSV,8,5,31,075,45,259,51,076,23,325,51,084,41,051,38,085,53,308,54*78
$GPGSV,8,6,31,086,14,274,31,101,46,292,47,103,13,054,26,108,14,104,32*78
$GPGSV,8,7,31,113,68,037,45,115,17,063,30,121,51,211,47,126,48,262,45*70
$GPGSV,8,8,31,127,11,169,42,131,03,328,,133,02,251,*7B
$GPRMC,110315.00,A,4445.1705,N,03954.9096,E,000.00000,113.8,230522,,,A*59
$GPZDA,110315.00,23,05,2022,+00,00*4C
$GPGGA,110315.20,4445.1705,N,03954.9096,E,1,25,0.5,00143.2,M,0017.1,M,,*67
$GLGSA,A,3,068,069,070,074,075,076,084,085,086,,,,1.0,0.5,0.8*1B
$GPGSA,A,3,005,015,016,018,023,025,026,029,031,,,,1.0,0.5,0.8*0A
$GAGSA,A,3,103,108,113,115,121,126,127,,,,,,1.0,0.5,0.8*11
$GPRMC,110315.20,A,4445.1705,N,03954.9096,E,000.00000,113.8,230522,,,A*5B
$GPGGA,110315.40,4445.1705,N,03954.9096,E,1,24,0.5,00143.2,M,0017.1,M,,*60
$GLGSA,A,3,068,069,070,074,075,076,084,085,086,,,,1.0,0.5,0.9*1A
$GPGSA,A,3,005,015,016,018,023,025,026,029,031,,,,1.0,0.5,0.9*0B
$GAGSA,A,3,108,113,115,121,126,127,,,,,,,1.0,0.5,0.9*22
$GPRMC,110315.40,A,4445.1705,N,03954.9096,E,000.00000,113.8,230522,,,A*5D
$GPGGA,110315.60,4445.1705,N,03954.9096,E,1,25,0.5,00143.2,M,0017.1,M,,*63
$GLGSA,A,3,068,069,070,074,075,076,084,085,086,,,,1.0,0.5,0.8*1B
$GPGSA,A,3,005,015,016,018,023,025,026,029,031,,,,1.0,0.5,0.8*0A
$GAGSA,A,3,103,108,113,115,121,126,127,,,,,,1.0,0.5,0.8*11
$GPRMC,110315.60,A,4445.1705,N,03954.9096,E,000.00000,113.8,230522,,,A*5F
$GPGGA,110315.80,4445.1705,N,03954.9096,E,1,25,0.5,00143.2,M,0017.1,M,,*6D
$GLGSA,A,3,068,069,070,074,075,076,084,085,086,,,,1.0,0.5,0.8*1B
$GPGSA,A,3,005,015,016,018,023,025,026,029,031,,,,1.0,0.5,0.8*0A
$GAGSA,A,3,103,108,113,115,121,126,127,,,,,,1.0,0.5,0.8*11
$GPRMC,110315.80,A,4445.1705,N,03954.9096,E,000.00000,113.8,230522,,,A*51
$GPGGA,110316.00,4445.1705,N,03954.9096,E,1,25,0.5,00143.2,M,0017.1,M,,*66
$GLGSA,A,3,068,069,070,074,075,076,084,085,086,,,,1.0,0.5,0.8*1B
$GPGSA,A,3,005,015,016,018,023,025,026,029,031,,,,1.0,0.5,0.8*0A
$GAGSA,A,3,103,108,113,115,121,126,127,,,,,,1.0,0.5,0.8*11
$GPGSV,8,1,31,005,34,053,46,010,03,196,44,013,03,084,,015,09,118,44*70
$GPGSV,8,2,31,016,26,313,48,018,78,279,48,020,08,039,17,023,29,182,50*7B
$GPGSV,8,3,31,025,19,168,46,026,48,285,49,029,58,089,48,031,08,240,36*7A
$GPGSV,8,4,31,068,17,027,42,069,34,080,49,070,15,144,34,074,17,202,40*75
$GPGSV,8,5,31,075,45,259,51,076,23,325,51,084,41,051,38,085,53,308,54*78
$GPGSV,8,6,31,086,14,274,31,101,46,292,47,103,13,054,27,108,14,104,32*79
$GPGSV,8,7,31,113,68,037,44,115,17,063,29,121,51,211,47,126,48,262,45*79
$GPGSV,8,8,31,127,11,169,42,131,03,328,,133,02,251,*7B
$GPRMC,110316.00,A,4445.1705,N,03954.9096,E,000.00000,113.8,230522,,,A*5A
$GPZDA,110316.00,23,05,2022,+00,00*4F
$GPGGA,110316.20,4445.1705,N,03954.9096,E,1,25,0.5,00143.2,M,0017.1,M,,*64
$GLGSA,A,3,068,069,070,074,075,076,084,085,086,,,,1.0,0.5,0.8*1B
$GPGSA,A,3,005,015,016,018,023,025,026,029,031,,,,1.0,0.5,0.8*0A
$GAGSA,A,3,103,108,113,115,121,126,127,,,,,,1.0,0.5,0.8*11
$GPRMC,110316.20,A,4445.1705,N,03954.9096,E,000.00000,113.8,230522,,,A*58
$GPGGA,110316.40,4445.1705,N,03954.9096,E,1,25,0.5,00143.2,M,0017.1,M,,*62
$GLGSA,A,3,068,069,070,074,075,076,084,085,086,,,,1.0,0.5,0.8*1B
$GPGSA,A,3,005,015,016,018,023,025,026,029,031,,,,1.0,0.5,0.8*0A
$GAGSA,A,3,103,108,113,115,121,126,127,,,,,,1.0,0.5,0.8*11
$GPRMC,110316.40,A,4445.1705,N,03954.9096,E,000.00000,113.8,230522,,,A*5E
$GPGGA,110316.60,4445.1705,N,03954.9096,E,1,25,0.5,00143.2,M,0017.1,M,,*60
$GLGSA,A,3,068,069,070,074,075,076,084,085,086,,,,1.0,0.5,0.8*1B
$GPGSA,A,3,005,015,016,018,023,025,026,029,031,,,,1.0,0.5,0.8*0A
$GAGSA,A,3,103,108,113,115,121,126,127,,,,,,1.0,0.5,0.8*11
$GPRMC,110316.60,A,4445.1705,N,03954.9096,E,000.00000,113.8,230522,,,A*5C
$GPGGA,110316.80,4445.1705,N,03954.9096,E,1,25,0.5,00143.2,M,0017.1,M,,*6E
$GLGSA,A,3,068,069,070,074,075,076,084,085,086,,,,1.0,0.5,0.8*1B
$GPGSA,A,3,005,015,016,018,023,025,026,029,031,,,,1.0,0.5,0.8*0A
$GAGSA,A,3,103,108,113,115,121,126,127,,,,,,1.0,0.5,0.8*11
$GPRMC,110316.80,A,4445.1705,N,03954.9096,E,000.00000,113.8,230522,,,A*52
$GPGGA,110317.00,4445.1705,N,03954.9096,E,1,25,0.5,00143.2,M,0017.1,M,,*67
$GLGSA,A,3,068,069,070,074,075,076,084,085,086,,,,1.0,0.5,0.8*1B
$GPGSA,A,3,005,015,016,018,023,025,026,029,031,,,,1.0,0.5,0.8*0A
$GAGSA,A,3,103,108,113,115,121,126,127,,,,,,1.0,0.5,0.8*11
$GPGSV,8,1,31,005,34,053,46,010,03,196,44,013,03,084,,015,09,118,44*70
$GPGSV,8,2,31,016,26,313,48,018,78,279,48,020,08,039,16,023,29,182,50*7A
$GPGSV,8,3,31,025,19,168,46,026,48,285,48,029,58,090,48,031,08,240,35*70
$GPGSV,8,4,31,068,17,027,41,069,34,080,49,070,15,144,35,074,17,202,40*77
$GPGSV,8,5,31,075,45,259,50,076,23,325,51,084,41,051,38,085,53,308,54*79
$GPGSV,8,6,31,086,14,274,31,101,46,292,47,103,13,054,28,108,14,104,32*76
$GPGSV,8,7,31,113,68,037,44,115,17,063,28,121,51,211,47,126,48,262,45*78
$GPGSV,8,8,31,127,11,169,42,131,03,328,,133,02,251,*7B
$GPRMC,110317.00,A,4445.1705,N,03954.9096,E,000.00000,113.8,230522,,,A*5B
$GPZDA,110317.00,23,05,2022,+00,00*4E
$GPGGA,110317.20,4445.1705,N,03954.9096,E,1,25,0.5,00143.2,M,0017.1,M,,*65
$GLGSA,A,3,068,069,070,074,075,076,084,085,086,,,,1.0,0.5,0.8*1B
$GPGSA,A,3,005,015,016,018,023,025,026,029,031,,,,1.0,0.5,0.8*0A
$GAGSA,A,3,103,108,113,115,121,126,127,,,,,,1.0,0.5,0.8*11
$GPRMC,110317.20,A,4445.1705,N,03954.9096,E,000.00000,113.8,230522,,,A*59
$GPGGA,110317.40,4445.1705,N,03954.9096,E,1,25,0.5,00143.2,M,0017.1,M,,*63
$GLGSA,A,3,068,069,070,074,075,076,084,085,086,,,,1.0,0.5,0.8*1B
$GPGSA,A,3,005,015,016,018,023,025,026,029,031,,,,1.0,0.5,0.8*0A
$GAGSA,A,3,103,108,113,115,121,126,127,,,,,,1.0,0.5,0.8*11
$GPRMC,110317.40,A,4445.1705,N,03954.9096,E,000.00000,113.8,230522,,,A*5F
$GPGGA,110317.60,4445.1705,N,03954.9096,E,1,25,0.5,00143.2,M,0017.1,M,,*61
$GLGSA,A,3,068,069,070,074,075,076,084,085,086,,,,1.0,0.5,0.8*1B
$GPGSA,A,3,005,015,016,018,023,025,026,029,031,,,,1.0,0.5,0.8*0A
$GAGSA,A,3,103,108,113,115,121,126,127,,,,,,1.0,0.5,0.8*11
$GPRMC,110317.60,A,4445.1705,N,03954.9096,E,000.00000,113.8,230522,,,A*5D
$GPGGA,110317.80,4445.1705,N,03954.9096,E,1,25,0.5,00143.2,M,0017.1,M,,*6F
$GLGSA,A,3,068,069,070,074,075,076,084,085,086,,,,1.0,0.5,0.8*1B
$GPGSA,A,3,005,015,016,018,023,025,026,029,031,,,,1.0,0.5,0.8*0A
$GAGSA,A,3,103,108,113,115,121,126,127,,,,,,1.0,0.5,0.8*11
$GPRMC,110317.80,A,4445.1705,N,03954.9096,E,000.00000,113.8,230522,,,A*53
$GPGGA,110318.00,4445.1705,N,03954.9096,E,1,25,0.5,00143.2,M,0017.1,M,,*68
$GLGSA,A,3,068,069,070,074,075,076,084,085,086,,,,1.0,0.5,0.8*1B
$GPGSA,A,3,005,015,016,018,023,025,026,029,031,,,,1.0,0.5,0.8*0A
$GAGSA,A,3,103,108,113,115,121,126,127,,,,,,1.0,0.5,0.8*11
$GPGSV,8,1,31,005,34,053,46,010,03,196,44,013,03,084,,015,09,118,44*70
$GPGSV,8,2,31,016,26,313,48,018,78,279,48,020,08,039,18,023,29,182,50*74
$GPGSV,8,3,31,025,19,168,45,026,48,285,48,029,58,090,48,031,08,240,36*70
$GPGSV,8,4,31,068,17,027,41,069,34,080,49,070,15,144,35,074,17,202,40*77
$GPGSV,8,5,31,075,45,259,50,076,23,325,51,084,41,051,38,085,53,308,54*79
$GPGSV,8,6,31,086,14,274,29,101,46,292,47,103,13,054,27,108,14,104,32*70
$GPGSV,8,7,31,113,68,037,44,115,17,063,30,121,51,211,47,126,48,262,45*71
$GPGSV,8,8,31,127,11,169,42,131,03,328,,133,02,251,*7B
$GPRMC,110318.00,A,4445.1705,N,03954.9096,E,000.00000,113.8,230522,,,A*54
$GPZDA,110318.00,23,05,2022,+00,00*41
$GPGGA,110318.20,4445.1705,N,03954.9096,E,1,25,0.5,00143.2,M,0017.1,M,,*6A
$GLGSA,A,3,068,069,070,074,075,076,084,085,086,,,,1.0,0.5,0.8*1B
$GPGSA,A,3,005,015,016,018,023,025,026,029,031,,,,1.0,0.5,0.8*0A
$GAGSA,A,3,103,108,113,115,121,126,127,,,,,,1.0,0.5,0.8*11
$GPRMC,110318.20,A,4445.1705,N,03954.9096,E,000.00000,113.8,230522,,,A*56
$GPGGA,110318.40,4445.1705,N,03954.9096,E,1,25,0.5,00143.2,M,0017.1,M,,*6C
$GLGSA,A,3,068,069,070,074,075,076,084,085,086,,,,1.0,0.5,0.8*1B
$GPGSA,A,3,005,015,016,018,023,025,026,029,031,,,,1.0,0.5,0.8*0A
$GAGSA,A,3,103,108,113,115,121,126,127,,,,,,1.0,0.5,0.8*11
$GPRMC,110318.40,A,4445.1705,N,03954.9096,E,000.00000,113.8,230522,,,A*50
$GPGGA,110318.60,4445.1705,N,03954.9096,E,1,25,0.5,00143.2,M,0017.1,M,,*6E
$GLGSA,A,3,068,069,070,074,075,076,084,085,086,,,,1.0,0.5,0.8*1B
$GPGSA,A,3,005,015,016,018,023,025,026,029,031,,,,1.0,0.5,0.8*0A
$GAGSA,A,3,103,108,113,115,121,126,127,,,,,,1.0,0.5,0.8*11
$GPRMC,110318.60,A,4445.1705,N,03954.9096,E,000.00000,113.8,230522,,,A*52
$GPGGA,110318.80,4445.1705,N,03954.9096,E,1,25,0.5,00143.2,M,0017.1,M,,*60
$GLGSA,A,3,068,069,070,074,075,076,084,085,086,,,,1.0,0.5,0.8*1B
$GPGSA,A,3,005,015,016,018,023,025,026,029,031,,,,1.0,0.5,0.8*0A
$GAGSA,A,3,103,108,113,115,121,126,127,,,,,,1.0,0.5,0.8*11
$GPRMC,110318.80,A,4445.1705,N,03954.9096,E,000.00000,113.8,230522,,,A*5C
$GPGGA,110319.00,4445.1705,N,03954.9096,E,1,25,0.5,00143.2,M,0017.1,M,,*69
$GLGSA,A,3,068,069,070,074,075,076,084,085,086,,,,1.0,0.5,0.8*1B
$GPGSA,A,3,005,015,016,018,023,025,026,029,031,,,,1.0,0.5,0.8*0A
$GAGSA,A,3,103,108,113,115,121,126,127,,,,,,1.0,0.5,0.8*11
$GPGSV,8,1,31,005,34,053,46,010,03,196,44,013,03,084,,015,09,118,44*70
$GPGSV,8,2,31,016,26,313,48,018,78,279,48,020,08,039,16,023,29,182,49*72
$GPGSV,8,3,31,025,19,168,46,026,48,285,48,029,58,090,48,031,08,240,35*70
$GPGSV,8,4,31,068,16,027,41,069,34,080,49,070,15,144,35,074,17,201,40*75
$GPGSV,8,5,31,075,45,259,50,076,24,325,51,084,41,051,38,085,53,308,54*7E
$GPGSV,8,6,31,086,14,274,30,101,46,292,47,103,13,054,27,108,14,104,33*79
$GPGSV,8,7,31,113,68,037,44,115,17,063,31,121,51,211,47,126,48,262,45*70
$GPGSV,8,8,31,127,11,169,42,131,03,328,,133,02,251,*7B
$GPRMC,110319.00,A,4445.1705,N,03954.9096,E,000.00000,113.8,230522,,,A*55
$GPZDA,110319.00,23,05,2022,+00,00*40
$GPGGA,110319.20,4445.1705,N,03954.9096,E,1,25,0.5,00143.2,M,0017.1,M,,*6B
$GLGSA,A,3,068,069,070,074,075,076,084,085,086,,,,1.0,0.5,0.8*1B
$GPGSA,A,3,005,015,016,018,023,025,026,029,031,,,,1.0,0.5,0.8*0A
$GAGSA,A,3,103,108,113,115,121,126,127,,,,,,1.0,0.5,0.8*11
$GPRMC,110319.20,A,4445.1705,N,03954.9096,E,000.00000,113.8,230522,,,A*57
$GPGGA,110319.40,4445.1705,N,03954.9096,E,1,25,0.5,00143.2,M,0017.1,M,,*6D
$GLGSA,A,3,068,069,070,074,075,076,084,085,086,,,,1.0,0.5,0.8*1B
$GPGSA,A,3,005,015,016,018,023,025,026,029,031,,,,1.0,0.5,0.8*0A
$GAGSA,A,3,103,108,113,115,121,126,127,,,,,,1.0,0.5,0.8*11
$GPRMC,110319.40,A,4445.1705,N,03954.9096,E,000.00000,113.8,230522,,,A*51
$GPGGA,110319.60,4445.1705,N,03954.9096,E,1,24,0.5,00143.2,M,0017.1,M,,*6E
$GLGSA,A,3,068,069,070,074,075,076,084,085,086,,,,1.0,0.5,0.9*1A
$GPGSA,A,3,005,015,016,018,023,025,026,029,031,,,,1.0,0.5,0.9*0B
$GAGSA,A,3,108,113,115,121,126,127,,,,,,,1.0,0.5,0.9*22
$GPRMC,110319.60,A,4445.1705,N,03954.9096,E,000.00000,113.8,230522,,,A*53
$GPGGA,110319.80,4445.1705,N,03954.9096,E,1,24,0.5,00143.2,M,0017.1,M,,*60
$GLGSA,A,3,068,069,070,074,075,076,084,085,086,,,,1.0,0.5,0.9*1A
$GPGSA,A,3,005,015,016,018,023,025,026,029,031,,,,1.0,0.5,0.9*0B
$GAGSA,A,3,108,113,115,121,126,127,,,,,,,1.0,0.5,0.9*22
$GPRMC,110319.80,A,4445.1705,N,03954.9096,E,000.00000,113.8,230522,,,A*5D
$GPGGA,110320.00,4445.1705,N,03954.9096,E,1,25,0.5,00143.2,M,0017.1,M,,*63
$GLGSA,A,3,068,069,070,074,075,076,084,085,086,,,,1.0,0.5,0.8*1B
$GPGSA,A,3,005,015,016,018,023,025,026,029,031,,,,1.0,0.5,0.8*0A
$GAGSA,A,3,103,108,113,115,121,126,127,,,,,,1.0,0.5,0.8*11
$GPGSV,8,1,31,005,34,053,47,010,03,196,44,013,03,084,,015,09,118,44*71
$GPGSV,8,2,31,016,26,313,48,018,78,279,48,020,08,039,18,023,29,182,49*7C
$GPGSV,8,3,31,025,19,168,46,026,48,285,48,029,58,090,48,031,08,240,35*70
$GPGSV,8,4,31,068,16,027,42,069,34,080,48,070,15,144,35,074,17,201,41*76
$GPGSV,8,5,31,075,45,259,51,076,24,325,51,084,41,051,38,085,53,308,54*7F
$GPGSV,8,6,31,086,14,274,30,101,46,292,47,103,13,054,27,108,14,104,33*79
$GPGSV,8,7,31,113,68,037,45,115,17,063,32,121,51,211,47,126,48,262,45*72
$GPGSV,8,8,31,127,11,169,42,131,03,328,,133,02,251,*7B
$GPRMC,110320.00,A,4445.1705,N,03954.9096,E,000.00000,113.8,230522,,,A*5F
$GPZDA,110320.00,23,05,2022,+00,00*4A
$GPGGA,110320.20,4445.1705,N,03954.9096,E,1,25,0.5,00143.2,M,0017.1,M,,*61
$GLGSA,A,3,068,069,070,074,075,076,084,085,086,,,,1.0,0.5,0.8*1B
$GPGSA,A,3,005,015,016,018,023,025,026,029,031,,,,1.0,0.5,0.8*0A
$GAGSA,A,3,103,108,113,115,121,126,127,,,,,,1.0,0.5,0.8*11
$GPRMC,110320.20,A,4445.1705,N,03954.9096,E,000.00000,113.8,230522,,,A*5D
$GPGGA,110320.40,4445.1705,N,03954.9096,E,1,25,0.5,00143.2,M,0017.1,M,,*67
$GLGSA,A,3,068,069,070,074,075,076,084,085,086,,,,1.0,0.5,0.8*1B
$GPGSA,A,3,005,015,016,018,023,025,026,029,031,,,,1.0,0.5,0.8*0A
$GAGSA,A,3,103,108,113,115,121,126,127,,,,,,1.0,0.5,0.8*11
$GPRMC,110320.40,A,4445.1705,N,03954.9096,E,000.00000,113.8,230522,,,A*5B
$GPGGA,110320.60,4445.1705,N,03954.9096,E,1,25,0.5,00143.2,M,0017.1,M,,*65
$GLGSA,A,3,068,069,070,074,075,076,084,085,086,,,,1.0,0.5,0.8*1B
$GPGSA,A,3,005,015,016,018,023,025,026,029,031,,,,1.0,0.5,0.8*0A
$GAGSA,A,3,103,108,113,115,121,126,127,,,,,,1.0,0.5,0.8*11
$GPRMC,110320.60,A,4445.1705,N,03954.9096,E,000.00000,113.8,230522,,,A*59
$GPGGA,110320.80,4445.1705,N,03954.9096,E,1,25,0.5,00143.2,M,0017.1,M,,*6B
$GLGSA,A,3,068,069,070,074,075,076,084,085,086,,,,1.0,0.5,0.8*1B
$GPGSA,A,3,005,015,016,018,023,025,026,029,031,,,,1.0,0.5,0.8*0A
$GAGSA,A,3,103,108,113,115,121,126,127,,,,,,1.0,0.5,0.8*11
$GPRMC,110320.80,A,4445.1705,N,03954.9096,E,000.00000,113.8,230522,,,A*57
$GPGGA,110321.00,4445.1705,N,03954.9096,E,1,25,0.5,00143.2,M,0017.1,M,,*62
$GLGSA,A,3,068,069,070,074,075,076,084,085,086,,,,1.0,0.5,0.8*1B
$GPGSA,A,3,005,015,016,018,023,025,026,029,031,,,,1.0,0.5,0.8*0A
$GAGSA,A,3,103,108,113,115,121,126,127,,,,,,1.0,0.5,0.8*11
$GPGSV,8,1,31,005,34,053,47,010,04,196,44,013,03,084,,015,09,118,44*76
$GPGSV,8,2,31,016,26,313,48,018,78,279,48,020,08,039,17,023,29,182,49*73
$GPGSV,8,3,31,025,19,168,46,026,48,285,49,029,58,090,48,031,08,240,35*71
$GPGSV,8,4,31,068,16,027,42,069,34,080,49,070,15,144,34,074,17,201,40*77
$GPGSV,8,5,31,075,45,259,51,076,24,325,52,084,41,051,38,085,53,308,54*7C
$GPGSV,8,6,31,086,14,274,30,101,46,292,47,103,13,054,27,108,14,104,33*79
$GPGSV,8,7,31,113,68,037,44,115,17,063,32,121,51,211,47,126,48,262,45*73
$GPGSV,8,8,31,127,11,169,42,131,03,328,,133,02,251,*7B
$GPRMC,110321.00,A,4445.1705,N,03954.9096,E,000.00000,113.8,230522,,,A*5E
$GPZDA,110321.00,23,05,2022,+00,00*4B
$GPGGA,110321.20,4445.1705,N,03954.9096,E,1,25,0.5,00143.2,M,0017.1,M,,*60
$GLGSA,A,3,068,069,070,074,075,076,084,085,086,,,,1.0,0.5,0.8*1B
$GPGSA,A,3,005,015,016,018,023,025,026,029,031,,,,1.0,0.5,0.8*0A
$GAGSA,A,3,103,108,113,115,121,126,127,,,,,,1.0,0.5,0.8*11
$GPRMC,110321.20,A,4445.1705,N,03954.9096,E,000.00000,113.8,230522,,,A*5C
$GPGGA,110321.40,4445.1705,N,03954.9096,E,1,25,0.5,00143.2,M,0017.1,M,,*66
$GLGSA,A,3,068,069,070,074,075,076,084,085,086,,,,1.0,0.5,0.8*1B
$GPGSA,A,3,005,015,016,018,023,025,026,029,031,,,,1.0,0.5,0.8*0A
$GAGSA,A,3,103,108,113,115,121,126,127,,,,,,1.0,0.5,0.8*11
$GPRMC,110321.40,A,4445.1705,N,03954.9096,E,000.00000,113.8,230522,,,A*5A
$GPGGA,110321.60,4445.1705,N,03954.9096,E,1,25,0.5,00143.2,M,0017.1,M,,*64
$GLGSA,A,3,068,069,070,074,075,076,084,085,086,,,,1.0,0.5,0.8*1B
$GPGSA,A,3,005,015,016,018,023,025,026,029,031,,,,1.0,0.5,0.8*0A
$GAGSA,A,3,103,108,113,115,121,126,127,,,,,,1.0,0.5,0.8*11
$GPRMC,110321.60,A,4445.1705,N,03954.9096,E,000.00000,113.8,230522,,,A*58
$GPGGA,110321.80,4445.1705,N,03954.9096,E,1,25,0.5,00143.2,M,0017.1,M,,*6A
$GLGSA,A,3,068,069,070,074,075,076,084,085,086,,,,1.0,0.5,0.8*1B
$GPGSA,A,3,005,015,016,018,023,025,026,029,031,,,,1.0,0.5,0.8*0A
$GAGSA,A,3,103,108,113,115,121,126,127,,,,,,1.0,0.5,0.8*11
$GPRMC,110321.80,A,4445.1705,N,03954.9096,E,000.00000,113.8,230522,,,A*56
$GPGGA,110322.00,4445.1705,N,03954.9096,E,1,24,0.5,00143.2,M,0017.1,M,,*60
$GLGSA,A,3,068,069,070,074,075,076,084,085,086,,,,1.0,0.5,0.9*1A
$GPGSA,A,3,005,015,016,018,023,025,026,029,031,,,,1.0,0.5,0.9*0B
$GAGSA,A,3,108,113,115,121,126,127,,,,,,,1.0,0.5,0.9*22
$GPGSV,8,1,31,005,34,053,46,010,04,196,45,013,03,084,,015,09,118,44*76
$GPGSV,8,2,31,016,26,313,48,018,78,279,48,020,08,039,17,023,29,182,49*73
$GPGSV,8,3,31,025,19,168,46,026,48,285,48,029,58,090,48,031,08,240,34*71
$GPGSV,8,4,31,068,16,027,43,069,35,080,49,070,15,144,35,074,17,201,41*77
$GPGSV,8,5,31,075,45,259,51,076,24,325,52,084,41,051,38,085,53,308,54*7C
$GPGSV,8,6,31,086,14,274,30,101,46,292,47,103,13,054,28,108,14,104,32*77
$GPGSV,8,7,31,113,68,037,44,115,17,063,31,121,51,211,47,126,48,262,45*70
$GPGSV,8,8,31,127,11,169,42,131,03,328,,133,02,251,*7B
$GPRMC,110322.00,A,4445.1705,N,03954.9096,E,000.00000,113.8,230522,,,A*5D
$GPZDA,110322.00,23,05,2022,+00,00*48
$GPGGA,110322.20,4445.1705,N,03954.9096,E,1,25,0.5,00143.2,M,0017.1,M,,*63
$GLGSA,A,3,068,069,070,074,075,076,084,085,086,,,,1.0,0.5,0.8*1B
$GPGSA,A,3,005,015,016,018,023,025,026,029,031,,,,1.0,0.5,0.8*0A
$GAGSA,A,3,103,108,113,115,121,126,127,,,,,,1.0,0.5,0.8*11
$GPRMC,110322.20,A,4445.1705,N,03954.9096,E,000.00000,113.8,230522,,,A*5F
$GPGGA,110322.40,4445.1705,N,03954.9096,E,1,25,0.5,00143.2,M,0017.1,M,,*65
$GLGSA,A,3,068,069,070,074,075,076,084,085,086,,,,1.0,0.5,0.8*1B
$GPGSA,A,3,005,015,016,018,023,025,026,029,031,,,,1.0,0.5,0.8*0A
$GAGSA,A,3,103,108,113,115,121,126,127,,,,,,1.0,0.5,0.8*11
$GPRMC,110322.40,A,4445.1705,N,03954.9096,E,000.00000,113.8,230522,,,A*59
$GPGGA,110322.60,4445.1705,N,03954.9096,E,1,25,0.5,00143.2,M,0017.1,M,,*67
$GLGSA,A,3,068,069,070,074,075,076,084,085,086,,,,1.0,0.5,0.8*1B
$GPGSA,A,3,005,015,016,018,023,025,026,029,031,,,,1.0,0.5,0.8*0A
$GAGSA,A,3,103,108,113,115,121,126,127,,,,,,1.0,0.5,0.8*11
$GPRMC,110322.60,A,4445.1705,N,03954.9096,E,000.00000,113.8,230522,,,A*5B
$GPGGA,110322.80,4445.1705,N,03954.9096,E,1,25,0.5,00143.2,M,0017.1,M,,*69
$GLGSA,A,3,068,069,070,074,075,076,084,085,086,,,,1.0,0.5,0.8*1B
$GPGSA,A,3,005,015,016,018,023,025,026,029,031,,,,1.0,0.5,0.8*0A
$GAGSA,A,3,103,108,113,115,121,126,127,,,,,,1.0,0.5,0.8*11
$GPRMC,110322.80,A,4445.1705,N,03954.9096,E,000.00000,113.8,230522,,,A*55
$GPGGA,110323.00,4445.1705,N,03954.9096,E,1,25,0.5,00143.2,M,0017.1,M,,*60
$GLGSA,A,3,068,069,070,074,075,076,084,085,086,,,,1.0,0.5,0.8*1B
$GPGSA,A,3,005,015,016,018,023,025,026,029,031,,,,1.0,0.5,0.8*0A
$GAGSA,A,3,103,108,113,115,121,126,127,,,,,,1.0,0.5,0.8*11
$GPGSV,8,1,31,005,34,053,45,010,04,196,44,013,03,083,,015,09,118,44*73
$GPGSV,8,2,31,016,26,313,49,018,78,279,48,020,08,039,16,023,29,182,48*72
$GPGSV,8,3,31,025,19,168,46,026,48,285,49,029,58,090,48,031,08,240,34*70
$GPGSV,8,4,31,068,16,027,43,069,35,080,49,070,15,144,34,074,17,201,40*77
$GPGSV,8,5,31,075,45,259,51,076,24,325,52,084,41,051,38,085,53,308,54*7C
$GPGSV,8,6,31,086,14,274,30,101,46,292,47,103,13,054,28,108,14,104,32*77
$GPGSV,8,7,31,113,68,037,44,115,17,063,30,121,51,211,47,126,48,262,45*71
$GPGSV,8,8,31,127,11,169,42,131,03,328,,133,02,251,*7B
$GPRMC,110323.00,A,4445.1705,N,03954.9096,E,000.00000,113.8,230522,,,A*5C
$GPZDA,110323.00,23,05,2022,+00,00*49
$GPGGA,110323.20,4445.1705,N,03954.9096,E,1,25,0.5,00143.2,M,0017.1,M,,*62
$GLGSA,A,3,068,069,070,074,075,076,084,085,086,,,,1.0,0.5,0.8*1B
$GPGSA,A,3,005,015,016,018,023,025,026,029,031,,,,1.0,0.5,0.8*0A
$GAGSA,A,3,103,108,113,115,121,126,127,,,,,,1.0,0.5,0.8*11
$GPRMC,110323.20,A,4445.1705,N,03954.9096,E,000.00000,113.8,230522,,,A*5E
$GPGGA,110323.40,4445.1705,N,03954.9096,E,1,24,0.5,00143.2,M,0017.1,M,,*65
$GLGSA,A,3,068,069,070,074,075,076,084,085,086,,,,1.0,0.5,0.9*1A
$GPGSA,A,3,005,015,016,018,023,025,026,029,031,,,,1.0,0.5,0.9*0B
$GAGSA,A,3,108,113,115,121,126,127,,,,,,,1.0,0.5,0.9*22
$GPRMC,110323.40,A,4445.1705,N,03954.9096,E,000.00000,113.8,230522,,,A*58
$GPGGA,110323.60,4445.1705,N,03954.9096,E,1,25,0.5,00143.2,M,0017.1,M,,*66
$GLGSA,A,3,068,069,070,074,075,076,084,085,086,,,,1.0,0.5,0.8*1B
$GPGSA,A,3,005,015,016,018,023,025,026,029,031,,,,1.0,0.5,0.8*0A
$GAGSA,A,3,103,108,113,115,121,126,127,,,,,,1.0,0.5,0.8*11
$GPRMC,110323.60,A,4445.1705,N,03954.9096,E,000.00000,113.8,230522,,,A*5A
$GPGGA,110323.80,4445.1705,N,03954.9096,E,1,25,0.5,00143.2,M,0017.1,M,,*68
$GLGSA,A,3,068,069,070,074,075,076,084,085,086,,,,1.0,0.5,0.8*1B
$GPGSA,A,3,005,015,016,018,023,025,026,029,031,,,,1.0,0.5,0.8*0A
$GAGSA,A,3,103,108,113,115,121,126,127,,,,,,1.0,0.5,0.8*11
$GPRMC,110323.80,A,4445.1705,N,03954.9096,E,000.00000,113.8,230522,,,A*54
$GPGGA,110324.00,4445.1705,N,03954.9096,E,1,25,0.5,00143.2,M,0017.1,M,,*67
$GLGSA,A,3,068,069,070,074,075,076,084,085,086,,,,1.0,0.5,0.8*1B
$GPGSA,A,3,005,015,016,018,023,025,026,029,031,,,,1.0,0.5,0.8*0A
$GAGSA,A,3,103,108,113,115,121,126,127,,,,,,1.0,0.5,0.8*11
$GPGSV,8,1,31,005,34,053,46,010,04,196,43,013,03,083,,015,09,118,43*70
$GPGSV,8,2,31,016,26,313,49,018,78,279,47,020,08,039,15,023,29,182,47*71
$GPGSV,8,3,31,025,19,168,46,026,48,285,49,029,58,090,48,031,08,240,35*71
$GPGSV,8,4,31,068,16,027,43,069,35,080,49,070,15,144,34,074,17,201,40*77
$GPGSV,8,5,31,075,44,259,52,076,24,325,51,084,41,051,38,085,53,308,54*7D
$GPGSV,8,6,31,086,14,274,30,101,46,292,46,103,13,054,28,108,14,104,34*70
$GPGSV,8,7,31,113,68,037,44,115,17,063,29,121,51,211,47,126,48,262,46*7A
$GPGSV,8,8,31,127,11,169,42,131,03,328,,133,02,251,*7B
$GPRMC,110324.00,A,4445.1705,N,03954.9096,E,000.00000,113.8,230522,,,A*5B
$GPZDA,110324.00,23,05,2022,+00,00*4E
$GPGGA,110324.20,4445.1705,N,03954.9096,E,1,25,0.5,00143.2,M,0017.1,M,,*65
$GLGSA,A,3,068,069,070,074,075,076,084,085,086,,,,1.0,0.5,0.8*1B
$GPGSA,A,3,005,015,016,018,023,025,026,029,031,,,,1.0,0.5,0.8*0A
$GAGSA,A,3,103,108,113,115,121,126,127,,,,,,1.0,0.5,0.8*11
$GPRMC,110324.20,A,4445.1705,N,03954.9096,E,000.00000,113.8,230522,,,A*59
$GPGGA,110324.40,4445.1705,N,03954.9096,E,1,25,0.5,00143.2,M,0017.1,M,,*63
$GLGSA,A,3,068,069,070,074,075,076,084,085,086,,,,1.0,0.5,0.8*1B
$GPGSA,A,3,005,015,016,018,023,025,026,029,031,,,,1.0,0.5,0.8*0A
$GAGSA,A,3,103,108,113,115,121,126,127,,,,,,1.0,0.5,0.8*11
$GPRMC,110324.40,A,4445.1705,N,03954.9096,E,000.00000,113.8,230522,,,A*5F
$GPGGA,110324.60,4445.1705,N,03954.9096,E,1,24,0.5,00143.2,M,0017.1,M,,*60
$GLGSA,A,3,068,069,070,074,075,076,084,085,086,,,,1.0,0.5,0.9*1A
$GPGSA,A,3,005,015,016,018,023,025,026,029,031,,,,1.0,0.5,0.9*0B
$GAGSA,A,3,108,113,115,121,126,127,,,,,,,1.0,0.5,0.9*22
$GPRMC,110324.60,A,4445.1705,N,03954.9096,E,000.00000,113.8,230522,,,A*5D
$GPGGA,110324.80,4445.1705,N,03954.9096,E,1,25,0.5,00143.2,M,0017.1,M,,*6F
$GLGSA,A,3,068,069,070,074,075,076,084,085,086,,,,1.0,0.5,0.8*1B
$GPGSA,A,3,005,015,016,018,023,025,026,029,031,,,,1.0,0.5,0.8*0A
$GAGSA,A,3,103,108,113,115,121,126,127,,,,,,1.0,0.5,0.8*11
$GPRMC,110324.80,A,4445.1705,N,03954.9096,E,000.00000,113.8,230522,,,A*53
$GPGGA,110325.00,4445.1705,N,03954.9096,E,1,25,0.5,00143.2,M,0017.1,M,,*66
$GLGSA,A,3,068,069,070,074,075,076,084,085,086,,,,1.0,0.5,0.8*1B
$GPGSA,A,3,005,015,016,018,023,025,026,029,031,,,,1.0,0.5,0.8*0A
$GAGSA,A,3,103,108,113,115,121,126,127,,,,,,1.0,0.5,0.8*11
$GPGSV,8,1,31,005,34,053,47,010,04,196,44,013,03,083,,015,09,118,44*71
$GPGSV,8,2,31,016,26,313,49,018,78,279,47,020,08,039,17,023,29,182,47*73
$GPGSV,8,3,31,025,19,168,46,026,48,285,49,029,58,090,48,031,08,240,35*71
$GPGSV,8,4,31,068,16,027,42,069,35,080,49,070,15,144,34,074,17,201,41*77
$GPGSV,8,5,31,075,44,259,51,076,24,325,51,084,41,051,38,085,53,308,54*7E
$GPGSV,8,6,31,086,14,274,31,101,46,292,46,103,13,054,28,108,14,104,33*76
$GPGSV,8,7,31,113,68,037,44,115,17,063,28,121,51,211,47,126,48,262,46*7B
$GPGSV,8,8,31,127,11,169,42,131,03,328,,133,02,251,*7B
$GPRMC,110325.00,A,4445.1705,N,03954.9096,E,000.00000,113.8,230522,,,A*5A
$GPZDA,110325.00,23,05,2022,+00,00*4F
$GPGGA,110325.20,4445.1705,N,03954.9096,E,1,25,0.5,00143.2,M,0017.1,M,,*64
$GLGSA,A,3,068,069,070,074,075,076,084,085,086,,,,1.0,0.5,0.8*1B
$GPGSA,A,3,005,015,016,018,023,025,026,029,031,,,,1.0,0.5,0.8*0A
$GAGSA,A,3,103,108,113,115,121,126,127,,,,,,1.0,0.5,0.8*11
$GPRMC,110325.20,A,4445.1705,N,03954.9096,E,000.00000,113.8,230522,,,A*58
$GPGGA,110325.40,4445.1705,N,03954.9096,E,1,25,0.5,00143.2,M,0017.1,M,,*62
$GLGSA,A,3,068,069,070,074,075,076,084,085,086,,,,1.0,0.5,0.8*1B
$GPGSA,A,3,005,015,016,018,023,025,026,029,031,,,,1.0,0.5,0.8*0A
$GAGSA,A,3,103,108,113,115,121,126,127,,,,,,1.0,0.5,0.8*11
$GPRMC,110325.40,A,4445.1705,N,03954.9096,E,000.00000,113.8,230522,,,A*5E
$GPGGA,110325.60,4445.1705,N,03954.9096,E,1,25,0.5,00143.2,M,0017.1,M,,*60
$GLGSA,A,3,068,069,070,074,075,076,084,085,086,,,,1.0,0.5,0.8*1B
$GPGSA,A,3,005,015,016,018,023,025,026,029,031,,,,1.0,0.5,0.8*0A
$GAGSA,A,3,103,108,113,115,121,126,127,,,,,,1.0,0.5,0.8*11
$GPRMC,110325.60,A,4445.1705,N,03954.9096,E,000.00000,113.8,230522,,,A*5C
$GPGGA,110325.80,4445.1705,N,03954.9096,E,1,25,0.5,00143.2,M,0017.1,M,,*6E
$GLGSA,A,3,068,069,070,074,075,076,084,085,086,,,,1.0,0.5,0.8*1B
$GPGSA,A,3,005,015,016,018,023,025,026,029,031,,,,1.0,0.5,0.8*0A
$GAGSA,A,3,103,108,113,115,121,126,127,,,,,,1.0,0.5,0.8*11
$GPRMC,110325.80,A,4445.1705,N,03954.9096,E,000.00000,113.8,230522,,,A*52
$GPGGA,110326.00,4445.1705,N,03954.9096,E,1,25,0.5,00143.2,M,0017.1,M,,*65
$GLGSA,A,3,068,069,070,074,075,076,084,085,086,,,,1.0,0.5,0.8*1B
$GPGSA,A,3,005,015,016,018,023,025,026,029,031,,,,1.0,0.5,0.8*0A
$GAGSA,A,3,103,108,113,115,121,126,127,,,,,,1.0,0.5,0.8*11
$GPGSV,8,1,31,005,34,053,47,010,04,196,44,013,03,083,,015,09,118,44*71
$GPGSV,8,2,31,016,26,313,49,018,78,279,48,020,08,039,18,023,29,182,48*7C
$GPGSV,8,3,31,025,19,168,47,026,48,285,48,029,58,090,48,031,08,240,36*72
$GPGSV,8,4,31,068,16,027,43,069,35,080,49,070,15,144,35,074,17,201,40*76
$GPGSV,8,5,31,075,44,259,51,076,24,325,52,084,41,051,38,085,53,308,54*7D
$GPGSV,8,6,31,086,14,274,30,101,46,292,46,103,13,054,28,108,14,104,33*77
$GPGSV,8,7,31,113,68,037,44,115,17,063,30,121,51,211,47,126,48,262,46*72
$GPGSV,8,8,31,127,11,169,42,131,03,328,,133,02,251,*7B
$GPRMC,110326.00,A,4445.1705,N,03954.9096,E,000.00000,113.8,230522,,,A*59
$GPZDA,110326.00,23,05,2022,+00,00*4C
$GPGGA,110326.20,4445.1705,N,03954.9096,E,1,25,0.5,00143.2,M,0017.1,M,,*67
$GLGSA,A,3,068,069,070,074,075,076,084,085,086,,,,1.0,0.5,0.8*1B
$GPGSA,A,3,005,015,016,018,023,025,026,029,031,,,,1.0,0.5,0.8*0A
$GAGSA,A,3,103,108,113,115,121,126,127,,,,,,1.0,0.5,0.8*11
$GPRMC,110326.20,A,4445.1705,N,03954.9096,E,000.00000,113.8,230522,,,A*5B
$GPGGA,110326.40,4445.1705,N,03954.9096,E,1,25,0.5,00143.2,M,0017.1,M,,*61
$GLGSA,A,3,068,069,070,074,075,076,084,085,086,,,,1.0,0.5,0.8*1B
$GPGSA,A,3,005,015,016,018,023,025,026,029,031,,,,1.0,0.5,0.8*0A
$GAGSA,A,3,103,108,113,115,121,126,127,,,,,,1.0,0.5,0.8*11
$GPRMC,110326.40,A,4445.1705,N,03954.9096,E,000.00000,113.8,230522,,,A*5D
$GPGGA,110326.60,4445.1705,N,03954.9096,E,1,25,0.5,00143.2,M,0017.1,M,,*63
$GLGSA,A,3,068,069,070,074,075,076,084,085,086,,,,1.0,0.5,0.8*1B
$GPGSA,A,3,005,015,016,018,023,025,026,029,031,,,,1.0,0.5,0.8*0A
$GAGSA,A,3,103,108,113,115,121,126,127,,,,,,1.0,0.5,0.8*11
$GPRMC,110326.60,A,4445.1705,N,03954.9096,E,000.00000,113.8,230522,,,A*5F
$GPGGA,110326.80,4445.1705,N,03954.9096,E,1,25,0.5,00143.2,M,0017.1,M,,*6D
$GLGSA,A,3,068,069,070,074,075,076,084,085,086,,,,1.0,0.5,0.8*1B
$GPGSA,A,3,005,015,016,018,023,025,026,029,031,,,,1.0,0.5,0.8*0A
$GAGSA,A,3,103,108,113,115,121,126,127,,,,,,1.0,0.5,0.8*11
$GPRMC,110326.80,A,4445.1705,N,03954.9096,E,000.00000,113.8,230522,,,A*51
$GPGGA,110327.00,4445.1705,N,03954.9096,E,1,25,0.5,00143.2,M,0017.1,M,,*64
$GLGSA,A,3,068,069,070,074,075,076,084,085,086,,,,1.0,0.5,0.8*1B
$GPGSA,A,3,005,015,016,018,023,025,026,029,031,,,,1.0,0.5,0.8*0A
$GAGSA,A,3,103,108,113,115,121,126,127,,,,,,1.0,0.5,0.8*11
$GPGSV,8,1,31,005,34,053,47,010,04,196,44,013,03,083,,015,09,118,44*71
$GPGSV,8,2,31,016,26,313,48,018,78,279,48,020,08,039,16,023,29,182,48*73
$GPGSV,8,3,31,025,19,168,47,026,48,284,48,029,58,090,48,031,08,240,36*73
$GPGSV,8,4,31,068,16,027,43,069,35,080,50,070,15,144,34,074,17,201,40*7F
$GPGSV,8,5,31,075,44,259,51,076,24,325,51,084,41,051,38,085,53,308,54*7E
$GPGSV,8,6,31,086,14,274,30,101,46,292,46,103,13,054,28,108,14,104,34*70
$GPGSV,8,7,31,113,68,037,44,115,17,063,30,121,51,211,47,126,48,262,45*71
$GPGSV,8,8,31,127,11,169,42,131,03,328,,133,02,251,*7B
$GPRMC,110327.00,A,4445.1705,N,03954.9096,E,000.00000,113.8,230522,,,A*58
$GPZDA,110327.00,23,05,2022,+00,00*4D
$GPGGA,110327.20,4445.1705,N,03954.9096,E,1,25,0.5,00143.2,M,0017.1,M,,*66
$GLGSA,A,3,068,069,070,074,075,076,084,085,086,,,,1.0,0.5,0.8*1B
$GPGSA,A,3,005,015,016,018,023,025,026,029,031,,,,1.0,0.5,0.8*0A
$GAGSA,A,3,103,108,113,115,121,126,127,,,,,,1.0,0.5,0.8*11
$GPRMC,110327.20,A,4445.1705,N,03954.9096,E,000.00000,113.8,230522,,,A*5A
$GPGGA,110327.40,4445.1705,N,03954.9096,E,1,25,0.5,00143.2,M,0017.1,M,,*60
$GLGSA,A,3,068,069,070,074,075,076,084,085,086,,,,1.0,0.5,0.8*1B
$GPGSA,A,3,005,015,016,018,023,025,026,029,031,,,,1.0,0.5,0.8*0A
$GAGSA,A,3,103,108,113,115,121,126,127,,,,,,1.0,0.5,0.8*11
$GPRMC,110327.40,A,4445.1705,N,03954.9096,E,000.00000,113.8,230522,,,A*5C
$GPGGA,110327.60,4445.1705,N,03954.9096,E,1,25,0.5,00143.2,M,0017.1,M,,*62
$GLGSA,A,3,068,069,070,074,075,076,084,085,086,,,,1.0,0.5,0.8*1B
$GPGSA,A,3,005,015,016,018,023,025,026,029,031,,,,1.0,0.5,0.8*0A
$GAGSA,A,3,103,108,113,115,121,126,127,,,,,,1.0,0.5,0.8*11
$GPRMC,110327.60,A,4445.1705,N,03954.9096,E,000.00000,114.7,230522,,,A*56
$GPGGA,110327.80,4445.1705,N,03954.9096,E,1,25,0.5,00143.2,M,0017.1,M,,*6C
$GLGSA,A,3,068,069,070,074,075,076,084,085,086,,,,1.0,0.5,0.8*1B
$GPGSA,A,3,005,015,016,018,023,025,026,029,031,,,,1.0,0.5,0.8*0A
$GAGSA,A,3,103,108,113,115,121,126,127,,,,,,1.0,0.5,0.8*11
$GPRMC,110327.80,A,4445.1705,N,03954.9096,E,000.00000,114.3,230522,,,A*5C
$GPGGA,110328.00,4445.1705,N,03954.9096,E,1,25,0.5,00143.2,M,0017.1,M,,*6B
$GLGSA,A,3,068,069,070,074,075,076,084,085,086,,,,1.0,0.5,0.8*1B
$GPGSA,A,3,005,015,016,018,023,025,026,029,031,,,,1.0,0.5,0.8*0A
$GAGSA,A,3,103,108,113,115,121,126,127,,,,,,1.0,0.5,0.8*11
$GPGSV,8,1,31,005,34,053,46,010,04,196,44,013,03,083,,015,09,118,44*70
$GPGSV,8,2,31,016,26,313,48,018,78,279,48,020,08,039,17,023,29,182,48*72
$GPGSV,8,3,31,025,19,168,47,026,48,284,48,029,58,090,48,031,08,240,36*73
$GPGSV,8,4,31,068,16,027,43,069,35,080,50,070,15,144,34,074,17,201,40*7F
$GPGSV,8,5,31,075,44,259,51,076,24,325,51,084,41,051,37,085,53,308,54*71
$GPGSV,8,6,31,086,14,274,28,101,46,292,46,103,13,054,29,108,14,104,33*7F
$GPGSV,8,7,31,113,68,037,44,115,17,063,29,121,51,211,47,126,48,262,45*79
$GPGSV,8,8,31,127,11,169,42,131,03,328,,133,02,251,*7B
$GPRMC,110328.00,A,4445.1705,N,03954.9096,E,000.00000,117.5,230522,,,A*5E
$GPZDA,110328.00,23,05,2022,+00,00*42
$GPGGA,110328.20,4445.1705,N,03954.9096,E,1,25,0.5,00143.2,M,0017.1,M,,*69
$GLGSA,A,3,068,069,070,074,075,076,084,085,086,,,,1.0,0.5,0.8*1B
$GPGSA,A,3,005,015,016,018,023,025,026,029,031,,,,1.0,0.5,0.8*0A
$GAGSA,A,3,103,108,113,115,121,126,127,,,,,,1.0,0.5,0.8*11
$GPRMC,110328.20,A,4445.1705,N,03954.9096,E,000.00000,118.0,230522,,,A*56
$GPGGA,110328.40,4445.1705,N,03954.9096,E,1,25,0.5,00143.2,M,0017.1,M,,*6F
$GLGSA,A,3,068,069,070,074,075,076,084,085,086,,,,1.0,0.5,0.8*1B
$GPGSA,A,3,005,015,016,018,023,025,026,029,031,,,,1.0,0.5,0.8*0A
$GAGSA,A,3,103,108,113,115,121,126,127,,,,,,1.0,0.5,0.8*11
$GPRMC,110328.40,A,4445.1705,N,03954.9096,E,000.00000,121.1,230522,,,A*5B
$GPGGA,110328.60,4445.1705,N,03954.9096,E,1,25,0.5,00143.2,M,0017.1,M,,*6D
$GLGSA,A,3,068,069,070,074,075,076,084,085,086,,,,1.0,0.5,0.8*1B
$GPGSA,A,3,005,015,016,018,023,025,026,029,031,,,,1.0,0.5,0.8*0A
$GAGSA,A,3,103,108,113,115,121,126,127,,,,,,1.0,0.5,0.8*11
$GPRMC,110328.60,A,4445.1705,N,03954.9096,E,000.00000,124.1,230522,,,A*5C
$GPGGA,110328.80,4445.1705,N,03954.9096,E,1,25,0.5,00143.2,M,0017.1,M,,*63
$GLGSA,A,3,068,069,070,074,075,076,084,085,086,,,,1.0,0.5,0.8*1B
$GPGSA,A,3,005,015,016,018,023,025,026,029,031,,,,1.0,0.5,0.8*0A
$GAGSA,A,3,103,108,113,115,121,126,127,,,,,,1.0,0.5,0.8*11
$GPRMC,110328.80,A,4445.1705,N,03954.9096,E,000.00000,124.5,230522,,,A*56
$GPGGA,110329.00,4445.1705,N,03954.9096,E,1,25,0.5,00143.2,M,0017.1,M,,*6A
$GLGSA,A,3,068,069,070,074,075,076,084,085,086,,,,1.0,0.5,0.8*1B
$GPGSA,A,3,005,015,016,018,023,025,026,029,031,,,,1.0,0.5,0.8*0A
$GAGSA,A,3,103,108,113,115,121,126,127,,,,,,1.0,0.5,0.8*11
$GPGSV,8,1,31,005,34,053,46,010,04,196,45,013,03,083,,015,09,118,43*76
$GPGSV,8,2,31,016,26,313,49,018,78,279,48,020,08,039,18,023,29,182,48*7C
$GPGSV,8,3,31,025,19,168,47,026,48,284,48,029,58,090,47,031,08,240,36*7C
$GPGSV,8,4,31,068,16,027,43,069,35,080,50,070,15,144,34,074,17,201,40*7F
$GPGSV,8,5,31,075,44,259,51,076,24,325,51,084,41,051,37,085,53,308,54*71
$GPGSV,8,6,31,086,14,274,28,101,46,292,46,103,13,054,29,108,14,104,32*7E
$GPGSV,8,7,31,113,68,037,44,115,17,063,27,121,51,211,47,126,48,262,45*77
$GPGSV,8,8,31,127,11,169,42,131,03,328,,133,02,251,*7B
$GPRMC,110329.00,A,4445.1705,N,03954.9096,E,000.00000,126.3,230522,,,A*5B
$GPZDA,110329.00,23,05,2022,+00,00*43
$GPGGA,110329.20,4445.1705,N,03954.9096,E,1,25,0.5,00143.2,M,0017.1,M,,*68
$GLGSA,A,3,068,069,070,074,075,076,084,085,086,,,,1.0,0.5,0.8*1B
$GPGSA,A,3,005,015,016,018,023,025,026,029,031,,,,1.0,0.5,0.8*0A
$GAGSA,A,3,103,108,113,115,121,126,127,,,,,,1.0,0.5,0.8*11
$GPRMC,110329.20,A,4445.1705,N,03954.9096,E,000.00000,135.9,230522,,,A*51
$GPGGA,110329.40,4445.1705,N,03954.9096,E,1,25,0.5,00143.2,M,0017.1,M,,*6E
$GLGSA,A,3,068,069,070,074,075,076,084,085,086,,,,1.0,0.5,0.8*1B
$GPGSA,A,3,005,015,016,018,023,025,026,029,031,,,,1.0,0.5,0.8*0A
$GAGSA,A,3,103,108,113,115,121,126,127,,,,,,1.0,0.5,0.8*11
$GPRMC,110329.40,A,4445.1705,N,03954.9096,E,000.00000,132.7,230522,,,A*5E
$GPGGA,110329.60,4445.1705,N,03954.9096,E,1,25,0.5,00143.2,M,0017.1,M,,*6C
$GLGSA,A,3,068,069,070,074,075,076,084,085,086,,,,1.0,0.5,0.8*1B
$GPGSA,A,3,005,015,016,018,023,025,026,029,031,,,,1.0,0.5,0.8*0A
$GAGSA,A,3,103,108,113,115,121,126,127,,,,,,1.0,0.5,0.8*11
$GPRMC,110329.60,A,4445.1705,N,03954.9096,E,000.00000,124.7,230522,,,A*5B
$GPGGA,110329.80,4445.1705,N,03954.9096,E,1,25,0.5,00143.2,M,0017.1,M,,*62
$GLGSA,A,3,068,069,070,074,075,076,084,085,086,,,,1.0,0.5,0.8*1B
$GPGSA,A,3,005,015,016,018,023,025,026,029,031,,,,1.0,0.5,0.8*0A
$GAGSA,A,3,103,108,113,115,121,126,127,,,,,,1.0,0.5,0.8*11
$GPRMC,110329.80,A,4445.1705,N,03954.9096,E,000.00000,119.7,230522,,,A*5B
$GPGGA,110330.00,4445.1705,N,03954.9096,E,1,25,0.5,00143.2,M,0017.1,M,,*62
$GLGSA,A,3,068,069,070,074,075,076,084,085,086,,,,1.0,0.5,0.8*1B
$GPGSA,A,3,005,015,016,018,023,025,026,029,031,,,,1.0,0.5,0.8*0A
$GAGSA,A,3,103,108,113,115,121,126,127,,,,,,1.0,0.5,0.8*11
$GPGSV,8,1,31,005,34,053,46,010,04,196,45,013,03,083,,015,09,118,43*76
$GPGSV,8,2,31,016,26,313,49,018,78,279,48,020,08,039,17,023,29,182,48*73
$GPGSV,8,3,31,025,19,168,47,026,48,284,48,029,58,090,47,031,08,240,36*7C
$GPGSV,8,4,31,068,16,027,42,069,35,080,50,070,15,144,33,074,17,201,40*79
$GPGSV,8,5,31,075,44,259,51,076,24,325,51,084,41,051,37,085,53,308,54*71
$GPGSV,8,6,31,086,14,274,29,101,46,292,46,103,13,054,29,108,14,104,33*7E
$GPGSV,8,7,31,113,68,037,44,115,17,063,28,121,51,211,47,126,48,262,45*78
$GPGSV,8,8,31,127,11,169,42,131,03,328,,133,02,251,*7B
$GPRMC,110330.00,A,4445.1705,N,03954.9096,E,000.00000,117.1,230522,,,A*53
$GPZDA,110330.00,23,05,2022,+00,00*4B
$GPGGA,110330.20,4445.1705,N,03954.9096,E,1,25,0.5,00143.2,M,0017.1,M,,*60
$GLGSA,A,3,068,069,070,074,075,076,084,085,086,,,,1.0,0.5,0.8*1B
$GPGSA,A,3,005,015,016,018,023,025,026,029,031,,,,1.0,0.5,0.8*0A
$GAGSA,A,3,103,108,113,115,121,126,127,,,,,,1.0,0.5,0.8*11
$GPRMC,110330.20,A,4445.1705,N,03954.9096,E,000.00000,116.1,230522,,,A*50
$GPGGA,110330.40,4445.1705,N,03954.9096,E,1,25,0.5,00143.2,M,0017.1,M,,*66
$GLGSA,A,3,068,069,070,074,075,076,084,085,086,,,,1.0,0.5,0.8*1B
$GPGSA,A,3,005,015,016,018,023,025,026,029,031,,,,1.0,0.5,0.8*0A
$GAGSA,A,3,103,108,113,115,121,126,127,,,,,,1.0,0.5,0.8*11
$GPRMC,110330.40,A,4445.1705,N,03954.9096,E,000.00000,115.1,230522,,,A*55
$GPGGA,110330.60,4445.1705,N,03954.9096,E,1,25,0.5,00143.2,M,0017.1,M,,*64
$GLGSA,A,3,068,069,070,074,075,076,084,085,086,,,,1.0,0.5,0.8*1B
$GPGSA,A,3,005,015,016,018,023,025,026,029,031,,,,1.0,0.5,0.8*0A
$GAGSA,A,3,103,108,113,115,121,126,127,,,,,,1.0,0.5,0.8*11
$GPRMC,110330.60,A,4445.1705,N,03954.9096,E,000.00000,114.5,230522,,,A*52
$GPGGA,110330.80,4445.1705,N,03954.9096,E,1,25,0.5,00143.2,M,0017.1,M,,*6A
$GLGSA,A,3,068,069,070,074,075,076,084,085,086,,,,1.0,0.5,0.8*1B
$GPGSA,A,3,005,015,016,018,023,025,026,029,031,,,,1.0,0.5,0.8*0A
$GAGSA,A,3,103,108,113,115,121,126,127,,,,,,1.0,0.5,0.8*11
$GPRMC,110330.80,A,4445.1705,N,03954.9096,E,000.00000,114.2,230522,,,A*5B
$GPGGA,110331.00,4445.1705,N,03954.9096,E,1,25,0.5,00143.2,M,0017.1,M,,*63
$GLGSA,A,3,068,069,070,074,075,076,084,085,086,,,,1.0,0.5,0.8*1B
$GPGSA,A,3,005,015,016,018,023,025,026,029,031,,,,1.0,0.5,0.8*0A
$GAGSA,A,3,103,108,113,115,121,126,127,,,,,,1.0,0.5,0.8*11
$GPGSV,8,1,31,005,34,053,46,010,04,196,45,013,03,083,,015,09,118,43*76
$GPGSV,8,2,31,016,26,313,49,018,78,279,48,020,08,039,18,023,29,182,48*7C
$GPGSV,8,3,31,025,19,168,46,026,48,284,48,029,58,090,47,031,08,240,36*7D
$GPGSV,8,4,31,068,16,027,43,069,35,080,50,070,15,144,33,074,17,201,40*78
$GPGSV,8,5,31,075,44,259,52,076,24,325,51,084,41,051,37,085,53,308,53*75
$GPGSV,8,6,31,086,14,274,30,101,46,292,46,103,13,054,28,108,14,104,33*77
$GPGSV,8,7,31,113,68,037,44,115,17,063,30,121,51,211,47,126,48,262,45*71
$GPGSV,8,8,31,127,11,169,42,131,03,328,,133,02,251,*7B
$GPRMC,110331.00,A,4445.1705,N,03954.9096,E,000.00000,114.0,230522,,,A*50
$GPZDA,110331.00,23,05,2022,+00,00*4A
$GPGGA,110331.20,4445.1705,N,03954.9096,E,1,25,0.5,00143.2,M,0017.1,M,,*61
$GLGSA,A,3,068,069,070,074,075,076,084,085,086,,,,1.0,0.5,0.8*1B
$GPGSA,A,3,005,015,016,018,023,025,026,029,031,,,,1.0,0.5,0.8*0A
$GAGSA,A,3,103,108,113,115,121,126,127,,,,,,1.0,0.5,0.8*11
$GPRMC,110331.20,A,4445.1705,N,03954.9096,E,000.00000,113.9,230522,,,A*5C
$GPGGA,110331.40,4445.1705,N,03954.9096,E,1,25,0.5,00143.2,M,0017.1,M,,*67
$GLGSA,A,3,068,069,070,074,075,076,084,085,086,,,,1.0,0.5,0.8*1B
$GPGSA,A,3,005,015,016,018,023,025,026,029,031,,,,1.0,0.5,0.8*0A
$GAGSA,A,3,103,108,113,115,121,126,127,,,,,,1.0,0.5,0.8*11
$GPRMC,110331.40,A,4445.1705,N,03954.9096,E,000.00000,113.9,230522,,,A*5A
$GPGGA,110331.60,4445.1705,N,03954.9096,E,1,25,0.5,00143.2,M,0017.1,M,,*65
$GLGSA,A,3,068,069,070,074,075,076,084,085,086,,,,1.0,0.5,0.8*1B
$GPGSA,A,3,005,015,016,018,023,025,026,029,031,,,,1.0,0.5,0.8*0A
$GAGSA,A,3,103,108,113,115,121,126,127,,,,,,1.0,0.5,0.8*11
$GPRMC,110331.60,A,4445.1705,N,03954.9096,E,000.00000,113.9,230522,,,A*58
$GPGGA,110331.80,4445.1705,N,03954.9096,E,1,25,0.5,00143.2,M,0017.1,M,,*6B
$GLGSA,A,3,068,069,070,074,075,076,084,085,086,,,,1.0,0.5,0.8*1B
$GPGSA,A,3,005,015,016,018,023,025,026,029,031,,,,1.0,0.5,0.8*0A
$GAGSA,A,3,103,108,113,115,121,126,127,,,,,,1.0,0.5,0.8*11
$GPRMC,110331.80,A,4445.1705,N,03954.9096,E,000.00000,113.8,230522,,,A*57
$GPGGA,110332.00,4445.1705,N,03954.9096,E,1,24,0.5,00143.2,M,0017.1,M,,*61
$GLGSA,A,3,068,069,070,074,075,076,084,085,086,,,,1.0,0.5,0.9*1A
$GPGSA,A,3,005,015,016,018,023,025,026,029,031,,,,1.0,0.5,0.9*0B
$GAGSA,A,3,108,113,115,121,126,127,,,,,,,1.0,0.5,0.9*22
$GPGSV,8,1,31,005,34,053,46,010,04,196,45,013,03,083,,015,09,118,43*76
$GPGSV,8,2,31,016,26,313,49,018,78,279,48,020,08,039,17,023,29,182,49*72
$GPGSV,8,3,31,025,19,168,46,026,48,284,48,029,58,090,47,031,08,240,36*7D
$GPGSV,8,4,31,068,16,027,43,069,35,080,50,070,15,144,33,074,17,201,41*79
$GPGSV,8,5,31,075,44,259,52,076,24,325,50,084,41,052,38,085,53,308,53*78
$GPGSV,8,6,31,086,14,274,31,101,46,292,46,103,13,054,28,108,14,104,34*71
$GPGSV,8,7,31,113,68,037,44,115,17,063,30,121,51,211,47,126,48,262,46*72
$GPGSV,8,8,31,127,11,169,41,131,03,328,,133,02,251,*78
$GPRMC,110332.00,A,4445.1705,N,03954.9096,E,000.00000,113.8,230522,,,A*5C
$GPZDA,110332.00,23,05,2022,+00,00*49
$GPGGA,110332.20,4445.1705,N,03954.9096,E,1,25,0.5,00143.2,M,0017.1,M,,*62
$GLGSA,A,3,068,069,070,074,075,076,084,085,086,,,,1.0,0.5,0.8*1B
$GPGSA,A,3,005,015,016,018,023,025,026,029,031,,,,1.0,0.5,0.8*0A
$GAGSA,A,3,103,108,113,115,121,126,127,,,,,,1.0,0.5,0.8*11
$GPRMC,110332.20,A,4445.1705,N,03954.9096,E,000.00000,113.8,230522,,,A*5E
$GPGGA,110332.40,4445.1705,N,03954.9096,E,1,25,0.5,00143.2,M,0017.1,M,,*64
$GLGSA,A,3,068,069,070,074,075,076,084,085,086,,,,1.0,0.5,0.8*1B
$GPGSA,A,3,005,015,016,018,023,025,026,029,031,,,,1.0,0.5,0.8*0A
$GAGSA,A,3,103,108,113,115,121,126,127,,,,,,1.0,0.5,0.8*11
$GPRMC,110332.40,A,4445.1705,N,03954.9096,E,000.00000,113.8,230522,,,A*58
$GPGGA,110332.60,4445.1705,N,03954.9096,E,1,25,0.5,00143.2,M,0017.1,M,,*66
$GLGSA,A,3,068,069,070,074,075,076,084,085,086,,,,1.0,0.5,0.8*1B
$GPGSA,A,3,005,015,016,018,023,025,026,029,031,,,,1.0,0.5,0.8*0A
$GAGSA,A,3,103,108,113,115,121,126,127,,,,,,1.0,0.5,0.8*11
$GPRMC,110332.60,A,4445.1705,N,03954.9096,E,000.00000,113.8,230522,,,A*5A
$GPGGA,110332.80,4445.1705,N,03954.9096,E,1,25,0.5,00143.2,M,0017.1,M,,*68
$GLGSA,A,3,068,069,070,074,075,076,084,085,086,,,,1.0,0.5,0.8*1B
$GPGSA,A,3,005,015,016,018,023,025,026,029,031,,,,1.0,0.5,0.8*0A
$GAGSA,A,3,103,108,113,115,121,126,127,,,,,,1.0,0.5,0.8*11
$GPRMC,110332.80,A,4445.1705,N,03954.9096,E,000.00000,113.8,230522,,,A*54
$GPGGA,110333.00,4445.1705,N,03954.9096,E,1,25,0.5,00143.2,M,0017.1,M,,*61
$GLGSA,A,3,068,069,070,074,075,076,084,085,086,,,,1.0,0.5,0.8*1B
$GPGSA,A,3,005,015,016,018,023,025,026,029,031,,,,1.0,0.5,0.8*0A
$GAGSA,A,3,103,108,113,115,121,126,127,,,,,,1.0,0.5,0.8*11
$GPGSV,8,1,31,005,34,053,47,010,04,196,44,013,03,083,,015,09,118,43*76
$GPGSV,8,2,31,016,26,313,49,018,78,279,48,020,08,039,18,023,29,182,49*7D
$GPGSV,8,3,31,025,19,168,46,026,48,284,49,029,58,090,47,031,08,240,37*7D
$GPGSV,8,4,31,068,16,027,43,069,35,080,50,070,15,144,32,074,17,201,41*78
$GPGSV,8,5,31,075,44,259,51,076,24,325,51,084,41,052,38,085,53,308,53*7A
$GPGSV,8,6,31,086,14,274,31,101,46,292,46,103,13,054,28,108,14,104,34*71
$GPGSV,8,7,31,113,68,037,44,115,17,063,30,121,51,211,47,126,48,262,45*71
$GPGSV,8,8,31,127,11,169,41,131,03,328,,133,02,251,*78
$GPRMC,110333.00,A,4445.1705,N,03954.9096,E,000.00000,115.9,230522,,,A*5A
$GPZDA,110333.00,23,05,2022,+00,00*48
$GPGGA,110333.20,4445.1705,N,03954.9096,E,1,25,0.5,00143.2,M,0017.1,M,,*63
$GLGSA,A,3,068,069,070,074,075,076,084,085,086,,,,1.0,0.5,0.8*1B
$GPGSA,A,3,005,015,016,018,023,025,026,029,031,,,,1.0,0.5,0.8*0A
$GAGSA,A,3,103,108,113,115,121,126,127,,,,,,1.0,0.5,0.8*11
$GPRMC,110333.20,A,4445.1705,N,03954.9096,E,000.00000,115.0,230522,,,A*51
$GPGGA,110333.40,4445.1705,N,03954.9096,E,1,25,0.5,00143.2,M,0017.1,M,,*65
$GLGSA,A,3,068,069,070,074,075,076,084,085,086,,,,1.0,0.5,0.8*1B
$GPGSA,A,3,005,015,016,018,023,025,026,029,031,,,,1.0,0.5,0.8*0A
$GAGSA,A,3,103,108,113,115,121,126,127,,,,,,1.0,0.5,0.8*11
$GPRMC,110333.40,A,4445.1705,N,03954.9096,E,000.00000,114.5,230522,,,A*53
$GPGGA,110333.60,4445.1705,N,03954.9096,E,1,25,0.5,00143.2,M,0017.1,M,,*67
$GLGSA,A,3,068,069,070,074,075,076,084,085,086,,,,1.0,0.5,0.8*1B
$GPGSA,A,3,005,015,016,018,023,025,026,029,031,,,,1.0,0.5,0.8*0A
$GAGSA,A,3,103,108,113,115,121,126,127,,,,,,1.0,0.5,0.8*11
$GPRMC,110333.60,A,4445.1705,N,03954.9096,E,000.00000,114.2,230522,,,A*56
$GPGGA,110333.80,4445.1705,N,03954.9096,E,1,25,0.5,00143.2,M,0017.1,M,,*69
$GLGSA,A,3,068,069,070,074,075,076,084,085,086,,,,1.0,0.5,0.8*1B
$GPGSA,A,3,005,015,016,018,023,025,026,029,031,,,,1.0,0.5,0.8*0A
$GAGSA,A,3,103,108,113,115,121,126,127,,,,,,1.0,0.5,0.8*11
$GPRMC,110333.80,A,4445.1705,N,03954.9096,E,000.00000,114.0,230522,,,A*5A
$GPGGA,110334.00,4445.1705,N,03954.9096,E,1,25,0.5,00143.2,M,0017.1,M,,*66
$GLGSA,A,3,068,069,070,074,075,076,084,085,086,,,,1.0,0.5,0.8*1B
$GPGSA,A,3,005,015,016,018,023,025,026,029,031,,,,1.0,0.5,0.8*0A
$GAGSA,A,3,103,108,113,115,121,126,127,,,,,,1.0,0.5,0.8*11
$GPGSV,8,1,31,005,34,053,46,010,04,196,45,013,03,083,,015,09,118,42*77
$GPGSV,8,2,31,016,26,313,49,018,78,279,48,020,08,039,16,023,29,182,49*73
$GPGSV,8,3,31,025,19,168,46,026,48,284,49,029,58,090,47,031,08,240,37*7D
$GPGSV,8,4,31,068,16,027,43,069,35,080,49,070,15,144,33,074,17,201,40*70
$GPGSV,8,5,31,075,44,259,51,076,24,325,51,084,41,052,37,085,53,308,53*75
$GPGSV,8,6,31,086,14,274,31,101,46,292,46,103,13,054,29,108,14,104,34*70
$GPGSV,8,7,31,113,68,037,44,115,17,063,30,121,51,211,48,126,48,262,45*7E
$GPGSV,8,8,31,127,11,169,41,131,03,328,,133,02,251,*78
$GPRMC,110334.00,A,4445.1705,N,03954.9096,E,000.00000,113.9,230522,,,A*5B
$GPZDA,110334.00,23,05,2022,+00,00*4F
$GPGGA,110334.20,4445.1705,N,03954.9096,E,1,25,0.5,00143.2,M,0017.1,M,,*64
$GLGSA,A,3,068,069,070,074,075,076,084,085,086,,,,1.0,0.5,0.8*1B
$GPGSA,A,3,005,015,016,018,023,025,026,029,031,,,,1.0,0.5,0.8*0A
$GAGSA,A,3,103,108,113,115,121,126,127,,,,,,1.0,0.5,0.8*11
$GPRMC,110334.20,A,4445.1705,N,03954.9096,E,000.00000,113.9,230522,,,A*59
$GPGGA,110334.40,4445.1705,N,03954.9096,E,1,25,0.5,00143.2,M,0017.1,M,,*62
$GLGSA,A,3,068,069,070,074,075,076,084,085,086,,,,1.0,0.5,0.8*1B
$GPGSA,A,3,005,015,016,018,023,025,026,029,031,,,,1.0,0.5,0.8*0A
$GAGSA,A,3,103,108,113,115,121,126,127,,,,,,1.0,0.5,0.8*11
$GPRMC,110334.40,A,4445.1705,N,03954.9096,E,000.00000,113.9,230522,,,A*5F
$GPGGA,110334.60,4445.1705,N,03954.9096,E,1,25,0.5,00143.2,M,0017.1,M,,*60
$GLGSA,A,3,068,069,070,074,075,076,084,085,086,,,,1.0,0.5,0.8*1B
$GPGSA,A,3,005,015,016,018,023,025,026,029,031,,,,1.0,0.5,0.8*0A
$GAGSA,A,3,103,108,113,115,121,126,127,,,,,,1.0,0.5,0.8*11
$GPRMC,110334.60,A,4445.1705,N,03954.9096,E,000.00000,113.8,230522,,,A*5C
$GPGGA,110334.80,4445.1705,N,03954.9096,E,1,25,0.5,00143.2,M,0017.1,M,,*6E
$GLGSA,A,3,068,069,070,074,075,076,084,085,086,,,,1.0,0.5,0.8*1B
$GPGSA,A,3,005,015,016,018,023,025,026,029,031,,,,1.0,0.5,0.8*0A
$GAGSA,A,3,103,108,113,115,121,126,127,,,,,,1.0,0.5,0.8*11
$GPRMC,110334.80,A,4445.1705,N,03954.9096,E,000.00000,113.8,230522,,,A*52
$GPGGA,110335.00,4445.1705,N,03954.9096,E,1,25,0.5,00143.2,M,0017.1,M,,*67
$GLGSA,A,3,068,069,070,074,075,076,084,085,086,,,,1.0,0.5,0.8*1B
$GPGSA,A,3,005,015,016,018,023,025,026,029,031,,,,1.0,0.5,0.8*0A
$GAGSA,A,3,103,108,113,115,121,126,127,,,,,,1.0,0.5,0.8*11
$GPGSV,8,1,31,005,34,053,46,010,04,196,45,013,03,083,,015,09,118,42*77
$GPGSV,8,2,31,016,26,313,49,018,78,279,48,020,08,039,18,023,29,182,49*7D
$GPGSV,8,3,31,025,19,168,46,026,48,284,49,029,58,090,47,031,08,240,37*7D
$GPGSV,8,4,31,068,16,027,43,069,35,080,50,070,15,144,33,074,17,201,40*78
$GPGSV,8,5,31,075,44,258,51,076,24,325,51,084,41,052,37,085,53,308,53*74
$GPGSV,8,6,31,086,14,274,30,101,46,292,46,103,13,054,29,108,14,104,34*71
$GPGSV,8,7,31,113,68,037,44,115,17,063,29,121,51,211,48,126,48,262,45*76
$GPGSV,8,8,31,127,11,169,41,131,03,328,,133,02,251,*78
$GPRMC,110335.00,A,4445.1705,N,03954.9096,E,000.00000,113.8,230522,,,A*5B
$GPZDA,110335.00,23,05,2022,+00,00*4E
$GPGGA,110335.20,4445.1705,N,03954.9096,E,1,25,0.5,00143.2,M,0017.1,M,,*65
$GLGSA,A,3,068,069,070,074,075,076,084,085,086,,,,1.0,0.5,0.8*1B
$GPGSA,A,3,005,015,016,018,023,025,026,029,031,,,,1.0,0.5,0.8*0A
$GAGSA,A,3,103,108,113,115,121,126,127,,,,,,1.0,0.5,0.8*11
$GPRMC,110335.20,A,4445.1705,N,03954.9096,E,000.00000,113.8,230522,,,A*59
$GPGGA,110335.40,4445.1705,N,03954.9096,E,1,25,0.5,00143.2,M,0017.1,M,,*63
$GLGSA,A,3,068,069,070,074,075,076,084,085,086,,,,1.0,0.5,0.8*1B
$GPGSA,A,3,005,015,016,018,023,025,026,029,031,,,,1.0,0.5,0.8*0A
$GAGSA,A,3,103,108,113,115,121,126,127,,,,,,1.0,0.5,0.8*11
$GPRMC,110335.40,A,4445.1705,N,03954.9096,E,000.00000,113.8,230522,,,A*5F
$GPGGA,110335.60,4445.1705,N,03954.9096,E,1,25,0.5,00143.2,M,0017.1,M,,*61
$GLGSA,A,3,068,069,070,074,075,076,084,085,086,,,,1.0,0.5,0.8*1B
$GPGSA,A,3,005,015,016,018,023,025,026,029,031,,,,1.0,0.5,0.8*0A
$GAGSA,A,3,103,108,113,115,121,126,127,,,,,,1.0,0.5,0.8*11
$GPRMC,110335.60,A,4445.1705,N,03954.9096,E,000.00000,113.8,230522,,,A*5D
$GPGGA,110335.80,4445.1705,N,03954.9096,E,1,25,0.5,00143.2,M,0017.1,M,,*6F
$GLGSA,A,3,068,069,070,074,075,076,084,085,086,,,,1.0,0.5,0.8*1B
$GPGSA,A,3,005,015,016,018,023,025,026,029,031,,,,1.0,0.5,0.8*0A
$GAGSA,A,3,103,108,113,115,121,126,127,,,,,,1.0,0.5,0.8*11
$GPRMC,110335.80,A,4445.1705,N,03954.9096,E,000.00000,113.8,230522,,,A*53
$GPGGA,110336.00,4445.1705,N,03954.9096,E,1,25,0.5,00143.2,M,0017.1,M,,*64
$GLGSA,A,3,068,069,070,074,075,076,084,085,086,,,,1.0,0.5,0.8*1B
$GPGSA,A,3,005,015,016,018,023,025,026,029,031,,,,1.0,0.5,0.8*0A
$GAGSA,A,3,103,108,113,115,121,126,127,,,,,,1.0,0.5,0.8*11
$GPGSV,8,1,31,005,34,053,47,010,04,196,45,013,03,083,,015,10,118,42*7E
$GPGSV,8,2,31,016,26,313,49,018,78,280,49,020,08,039,18,023,29,182,50*72
$GPGSV,8,3,31,025,19,168,45,026,48,284,49,029,58,090,47,031,08,240,38*71
$GPGSV,8,4,31,068,16,027,43,069,35,080,50,070,15,144,33,074,17,201,39*76
$GPGSV,8,5,31,075,44,258,51,076,24,325,50,084,41,052,37,085,53,308,53*75
$GPGSV,8,6,31,086,14,274,30,101,46,292,46,103,13,054,29,108,14,104,34*71
$GPGSV,8,7,31,113,68,037,43,115,17,063,30,121,51,211,48,126,48,262,45*79
$GPGSV,8,8,31,127,11,169,41,131,03,328,,133,02,251,*78
$GPRMC,110336.00,A,4445.1705,N,03954.9096,E,000.00000,113.8,230522,,,A*58
$GPZDA,110336.00,23,05,2022,+00,00*4D
$GPGGA,110336.20,4445.1705,N,03954.9096,E,1,25,0.5,00143.2,M,0017.1,M,,*66
$GLGSA,A,3,068,069,070,074,075,076,084,085,086,,,,1.0,0.5,0.8*1B
$GPGSA,A,3,005,015,016,018,023,025,026,029,031,,,,1.0,0.5,0.8*0A
$GAGSA,A,3,103,108,113,115,121,126,127,,,,,,1.0,0.5,0.8*11
$GPRMC,110336.20,A,4445.1705,N,03954.9096,E,000.00000,113.8,230522,,,A*5A
$GPGGA,110336.40,4445.1705,N,03954.9096,E,1,25,0.5,00143.2,M,0017.1,M,,*60
$GLGSA,A,3,068,069,070,074,075,076,084,085,086,,,,1.0,0.5,0.8*1B
$GPGSA,A,3,005,015,016,018,023,025,026,029,031,,,,1.0,0.5,0.8*0A
$GAGSA,A,3,103,108,113,115,121,126,127,,,,,,1.0,0.5,0.8*11
$GPRMC,110336.40,A,4445.1705,N,03954.9096,E,000.00000,113.8,230522,,,A*5C
$GPGGA,110336.60,4445.1705,N,03954.9096,E,1,25,0.5,00143.2,M,0017.1,M,,*62
$GLGSA,A,3,068,069,070,074,075,076,084,085,086,,,,1.0,0.5,0.8*1B
$GPGSA,A,3,005,015,016,018,023,025,026,029,031,,,,1.0,0.5,0.8*0A
$GAGSA,A,3,103,108,113,115,121,126,127,,,,,,1.0,0.5,0.8*11
$GPRMC,110336.60,A,4445.1705,N,03954.9096,E,000.00000,113.8,230522,,,A*5E
$GPGGA,110336.80,4445.1705,N,03954.9096,E,1,25,0.5,00143.2,M,0017.1,M,,*6C
$GLGSA,A,3,068,069,070,074,075,076,084,085,086,,,,1.0,0.5,0.8*1B
$GPGSA,A,3,005,015,016,018,023,025,026,029,031,,,,1.0,0.5,0.8*0A
$GAGSA,A,3,103,108,113,115,121,126,127,,,,,,1.0,0.5,0.8*11
$GPRMC,110336.80,A,4445.1705,N,03954.9096,E,000.00000,113.8,230522,,,A*50
$GPGGA,110337.00,4445.1705,N,03954.9096,E,1,25,0.5,00143.2,M,0017.1,M,,*65
$GLGSA,A,3,068,069,070,074,075,076,084,085,086,,,,1.0,0.5,0.8*1B
$GPGSA,A,3,005,015,016,018,023,025,026,029,031,,,,1.0,0.5,0.8*0A
$GAGSA,A,3,103,108,113,115,121,126,127,,,,,,1.0,0.5,0.8*11
$GPGSV,8,1,31,005,34,053,46,010,04,196,44,013,03,083,,015,10,118,42*7E
$GPGSV,8,2,31,016,26,313,48,018,78,280,49,020,08,039,19,023,29,182,50*72
$GPGSV,8,3,31,025,19,168,46,026,48,284,49,029,58,090,47,031,08,240,38*72
$GPGSV,8,4,31,068,16,027,42,069,35,080,50,070,15,144,33,074,17,201,39*77
$GPGSV,8,5,31,075,44,258,51,076,24,325,50,084,41,052,38,085,53,308,53*7A
$GPGSV,8,6,31,086,14,274,30,101,46,292,46,103,13,054,28,108,14,104,33*77
$GPGSV,8,7,31,113,68,037,43,115,17,063,31,121,51,211,48,126,48,262,45*78
$GPGSV,8,8,31,127,11,169,41,131,03,328,,133,02,251,*78
$GPRMC,110337.00,A,4445.1705,N,03954.9096,E,000.00000,113.8,230522,,,A*59
$GPZDA,110337.00,23,05,2022,+00,00*4C
$GPGGA,110337.20,4445.1705,N,03954.9096,E,1,25,0.5,00143.2,M,0017.1,M,,*67
$GLGSA,A,3,068,069,070,074,075,076,084,085,086,,,,1.0,0.5,0.8*1B
$GPGSA,A,3,005,015,016,018,023,025,026,029,031,,,,1.0,0.5,0.8*0A
$GAGSA,A,3,103,108,113,115,121,126,127,,,,,,1.0,0.5,0.8*11
$GPRMC,110337.20,A,4445.1705,N,03954.9096,E,000.00000,113.8,230522,,,A*5B
$GPGGA,110337.40,4445.1705,N,03954.9096,E,1,25,0.5,00143.2,M,0017.1,M,,*61
$GLGSA,A,3,068,069,070,074,075,076,084,085,086,,,,1.0,0.5,0.8*1B
$GPGSA,A,3,005,015,016,018,023,025,026,029,031,,,,1.0,0.5,0.8*0A
$GAGSA,A,3,103,108,113,115,121,126,127,,,,,,1.0,0.5,0.8*11
$GPRMC,110337.40,A,4445.1705,N,03954.9096,E,000.00000,113.8,230522,,,A*5D
$GPGGA,110337.60,4445.1705,N,03954.9096,E,1,25,0.5,00143.2,M,0017.1,M,,*63
$GLGSA,A,3,068,069,070,074,075,076,084,085,086,,,,1.0,0.5,0.8*1B
$GPGSA,A,3,005,015,016,018,023,025,026,029,031,,,,1.0,0.5,0.8*0A
$GAGSA,A,3,103,108,113,115,121,126,127,,,,,,1.0,0.5,0.8*11
$GPRMC,110337.60,A,4445.1705,N,03954.9096,E,000.00000,113.8,230522,,,A*5F
$GPGGA,110337.80,4445.1705,N,03954.9096,E,1,25,0.5,00143.2,M,0017.1,M,,*6D
$GLGSA,A,3,068,069,070,074,075,076,084,085,086,,,,1.0,0.5,0.8*1B
$GPGSA,A,3,005,015,016,018,023,025,026,029,031,,,,1.0,0.5,0.8*0A
$GAGSA,A,3,103,108,113,115,121,126,127,,,,,,1.0,0.5,0.8*11
$GPRMC,110337.80,A,4445.1705,N,03954.9096,E,000.00000,113.8,230522,,,A*51
$GPGGA,110338.00,4445.1705,N,03954.9096,E,1,25,0.5,00143.2,M,0017.1,M,,*6A
$GLGSA,A,3,068,069,070,074,075,076,084,085,086,,,,1.0,0.5,0.8*1B
$GPGSA,A,3,005,015,016,018,023,025,026,029,031,,,,1.0,0.5,0.8*0A
$GAGSA,A,3,103,108,113,115,121,126,127,,,,,,1.0,0.5,0.8*11
$GPGSV,8,1,31,005,34,053,46,010,04,196,45,013,03,083,,015,10,118,42*7F
$GPGSV,8,2,31,016,26,313,48,018,78,280,49,020,08,039,20,023,29,182,50*78
$GPGSV,8,3,31,025,19,168,45,026,48,284,48,029,58,090,47,031,08,240,38*70
$GPGSV,8,4,31,068,16,027,42,069,35,080,50,070,15,144,33,074,17,201,39*77
$GPGSV,8,5,31,075,44,258,51,076,24,325,51,084,41,052,38,085,53,308,53*7B
$GPGSV,8,6,31,086,14,274,31,101,46,292,46,103,13,054,28,108,14,104,32*77
$GPGSV,8,7,31,113,68,037,43,115,17,063,31,121,51,211,47,126,48,262,45*77
$GPGSV,8,8,31,127,11,169,41,131,03,328,,133,02,251,*78
$GPRMC,110338.00,A,4445.1705,N,03954.9096,E,000.00000,113.8,230522,,,A*56
$GPZDA,110338.00,23,05,2022,+00,00*43
$GPGGA,110338.20,4445.1705,N,03954.9096,E,1,25,0.5,00143.2,M,0017.1,M,,*68
$GLGSA,A,3,068,069,070,074,075,076,084,085,086,,,,1.0,0.5,0.8*1B
$GPGSA,A,3,005,015,016,018,023,025,026,029,031,,,,1.0,0.5,0.8*0A
$GAGSA,A,3,103,108,113,115,121,126,127,,,,,,1.0,0.5,0.8*11
$GPRMC,110338.20,A,4445.1705,N,03954.9096,E,000.00000,113.8,230522,,,A*54
$GPGGA,110338.40,4445.1705,N,03954.9096,E,1,25,0.5,00143.2,M,0017.1,M,,*6E
$GLGSA,A,3,068,069,070,074,075,076,084,085,086,,,,1.0,0.5,0.8*1B
$GPGSA,A,3,005,015,016,018,023,025,026,029,031,,,,1.0,0.5,0.8*0A
$GAGSA,A,3,103,108,113,115,121,126,127,,,,,,1.0,0.5,0.8*11
$GPRMC,110338.40,A,4445.1705,N,03954.9096,E,000.00000,113.8,230522,,,A*52
$GPGGA,110338.60,4445.1705,N,03954.9096,E,1,24,0.5,00143.2,M,0017.1,M,,*6D
$GLGSA,A,3,068,069,070,074,075,076,084,085,086,,,,1.0,0.5,0.9*1A
$GPGSA,A,3,005,015,016,018,023,025,026,029,031,,,,1.0,0.5,0.9*0B
$GAGSA,A,3,108,113,115,121,126,127,,,,,,,1.0,0.5,0.9*22
$GPRMC,110338.60,A,4445.1705,N,03954.9096,E,000.00000,113.8,230522,,,A*50
$GPGGA,110338.80,4445.1705,N,03954.9096,E,1,25,0.5,00143.2,M,0017.1,M,,*62
$GLGSA,A,3,068,069,070,074,075,076,084,085,086,,,,1.0,0.5,0.8*1B
$GPGSA,A,3,005,015,016,018,023,025,026,029,031,,,,1.0,0.5,0.8*0A
$GAGSA,A,3,103,108,113,115,121,126,127,,,,,,1.0,0.5,0.8*11
$GPRMC,110338.80,A,4445.1705,N,03954.9096,E,000.00000,113.8,230522,,,A*5E
$GPGGA,110339.00,4445.1705,N,03954.9096,E,1,25,0.5,00143.2,M,0017.1,M,,*6B
$GLGSA,A,3,068,069,070,074,075,076,084,085,086,,,,1.0,0.5,0.8*1B
$GPGSA,A,3,005,015,016,018,023,025,026,029,031,,,,1.0,0.5,0.8*0A
$GAGSA,A,3,103,108,113,115,121,126,127,,,,,,1.0,0.5,0.8*11
$GPGSV,8,1,31,005,34,053,46,010,04,196,45,013,03,083,,015,10,118,43*7E
$GPGSV,8,2,31,016,26,313,49,018,78,280,48,020,08,039,19,023,30,182,50*7A
$GPGSV,8,3,31,025,19,168,45,026,48,284,48,029,58,090,47,031,08,240,39*71
$GPGSV,8,4,31,068,16,027,43,069,35,080,50,070,15,144,33,074,17,201,39*76
$GPGSV,8,5,31,075,44,258,51,076,24,325,50,084,41,052,38,085,53,308,53*7A
$GPGSV,8,6,31,086,14,274,30,101,46,292,46,103,13,054,28,108,14,104,33*77
$GPGSV,8,7,31,113,68,037,43,115,17,063,32,121,51,211,48,126,48,262,45*7B
$GPGSV,8,8,31,127,11,169,41,131,03,328,,133,02,251,*78
$GPRMC,110339.00,A,4445.1705,N,03954.9096,E,000.00000,113.8,230522,,,A*57
$GPZDA,110339.00,23,05,2022,+00,00*42
$GPGGA,110339.20,4445.1705,N,03954.9096,E,1,25,0.5,00143.2,M,0017.1,M,,*69
$GLGSA,A,3,068,069,070,074,075,076,084,085,086,,,,1.0,0.5,0.8*1B
$GPGSA,A,3,005,015,016,018,023,025,026,029,031,,,,1.0,0.5,0.8*0A
$GAGSA,A,3,103,108,113,115,121,126,127,,,,,,1.0,0.5,0.8*11
$GPRMC,110339.20,A,4445.1705,N,03954.9096,E,000.00000,113.8,230522,,,A*55
$GPGGA,110339.40,4445.1705,N,03954.9096,E,1,25,0.5,00143.2,M,0017.1,M,,*6F
$GLGSA,A,3,068,069,070,074,075,076,084,085,086,,,,1.0,0.5,0.8*1B
$GPGSA,A,3,005,015,016,018,023,025,026,029,031,,,,1.0,0.5,0.8*0A
$GAGSA,A,3,103,108,113,115,121,126,127,,,,,,1.0,0.5,0.8*11
$GPRMC,110339.40,A,4445.1705,N,03954.9096,E,000.00000,113.8,230522,,,A*53
$GPGGA,110339.60,4445.1705,N,03954.9096,E,1,24,0.5,00143.2,M,0017.1,M,,*6C
$GLGSA,A,3,068,069,070,074,075,076,084,085,086,,,,1.0,0.5,0.9*1A
$GPGSA,A,3,005,015,016,018,023,025,026,029,031,,,,1.0,0.5,0.9*0B
$GAGSA,A,3,108,113,115,121,126,127,,,,,,,1.0,0.5,0.9*22
$GPRMC,110339.60,A,4445.1705,N,03954.9096,E,000.00000,113.8,230522,,,A*51
$GPGGA,110339.80,4445.1705,N,03954.9096,E,1,25,0.5,00143.2,M,0017.1,M,,*63
$GLGSA,A,3,068,069,070,074,075,076,084,085,086,,,,1.0,0.5,0.8*1B
$GPGSA,A,3,005,015,016,018,023,025,026,029,031,,,,1.0,0.5,0.8*0A
$GAGSA,A,3,103,108,113,115,121,126,127,,,,,,1.0,0.5,0.8*11
$GPRMC,110339.80,A,4445.1705,N,03954.9096,E,000.00000,113.8,230522,,,A*5F
$GPGGA,110340.00,4445.1705,N,03954.9096,E,1,25,0.5,00143.2,M,0017.1,M,,*65
$GLGSA,A,3,068,069,070,074,075,076,084,085,086,,,,1.0,0.5,0.8*1B
$GPGSA,A,3,005,015,016,018,023,025,026,029,031,,,,1.0,0.5,0.8*0A
