$GPRMC,111514.40,A,4442.5641,N,03957.5129,E,000.00000,175.8,230522,,,A*53
$GPGGA,111514.60,4442.5641,N,03957.5129,E,1,26,0.5,00160.5,M,0017.4,M,,*6D
$GLGSA,A,3,068,069,070,074,075,076,084,085,086,,,,1.0,0.5,0.8*1B
$GPGSA,A,3,005,010,013,015,016,018,023,025,026,029,,,1.0,0.5,0.8*3B
$GAGSA,A,3,103,108,113,115,121,126,127,,,,,,1.0,0.5,0.8*11
$GPRMC,111514.60,A,4442.5641,N,03957.5129,E,000.00000,175.8,230522,,,A*51
$GPGGA,111514.80,4442.5641,N,03957.5129,E,1,26,0.5,00160.5,M,0017.4,M,,*63
$GLGSA,A,3,068,069,070,074,075,076,084,085,086,,,,1.0,0.5,0.8*1B
$GPGSA,A,3,005,010,013,015,016,018,023,025,026,029,,,1.0,0.5,0.8*3B
$GAGSA,A,3,103,108,113,115,121,126,127,,,,,,1.0,0.5,0.8*11
$GPRMC,111514.80,A,4442.5641,N,03957.5129,E,000.00000,175.8,230522,,,A*5F
$GPGGA,111515.00,4442.5641,N,03957.5129,E,1,25,0.5,00160.5,M,0017.4,M,,*69
$GLGSA,A,3,068,069,070,074,075,076,084,085,086,,,,1.0,0.5,0.8*1B
$GPGSA,A,3,005,010,013,015,016,018,023,026,029,,,,1.0,0.5,0.8*0C
$GAGSA,A,3,103,108,113,115,121,126,127,,,,,,1.0,0.5,0.8*11
$GPGSV,9,1,34,005,30,049,46,010,08,196,29,013,06,079,23,015,13,114,41*7F
$GPGSV,9,2,34,016,30,311,51,018,80,308,49,020,04,039,32,023,35,182,49*7D
$GPGSV,9,3,34,025,14,168,19,026,49,277,45,027,03,297,,029,54,096,47*77
$GPGSV,9,4,34,031,04,237,31,068,13,022,45,069,36,072,50,070,21,142,37*71
$GPGSV,9,5,34,074,11,200,23,075,41,251,51,076,27,320,54,084,37,058,35*70
$GPGSV,9,6,34,085,56,318,53,086,18,279,31,101,47,286,47,103,13,050,30*70
$GPGSV,9,7,34,105,15,057,,107,02,147,,108,17,101,40,113,64,042,46*7A
$GPGSV,9,8,34,115,14,066,35,121,46,208,47,126,51,267,43,127,07,169,24*7E
$GPGSV,9,9,34,131,06,327,36,133,05,254,*7F
$GPRMC,111515.00,A,4442.5641,N,03957.5129,E,000.00000,175.8,230522,,,A*56
$GPZDA,111515.00,23,05,2022,+00,00*4B
$GPGGA,111515.20,4442.5641,N,03957.5129,E,1,26,0.5,00160.5,M,0017.4,M,,*68
$GLGSA,A,3,068,069,070,074,075,076,084,085,086,,,,1.0,0.5,0.8*1B
$GPGSA,A,3,005,010,013,015,016,018,023,025,026,029,,,1.0,0.5,0.8*3B
$GAGSA,A,3,103,108,113,115,121,126,127,,,,,,1.0,0.5,0.8*11
$GPRMC,111515.20,A,4442.5641,N,03957.5129,E,000.00000,175.8,230522,,,A*54
$GPGGA,111515.40,4442.5641,N,03957.5129,E,1,26,0.5,00160.5,M,0017.4,M,,*6E
$GLGSA,A,3,068,069,070,074,075,076,084,085,086,,,,1.0,0.5,0.8*1B
$GPGSA,A,3,005,010,013,015,016,018,023,025,026,029,,,1.0,0.5,0.8*3B
$GAGSA,A,3,103,108,113,115,121,126,127,,,,,,1.0,0.5,0.8*11
$GPRMC,111515.40,A,4442.5641,N,03957.5129,E,000.00000,175.8,230522,,,A*52
$GPGGA,111515.60,4442.5641,N,03957.5129,E,1,26,0.5,00160.5,M,0017.4,M,,*6C
$GLGSA,A,3,068,069,070,074,075,076,084,085,086,,,,1.0,0.5,0.8*1B
$GPGSA,A,3,005,010,013,015,016,018,023,025,026,029,,,1.0,0.5,0.8*3B
$GAGSA,A,3,103,108,113,115,121,126,127,,,,,,1.0,0.5,0.8*11
$GPRMC,111515.60,A,4442.5641,N,03957.5129,E,000.00000,175.8,230522,,,A*50
$GPGGA,111515.80,4442.5641,N,03957.5129,E,1,25,0.5,00160.5,M,0017.4,M,,*61
$GLGSA,A,3,068,069,070,074,075,076,084,085,086,,,,1.0,0.5,0.8*1B
$GPGSA,A,3,005,010,013,015,016,018,023,025,026,029,,,1.0,0.5,0.8*3B
$GAGSA,A,3,103,108,113,115,121,126,,,,,,,1.0,0.5,0.8*25
$GPRMC,111515.80,A,4442.5641,N,03957.5129,E,000.00000,175.8,230522,,,A*5E
$GPGGA,111516.00,4442.5641,N,03957.5129,E,1,26,0.5,00160.5,M,0017.4,M,,*69
$GLGSA,A,3,068,069,070,074,075,076,084,085,086,,,,1.0,0.5,0.8*1B
$GPGSA,A,3,005,010,013,015,016,018,023,025,026,029,,,1.0,0.5,0.8*3B
$GAGSA,A,3,103,108,113,115,121,126,127,,,,,,1.0,0.5,0.8*11
$GPGSV,9,1,34,005,30,049,46,010,08,196,30,013,06,079,23,015,13,114,41*77
$GPGSV,9,2,34,016,30,311,51,018,80,308,49,020,04,039,31,023,35,182,49*7E
$GPGSV,9,3,34,025,14,168,21,026,49,277,45,027,03,297,,029,54,096,46*7D
$GPGSV,9,4,34,031,04,237,31,068,13,022,44,069,36,072,50,070,21,142,37*70
$GPGSV,9,5,34,074,11,200,25,075,41,251,51,076,27,320,54,084,37,058,35*76
$GPGSV,9,6,34,085,56,318,54,086,18,279,31,101,47,286,46,103,13,050,30*76
$GPGSV,9,7,34,105,15,057,,107,02,147,,108,17,101,40,113,64,042,46*7A
$GPGSV,9,8,34,115,14,066,36,121,46,208,47,126,51,267,44,127,07,169,22*7C
$GPGSV,9,9,34,131,06,327,36,133,05,254,*7F
$GPRMC,111516.00,A,4442.5641,N,03957.5129,E,000.00000,175.8,230522,,,A*55
$GPZDA,111516.00,23,05,2022,+00,00*48
$GPGGA,111516.20,4442.5641,N,03957.5129,E,1,25,0.5,00160.5,M,0017.4,M,,*68
$GLGSA,A,3,068,069,070,074,075,076,084,085,086,,,,1.0,0.5,0.9*1A
$GPGSA,A,3,005,010,015,016,018,023,025,026,029,,,,1.0,0.5,0.9*08
$GAGSA,A,3,103,108,113,115,121,126,127,,,,,,1.0,0.5,0.9*10
$GPRMC,111516.20,A,4442.5641,N,03957.5129,E,000.00000,175.8,230522,,,A*57
$GPGGA,111516.40,4442.5641,N,03957.5129,E,1,26,0.5,00160.5,M,0017.4,M,,*6D
$GLGSA,A,3,068,069,070,074,075,076,084,085,086,,,,1.0,0.5,0.8*1B
$GPGSA,A,3,005,010,013,015,016,018,023,025,026,029,,,1.0,0.5,0.8*3B
$GAGSA,A,3,103,108,113,115,121,126,127,,,,,,1.0,0.5,0.8*11
$GPRMC,111516.40,A,4442.5641,N,03957.5129,E,000.00000,175.8,230522,,,A*51
$GPGGA,111516.60,4442.5641,N,03957.5129,E,1,26,0.5,00160.5,M,0017.4,M,,*6F
$GLGSA,A,3,068,069,070,074,075,076,084,085,086,,,,1.0,0.5,0.8*1B
$GPGSA,A,3,005,010,013,015,016,018,023,025,026,029,,,1.0,0.5,0.8*3B
$GAGSA,A,3,103,108,113,115,121,126,127,,,,,,1.0,0.5,0.8*11
$GPRMC,111516.60,A,4442.5641,N,03957.5129,E,000.00000,175.8,230522,,,A*53
$GPGGA,111516.80,4442.5641,N,03957.5129,E,1,26,0.5,00160.5,M,0017.4,M,,*61
$GLGSA,A,3,068,069,070,074,075,076,084,085,086,,,,1.0,0.5,0.8*1B
$GPGSA,A,3,005,010,013,015,016,018,023,025,026,029,,,1.0,0.5,0.8*3B
$GAGSA,A,3,103,108,113,115,121,126,127,,,,,,1.0,0.5,0.8*11
$GPRMC,111516.80,A,4442.5641,N,03957.5129,E,000.00000,175.8,230522,,,A*5D
$GPGGA,111517.00,4442.5641,N,03957.5129,E,1,25,0.5,00160.5,M,0017.4,M,,*6B
$GLGSA,A,3,068,069,070,074,075,076,084,085,086,,,,1.0,0.5,0.8*1B
$GPGSA,A,3,005,010,013,015,016,018,023,025,026,029,,,1.0,0.5,0.8*3B
$GAGSA,A,3,103,108,113,115,121,126,,,,,,,1.0,0.5,0.8*25
$GPGSV,9,1,34,005,30,049,46,010,08,196,30,013,06,079,22,015,13,114,41*76
$GPGSV,9,2,34,016,30,311,51,018,80,308,49,020,04,039,31,023,35,182,50*76
$GPGSV,9,3,34,025,14,168,22,026,49,277,46,027,03,297,,029,54,096,46*7D
$GPGSV,9,4,34,031,04,237,30,068,13,022,44,069,36,072,49,070,21,142,37*79
$GPGSV,9,5,34,074,11,200,25,075,41,251,51,076,27,320,54,084,37,058,36*75
$GPGSV,9,6,34,085,56,318,53,086,18,279,31,101,47,286,46,103,13,050,31*70
$GPGSV,9,7,34,105,15,057,,107,02,147,,108,17,101,39,113,64,042,46*74
$GPGSV,9,8,34,115,14,066,36,121,46,208,47,126,51,267,44,127,07,169,24*7A
$GPGSV,9,9,34,131,06,327,35,133,05,254,*7C
$GPRMC,111517.00,A,4442.5641,N,03957.5129,E,000.00000,175.8,230522,,,A*54
$GPZDA,111517.00,23,05,2022,+00,00*49
$GPGGA,111517.20,4442.5641,N,03957.5129,E,1,24,0.5,00160.5,M,0017.4,M,,*68
$GLGSA,A,3,068,069,070,075,076,084,085,086,,,,,1.0,0.5,0.9*29
$GPGSA,A,3,005,010,013,015,016,018,023,026,029,,,,1.0,0.5,0.9*0D
$GAGSA,A,3,103,108,113,115,121,126,127,,,,,,1.0,0.5,0.9*10
$GPRMC,111517.20,A,4442.5641,N,03957.5129,E,000.00000,175.8,230522,,,A*56
$GPGGA,111517.40,4442.5641,N,03957.5129,E,1,25,0.5,00160.5,M,0017.4,M,,*6F
$GLGSA,A,3,068,069,070,074,075,076,084,085,086,,,,1.0,0.5,0.8*1B
$GPGSA,A,3,005,010,013,015,016,018,023,025,026,029,,,1.0,0.5,0.8*3B
$GAGSA,A,3,103,108,113,115,121,126,,,,,,,1.0,0.5,0.8*25
$GPRMC,111517.40,A,4442.5641,N,03957.5129,E,000.00000,175.8,230522,,,A*50
$GPGGA,111517.60,4442.5641,N,03957.5129,E,1,25,0.5,00160.5,M,0017.4,M,,*6D
$GLGSA,A,3,068,069,070,074,075,076,084,085,086,,,,1.0,0.5,0.8*1B
$GPGSA,A,3,005,010,013,015,016,018,023,025,026,029,,,1.0,0.5,0.8*3B
$GAGSA,A,3,103,108,113,115,121,126,,,,,,,1.0,0.5,0.8*25
$GPRMC,111517.60,A,4442.5641,N,03957.5129,E,000.00000,175.8,230522,,,A*52
$GPGGA,111517.80,4442.5641,N,03957.5129,E,1,26,0.5,00160.5,M,0017.4,M,,*60
$GLGSA,A,3,068,069,070,074,075,076,084,085,086,,,,1.0,0.5,0.8*1B
$GPGSA,A,3,005,010,013,015,016,018,023,025,026,029,,,1.0,0.5,0.8*3B
$GAGSA,A,3,103,108,113,115,121,126,127,,,,,,1.0,0.5,0.8*11
$GPRMC,111517.80,A,4442.5641,N,03957.5129,E,000.00000,175.8,230522,,,A*5C
$GPGGA,111518.00,4442.5641,N,03957.5129,E,1,26,0.5,00160.5,M,0017.4,M,,*67
$GLGSA,A,3,068,069,070,074,075,076,084,085,086,,,,1.0,0.5,0.8*1B
$GPGSA,A,3,005,010,013,015,016,018,023,025,026,029,,,1.0,0.5,0.8*3B
$GAGSA,A,3,103,108,113,115,121,126,127,,,,,,1.0,0.5,0.8*11
$GPGSV,9,1,34,005,30,049,46,010,08,196,27,013,06,079,24,015,13,114,41*76
$GPGSV,9,2,34,016,30,311,50,018,80,308,49,020,04,039,32,023,35,182,50*74
$GPGSV,9,3,34,025,14,168,18,026,49,277,45,027,03,297,,029,54,096,46*77
$GPGSV,9,4,34,031,04,237,31,068,13,022,45,069,36,072,50,070,21,142,37*71
$GPGSV,9,5,34,074,11,200,22,075,41,251,51,076,27,320,54,084,37,058,36*72
$GPGSV,9,6,34,085,56,318,53,086,18,279,32,101,47,286,46,103,13,050,31*73
$GPGSV,9,7,34,105,15,057,,107,02,147,,108,17,101,39,113,64,042,46*74
$GPGSV,9,8,34,115,14,066,36,121,46,208,47,126,51,267,44,127,07,169,20*7E
$GPGSV,9,9,34,131,06,327,34,133,05,254,*7D
$GPRMC,111518.00,A,4442.5641,N,03957.5129,E,000.00000,175.8,230522,,,A*5B
$GPZDA,111518.00,23,05,2022,+00,00*46
$GPGGA,111518.20,4442.5641,N,03957.5129,E,1,25,0.5,00160.5,M,0017.4,M,,*66
$GLGSA,A,3,068,069,070,074,075,076,084,085,086,,,,1.0,0.5,0.8*1B
$GPGSA,A,3,005,010,013,015,016,018,023,026,029,,,,1.0,0.5,0.8*0C
$GAGSA,A,3,103,108,113,115,121,126,127,,,,,,1.0,0.5,0.8*11
$GPRMC,111518.20,A,4442.5641,N,03957.5129,E,000.00000,175.8,230522,,,A*59
$GPGGA,111518.40,4442.5641,N,03957.5129,E,1,26,0.5,00160.5,M,0017.4,M,,*63
$GLGSA,A,3,068,069,070,074,075,076,084,085,086,,,,1.0,0.5,0.8*1B
$GPGSA,A,3,005,010,013,015,016,018,023,025,026,029,,,1.0,0.5,0.8*3B
$GAGSA,A,3,103,108,113,115,121,126,127,,,,,,1.0,0.5,0.8*11
$GPRMC,111518.40,A,4442.5641,N,03957.5129,E,000.00000,175.8,230522,,,A*5F
$GPGGA,111518.60,4442.5641,N,03957.5129,E,1,26,0.5,00160.5,M,0017.4,M,,*61
$GLGSA,A,3,068,069,070,074,075,076,084,085,086,,,,1.0,0.5,0.8*1B
$GPGSA,A,3,005,010,013,015,016,018,023,025,026,029,,,1.0,0.5,0.8*3B
$GAGSA,A,3,103,108,113,115,121,126,127,,,,,,1.0,0.5,0.8*11
$GPRMC,111518.60,A,4442.5641,N,03957.5129,E,000.00000,175.8,230522,,,A*5D
$GPGGA,111518.80,4442.5641,N,03957.5129,E,1,26,0.5,00160.5,M,0017.4,M,,*6F
$GLGSA,A,3,068,069,070,074,075,076,084,085,086,,,,1.0,0.5,0.8*1B
$GPGSA,A,3,005,010,013,015,016,018,023,025,026,029,,,1.0,0.5,0.8*3B
$GAGSA,A,3,103,108,113,115,121,126,127,,,,,,1.0,0.5,0.8*11
$GPRMC,111518.80,A,4442.5641,N,03957.5129,E,000.00000,175.8,230522,,,A*53
$GPGGA,111519.00,4442.5641,N,03957.5129,E,1,25,0.5,00160.5,M,0017.4,M,,*65
$GLGSA,A,3,068,069,070,074,075,076,084,085,086,,,,1.0,0.5,0.8*1B
$GPGSA,A,3,005,010,013,015,016,018,023,025,026,029,,,1.0,0.5,0.8*3B
$GAGSA,A,3,103,108,113,115,121,126,,,,,,,1.0,0.5,0.8*25
$GPGSV,9,1,34,005,30,049,46,010,09,196,28,013,06,079,26,015,13,114,40*7B
$GPGSV,9,2,34,016,30,311,50,018,80,308,49,020,04,039,33,023,35,182,50*75
$GPGSV,9,3,34,025,14,168,21,026,49,277,45,027,03,297,,029,54,096,46*7D
$GPGSV,9,4,34,031,04,237,29,068,13,022,44,069,36,072,50,070,21,142,36*78
$GPGSV,9,5,34,074,11,200,23,075,41,251,51,076,27,320,54,084,37,058,36*73
$GPGSV,9,6,34,085,56,318,53,086,18,279,32,101,47,286,46,103,13,050,32*70
$GPGSV,9,7,34,105,15,057,,107,02,147,,108,17,101,39,113,64,042,46*74
$GPGSV,9,8,34,115,14,066,36,121,46,208,47,126,51,267,44,127,07,169,18*75
$GPGSV,9,9,34,131,07,327,34,133,05,254,*7C
$GPRMC,111519.00,A,4442.5641,N,03957.5129,E,000.00000,175.8,230522,,,A*5A
$GPZDA,111519.00,23,05,2022,+00,00*47
$GPGGA,111519.20,4442.5641,N,03957.5129,E,1,25,0.5,00160.5,M,0017.4,M,,*67
$GLGSA,A,3,068,069,070,074,075,076,084,085,086,,,,1.0,0.5,0.8*1B
$GPGSA,A,3,005,010,013,015,016,018,023,025,026,029,,,1.0,0.5,0.8*3B
$GAGSA,A,3,103,108,113,115,121,126,,,,,,,1.0,0.5,0.8*25
$GPRMC,111519.20,A,4442.5641,N,03957.5129,E,000.00000,175.8,230522,,,A*58
$GPGGA,111519.40,4442.5641,N,03957.5129,E,1,26,0.5,00160.5,M,0017.4,M,,*62
$GLGSA,A,3,068,069,070,074,075,076,084,085,086,,,,1.0,0.5,0.8*1B
$GPGSA,A,3,005,010,013,015,016,018,023,025,026,029,,,1.0,0.5,0.8*3B
$GAGSA,A,3,103,108,113,115,121,126,127,,,,,,1.0,0.5,0.8*11
$GPRMC,111519.40,A,4442.5641,N,03957.5129,E,000.00000,175.8,230522,,,A*5E
$GPGGA,111519.60,4442.5641,N,03957.5129,E,1,25,0.5,00160.5,M,0017.4,M,,*63
$GLGSA,A,3,068,069,070,074,075,076,084,085,086,,,,1.0,0.5,0.8*1B
$GPGSA,A,3,005,010,013,015,016,018,023,025,026,029,,,1.0,0.5,0.8*3B
$GAGSA,A,3,103,108,113,115,121,126,,,,,,,1.0,0.5,0.8*25
$GPRMC,111519.60,A,4442.5641,N,03957.5129,E,000.00000,175.8,230522,,,A*5C
$GPGGA,111519.80,4442.5641,N,03957.5129,E,1,26,0.5,00160.5,M,0017.4,M,,*6E
$GLGSA,A,3,068,069,070,074,075,076,084,085,086,,,,1.0,0.5,0.8*1B
$GPGSA,A,3,005,010,013,015,016,018,023,025,026,029,,,1.0,0.5,0.8*3B
$GAGSA,A,3,103,108,113,115,121,126,127,,,,,,1.0,0.5,0.8*11
$GPRMC,111519.80,A,4442.5641,N,03957.5129,E,000.00000,175.8,230522,,,A*52
$GPGGA,111520.00,4442.5641,N,03957.5129,E,1,25,0.5,00160.5,M,0017.4,M,,*6F
$GLGSA,A,3,068,069,070,074,075,076,084,085,086,,,,1.0,0.5,0.8*1B
$GPGSA,A,3,005,010,013,015,016,018,023,025,026,029,,,1.0,0.5,0.8*3B
$GAGSA,A,3,103,108,113,115,121,126,,,,,,,1.0,0.5,0.8*25
$GPGSV,9,1,34,005,30,049,46,010,09,196,26,013,06,079,27,015,13,114,40*74
$GPGSV,9,2,34,016,30,311,50,018,80,308,49,020,04,039,33,023,35,182,50*75
$GPGSV,9,3,34,025,14,168,23,026,49,277,45,027,03,297,,029,54,096,46*7F
$GPGSV,9,4,34,031,04,237,28,068,13,022,44,069,36,072,50,070,21,142,36*79
$GPGSV,9,5,34,074,11,200,24,075,41,251,51,076,27,320,54,084,37,058,36*74
$GPGSV,9,6,34,085,56,318,54,086,18,279,32,101,47,286,46,103,13,050,32*77
$GPGSV,9,7,34,105,15,057,,107,02,147,,108,17,101,39,113,64,043,46*75
$GPGSV,9,8,34,115,14,066,36,121,46,208,47,126,51,267,44,127,07,169,19*74
$GPGSV,9,9,34,131,07,327,34,133,05,254,*7C
$GPRMC,111520.00,A,4442.5641,N,03957.5129,E,000.00000,175.8,230522,,,A*50
$GPZDA,111520.00,23,05,2022,+00,00*4D
$GPGGA,111520.20,4442.5641,N,03957.5129,E,1,26,0.5,00160.5,M,0017.4,M,,*6E
$GLGSA,A,3,068,069,070,074,075,076,084,085,086,,,,1.0,0.5,0.8*1B
$GPGSA,A,3,005,010,013,015,016,018,023,025,026,029,,,1.0,0.5,0.8*3B
$GAGSA,A,3,103,108,113,115,121,126,127,,,,,,1.0,0.5,0.8*11
$GPRMC,111520.20,A,4442.5641,N,03957.5129,E,000.00000,175.8,230522,,,A*52
$GPGGA,111520.40,4442.5641,N,03957.5129,E,1,25,0.5,00160.5,M,0017.4,M,,*6B
$GLGSA,A,3,068,069,070,074,075,076,084,085,086,,,,1.0,0.5,0.8*1B
$GPGSA,A,3,005,010,013,015,016,018,023,026,029,,,,1.0,0.5,0.8*0C
$GAGSA,A,3,103,108,113,115,121,126,127,,,,,,1.0,0.5,0.8*11
$GPRMC,111520.40,A,4442.5641,N,03957.5129,E,000.00000,175.8,230522,,,A*54
$GPGGA,111520.60,4442.5641,N,03957.5129,E,1,26,0.5,00160.5,M,0017.4,M,,*6A
$GLGSA,A,3,068,069,070,074,075,076,084,085,086,,,,1.0,0.5,0.8*1B
$GPGSA,A,3,005,010,013,015,016,018,023,025,026,029,,,1.0,0.5,0.8*3B
$GAGSA,A,3,103,108,113,115,121,126,127,,,,,,1.0,0.5,0.8*11
$GPRMC,111520.60,A,4442.5641,N,03957.5129,E,000.00000,175.8,230522,,,A*56
$GPGGA,111520.80,4442.5641,N,03957.5129,E,1,24,0.5,00160.5,M,0017.4,M,,*66
$GLGSA,A,3,068,069,070,074,075,076,084,085,086,,,,1.0,0.5,0.9*1A
$GPGSA,A,3,005,010,015,016,018,023,026,029,,,,,1.0,0.5,0.9*3F
$GAGSA,A,3,103,108,113,115,121,126,127,,,,,,1.0,0.5,0.9*10
$GPRMC,111520.80,A,4442.5641,N,03957.5129,E,000.00000,173.5,230522,,,A*53
$GPGGA,111521.00,4442.5641,N,03957.5129,E,1,25,0.5,00160.5,M,0017.4,M,,*6E
$GLGSA,A,3,068,069,070,074,075,076,084,085,086,,,,1.0,0.5,0.8*1B
$GPGSA,A,3,005,010,013,015,016,018,023,026,029,,,,1.0,0.5,0.8*0C
$GAGSA,A,3,103,108,113,115,121,126,127,,,,,,1.0,0.5,0.8*11
$GPGSV,9,1,34,005,30,049,46,010,09,196,25,013,06,079,24,015,13,114,40*74
$GPGSV,9,2,34,016,30,311,50,018,80,308,49,020,04,039,33,023,35,182,50*75
$GPGSV,9,3,34,025,14,168,23,026,49,277,46,027,03,297,,029,54,096,46*7C
$GPGSV,9,4,34,031,04,237,24,068,13,022,44,069,36,072,50,070,21,142,36*75
$GPGSV,9,5,34,074,11,200,26,075,41,251,51,076,27,320,54,084,37,058,36*76
$GPGSV,9,6,34,085,56,318,54,086,18,279,31,101,47,286,46,103,13,050,32*74
$GPGSV,9,7,34,105,15,057,,107,02,147,,108,17,101,39,113,64,043,46*75
$GPGSV,9,8,34,115,14,066,36,121,46,208,47,126,51,267,44,127,07,169,18*75
$GPGSV,9,9,34,131,07,327,35,133,05,254,*7D
$GPRMC,111521.00,A,4442.5641,N,03957.5129,E,000.00000,166.7,230522,,,A*5C
$GPZDA,111521.00,23,05,2022,+00,00*4C
$GPGGA,111521.20,4442.5641,N,03957.5129,E,1,25,0.5,00160.5,M,0017.4,M,,*6C
$GLGSA,A,3,068,069,070,074,075,076,084,085,086,,,,1.0,0.5,0.8*1B
$GPGSA,A,3,005,010,013,015,016,018,023,026,029,,,,1.0,0.5,0.8*0C
$GAGSA,A,3,103,108,113,115,121,126,127,,,,,,1.0,0.5,0.8*11
$GPRMC,111521.20,A,4442.5641,N,03957.5129,E,000.00000,160.0,230522,,,A*5F
$GPGGA,111521.40,4442.5641,N,03957.5129,E,1,26,0.5,00160.5,M,0017.4,M,,*69
$GLGSA,A,3,068,069,070,074,075,076,084,085,086,,,,1.0,0.5,0.8*1B
$GPGSA,A,3,005,010,013,015,016,018,023,025,026,029,,,1.0,0.5,0.8*3B
$GAGSA,A,3,103,108,113,115,121,126,127,,,,,,1.0,0.5,0.8*11
$GPRMC,111521.40,A,4442.5641,N,03957.5129,E,000.00000,153.1,230522,,,A*58
$GPGGA,111521.60,4442.5641,N,03957.5129,E,1,26,0.5,00160.5,M,0017.4,M,,*6B
$GLGSA,A,3,068,069,070,074,075,076,084,085,086,,,,1.0,0.5,0.8*1B
$GPGSA,A,3,005,010,013,015,016,018,023,025,026,029,,,1.0,0.5,0.8*3B
$GAGSA,A,3,103,108,113,115,121,126,127,,,,,,1.0,0.5,0.8*11
$GPRMC,111521.60,A,4442.5641,N,03957.5129,E,000.00000,146.1,230522,,,A*5E
$GPGGA,111521.80,4442.5641,N,03957.5129,E,1,26,0.5,00160.5,M,0017.4,M,,*65
$GLGSA,A,3,068,069,070,074,075,076,084,085,086,,,,1.0,0.5,0.8*1B
$GPGSA,A,3,005,010,013,015,016,018,023,025,026,029,,,1.0,0.5,0.8*3B
$GAGSA,A,3,103,108,113,115,121,126,127,,,,,,1.0,0.5,0.8*11
$GPRMC,111521.80,A,4442.5641,N,03957.5129,E,000.00000,144.7,230522,,,A*54
$GPGGA,111522.00,4442.5641,N,03957.5129,E,1,26,0.5,00160.5,M,0017.4,M,,*6E
$GLGSA,A,3,068,069,070,074,075,076,084,085,086,,,,1.0,0.5,0.8*1B
$GPGSA,A,3,005,010,013,015,016,018,023,025,026,029,,,1.0,0.5,0.8*3B
$GAGSA,A,3,103,108,113,115,121,126,127,,,,,,1.0,0.5,0.8*11
$GPGSV,9,1,34,005,30,049,46,010,09,196,26,013,06,079,26,015,13,114,39*7B
$GPGSV,9,2,34,016,30,311,50,018,80,308,49,020,04,039,32,023,35,182,50*74
$GPGSV,9,3,34,025,14,168,25,026,49,277,46,027,03,297,,029,54,096,46*7A
$GPGSV,9,4,34,031,04,237,24,068,13,022,44,069,36,072,49,070,21,142,36*7D
$GPGSV,9,5,34,074,11,200,25,075,41,251,51,076,27,320,54,084,37,058,37*74
$GPGSV,9,6,34,085,56,319,53,086,18,279,31,101,47,286,46,103,13,050,32*72
$GPGSV,9,7,34,105,15,057,,107,02,147,,108,17,101,39,113,64,043,46*75
$GPGSV,9,8,34,115,14,066,36,121,46,208,47,126,51,267,45,127,07,169,21*7E
$GPGSV,9,9,34,131,07,327,35,133,05,254,*7D
$GPRMC,111522.00,A,4442.5641,N,03957.5129,E,000.00000,142.5,230522,,,A*5B
$GPZDA,111522.00,23,05,2022,+00,00*4F
$GPGGA,111522.20,4442.5641,N,03957.5129,E,1,25,0.5,00160.5,M,0017.4,M,,*6F
$GLGSA,A,3,068,069,070,075,076,084,085,086,,,,,1.0,0.5,0.9*29
$GPGSA,A,3,005,010,013,015,016,018,023,025,026,029,,,1.0,0.5,0.9*3A
$GAGSA,A,3,103,108,113,115,121,126,127,,,,,,1.0,0.5,0.9*10
$GPRMC,111522.20,A,4442.5641,N,03957.5129,E,000.00000,144.5,230522,,,A*5F
$GPGGA,111522.40,4442.5641,N,03957.5129,E,1,26,0.5,00160.5,M,0017.4,M,,*6A
$GLGSA,A,3,068,069,070,074,075,076,084,085,086,,,,1.0,0.5,0.8*1B
$GPGSA,A,3,005,010,013,015,016,018,023,025,026,029,,,1.0,0.5,0.8*3B
$GAGSA,A,3,103,108,113,115,121,126,127,,,,,,1.0,0.5,0.8*11
$GPRMC,111522.40,A,4442.5641,N,03957.5129,E,000.00000,144.5,230522,,,A*59
$GPGGA,111522.60,4442.5641,N,03957.5129,E,1,25,0.5,00160.5,M,0017.4,M,,*6B
$GLGSA,A,3,068,069,070,074,075,076,084,085,086,,,,1.0,0.5,0.8*1B
$GPGSA,A,3,005,010,013,015,016,018,023,025,026,029,,,1.0,0.5,0.8*3B
$GAGSA,A,3,103,108,113,115,121,126,,,,,,,1.0,0.5,0.8*25
$GPRMC,111522.60,A,4442.5641,N,03957.5129,E,000.00000,139.0,230522,,,A*54
$GPGGA,111522.80,4442.5641,N,03957.5129,E,1,26,0.5,00160.5,M,0017.4,M,,*66
$GLGSA,A,3,068,069,070,074,075,076,084,085,086,,,,1.0,0.5,0.8*1B
$GPGSA,A,3,005,010,013,015,016,018,023,025,026,029,,,1.0,0.5,0.8*3B
$GAGSA,A,3,103,108,113,115,121,126,127,,,,,,1.0,0.5,0.8*11
$GPRMC,111522.80,A,4442.5641,N,03957.5129,E,000.00000,134.6,230522,,,A*51
$GPGGA,111523.00,4442.5641,N,03957.5129,E,1,26,0.5,00160.5,M,0017.4,M,,*6F
$GLGSA,A,3,068,069,070,074,075,076,084,085,086,,,,1.0,0.5,0.8*1B
$GPGSA,A,3,005,010,013,015,016,018,023,025,026,029,,,1.0,0.5,0.8*3B
$GAGSA,A,3,103,108,113,115,121,126,127,,,,,,1.0,0.5,0.8*11
$GPGSV,9,1,34,005,30,049,46,010,09,196,26,013,06,079,27,015,13,114,40*74
$GPGSV,9,2,34,016,30,311,50,018,80,308,50,020,04,039,32,023,35,182,50*7C
$GPGSV,9,3,34,025,14,168,28,026,49,277,46,027,03,297,,029,54,096,46*77
$GPGSV,9,4,34,031,04,237,25,068,13,022,44,069,36,072,49,070,21,142,36*7C
$GPGSV,9,5,34,074,11,200,22,075,41,251,51,076,27,320,55,084,37,058,37*72
$GPGSV,9,6,34,085,56,319,53,086,18,279,32,101,47,286,47,103,13,050,32*70
$GPGSV,9,7,34,105,15,057,,107,02,147,,108,17,101,38,113,64,043,46*74
$GPGSV,9,8,34,115,14,066,36,121,46,208,47,126,51,267,45,127,07,169,22*7D
$GPGSV,9,9,34,131,07,327,36,133,05,254,*7E
$GPRMC,111523.00,A,4442.5641,N,03957.5129,E,000.00000,133.6,230522,,,A*5F
$GPZDA,111523.00,23,05,2022,+00,00*4E
$GPGGA,111523.20,4442.5641,N,03957.5129,E,1,26,0.5,00160.5,M,0017.4,M,,*6D
$GLGSA,A,3,068,069,070,074,075,076,084,085,086,,,,1.0,0.5,0.8*1B
$GPGSA,A,3,005,010,013,015,016,018,023,025,026,029,,,1.0,0.5,0.8*3B
$GAGSA,A,3,103,108,113,115,121,126,127,,,,,,1.0,0.5,0.8*11
$GPRMC,111523.20,A,4442.5641,N,03957.5129,E,000.00000,132.0,230522,,,A*5A
$GPGGA,111523.40,4442.5641,N,03957.5129,E,1,25,0.5,00160.5,M,0017.4,M,,*68
$GLGSA,A,3,068,069,070,074,075,076,084,085,086,,,,1.0,0.5,0.8*1B
$GPGSA,A,3,005,010,013,015,016,018,023,025,026,029,,,1.0,0.5,0.8*3B
$GAGSA,A,3,103,108,113,115,121,126,,,,,,,1.0,0.5,0.8*25
$GPRMC,111523.40,A,4442.5641,N,03957.5129,E,000.00000,139.7,230522,,,A*50
$GPGGA,111523.60,4442.5641,N,03957.5129,E,1,26,0.5,00160.5,M,0017.4,M,,*69
$GLGSA,A,3,068,069,070,074,075,076,084,085,086,,,,1.0,0.5,0.8*1B
$GPGSA,A,3,005,010,013,015,016,018,023,025,026,029,,,1.0,0.5,0.8*3B
$GAGSA,A,3,103,108,113,115,121,126,127,,,,,,1.0,0.5,0.8*11
$GPRMC,111523.60,A,4442.5641,N,03957.5129,E,000.00000,139.6,230522,,,A*53
$GPGGA,111523.80,4442.5641,N,03957.5129,E,1,26,0.5,00160.5,M,0017.4,M,,*67
$GLGSA,A,3,068,069,070,074,075,076,084,085,086,,,,1.0,0.5,0.8*1B
$GPGSA,A,3,005,010,013,015,016,018,023,025,026,029,,,1.0,0.5,0.8*3B
$GAGSA,A,3,103,108,113,115,121,126,127,,,,,,1.0,0.5,0.8*11
$GPRMC,111523.80,A,4442.5641,N,03957.5129,E,000.00000,143.7,230522,,,A*51
$GPGGA,111524.00,4442.5641,N,03957.5129,E,1,26,0.5,00160.5,M,0017.4,M,,*68
$GLGSA,A,3,068,069,070,074,075,076,084,085,086,,,,1.0,0.5,0.8*1B
$GPGSA,A,3,005,010,013,015,016,018,023,025,026,029,,,1.0,0.5,0.8*3B
$GAGSA,A,3,103,108,113,115,121,126,127,,,,,,1.0,0.5,0.8*11
$GPGSV,9,1,34,005,30,049,46,010,09,196,26,013,06,079,27,015,13,114,39*7A
$GPGSV,9,2,34,016,30,311,50,018,80,308,50,020,04,039,32,023,35,182,50*7C
$GPGSV,9,3,34,025,14,168,27,026,49,277,46,027,03,297,,029,54,096,46*78
$GPGSV,9,4,34,031,04,237,25,068,13,022,45,069,36,072,49,070,21,142,37*7C
$GPGSV,9,5,34,074,11,200,20,075,41,251,50,076,27,320,55,084,37,058,36*70
$GPGSV,9,6,34,085,56,319,53,086,18,279,32,101,47,286,47,103,13,050,32*70
$GPGSV,9,7,34,105,15,057,,107,02,147,,108,17,101,38,113,64,043,46*74
$GPGSV,9,8,34,115,14,066,36,121,46,208,47,126,51,267,44,127,07,169,21*7F
$GPGSV,9,9,34,131,07,327,36,133,05,254,*7E
$GPRMC,111524.00,A,4442.5641,N,03957.5129,E,000.00000,145.7,230522,,,A*58
$GPZDA,111524.00,23,05,2022,+00,00*49
$GPGGA,111524.20,4442.5641,N,03957.5129,E,1,24,0.5,00160.5,M,0017.4,M,,*68
$GLGSA,A,3,068,069,070,074,075,076,084,085,086,,,,1.0,0.5,0.9*1A
$GPGSA,A,3,005,013,015,016,018,023,025,026,029,,,,1.0,0.5,0.9*0B
$GAGSA,A,3,103,108,113,115,121,126,,,,,,,1.0,0.5,0.9*24
$GPRMC,111524.20,A,4442.5641,N,03957.5129,E,000.00000,151.2,230522,,,A*5A
$GPGGA,111524.40,4442.5641,N,03957.5129,E,1,26,0.5,00160.5,M,0017.4,M,,*6C
$GLGSA,A,3,068,069,070,074,075,076,084,085,086,,,,1.0,0.5,0.8*1B
$GPGSA,A,3,005,010,013,015,016,018,023,025,026,029,,,1.0,0.5,0.8*3B
$GAGSA,A,3,103,108,113,115,121,126,127,,,,,,1.0,0.5,0.8*11
$GPRMC,111524.40,A,4442.5641,N,03957.5129,E,000.00000,153.1,230522,,,A*5D
$GPGGA,111524.60,4442.5641,N,03957.5129,E,1,25,0.5,00160.5,M,0017.4,M,,*6D
$GLGSA,A,3,068,069,070,074,075,076,084,085,086,,,,1.0,0.5,0.8*1B
$GPGSA,A,3,005,010,013,015,016,018,023,025,026,029,,,1.0,0.5,0.8*3B
$GAGSA,A,3,103,108,113,115,121,126,,,,,,,1.0,0.5,0.8*25
$GPRMC,111524.60,A,4442.5641,N,03957.5129,E,000.00000,155.7,230522,,,A*5F
$GPGGA,111524.80,4442.5641,N,03957.5129,E,1,26,0.5,00160.5,M,0017.4,M,,*60
$GLGSA,A,3,068,069,070,074,075,076,084,085,086,,,,1.0,0.5,0.8*1B
$GPGSA,A,3,005,010,013,015,016,018,023,025,026,029,,,1.0,0.5,0.8*3B
$GAGSA,A,3,103,108,113,115,121,126,127,,,,,,1.0,0.5,0.8*11
$GPRMC,111524.80,A,4442.5641,N,03957.5129,E,000.00000,157.6,230522,,,A*52
$GPGGA,111525.00,4442.5641,N,03957.5129,E,1,25,0.5,00160.5,M,0017.4,M,,*6A
$GLGSA,A,3,068,069,070,074,075,076,084,085,086,,,,1.0,0.5,0.8*1B
$GPGSA,A,3,005,010,013,015,016,018,023,025,026,029,,,1.0,0.5,0.8*3B
$GAGSA,A,3,103,108,113,115,121,126,,,,,,,1.0,0.5,0.8*25
$GPGSV,9,1,34,005,30,049,47,010,09,196,27,013,06,079,27,015,13,114,39*7A
$GPGSV,9,2,34,016,30,311,50,018,80,309,50,020,04,039,32,023,35,182,50*7D
$GPGSV,9,3,34,025,14,168,27,026,49,276,46,027,03,297,,029,53,096,46*7E
$GPGSV,9,4,34,031,04,237,23,068,13,022,45,069,36,072,49,070,21,142,37*7A
$GPGSV,9,5,34,074,11,200,21,075,41,251,50,076,27,320,55,084,37,058,37*70
$GPGSV,9,6,34,085,56,319,54,086,18,279,31,101,47,286,47,103,13,050,33*75
$GPGSV,9,7,34,105,15,057,,107,02,147,,108,17,101,38,113,64,043,46*74
$GPGSV,9,8,34,115,14,066,36,121,46,208,46,126,51,267,45,127,07,169,24*7A
$GPGSV,9,9,34,131,07,327,35,133,05,254,*7D
$GPRMC,111525.00,A,4442.5641,N,03957.5129,E,000.00000,156.4,230522,,,A*58
$GPZDA,111525.00,23,05,2022,+00,00*48
$GPGGA,111525.20,4442.5641,N,03957.5129,E,1,25,0.5,00160.5,M,0017.4,M,,*68
$GLGSA,A,3,068,069,070,074,075,076,084,085,086,,,,1.0,0.5,0.8*1B
$GPGSA,A,3,005,010,013,015,016,018,023,025,026,029,,,1.0,0.5,0.8*3B
$GAGSA,A,3,103,108,113,115,121,126,,,,,,,1.0,0.5,0.8*25
$GPRMC,111525.20,A,4442.5641,N,03957.5129,E,000.00000,151.0,230522,,,A*59
$GPGGA,111525.40,4442.5641,N,03957.5129,E,1,26,0.5,00160.5,M,0017.4,M,,*6D
$GLGSA,A,3,068,069,070,074,075,076,084,085,086,,,,1.0,0.5,0.8*1B
$GPGSA,A,3,005,010,013,015,016,018,023,025,026,029,,,1.0,0.5,0.8*3B
$GAGSA,A,3,103,108,113,115,121,126,127,,,,,,1.0,0.5,0.8*11
$GPRMC,111525.40,A,4442.5641,N,03957.5129,E,000.00000,145.2,230522,,,A*58
$GPGGA,111525.60,4442.5641,N,03957.5129,E,1,26,0.5,00160.5,M,0017.4,M,,*6F
$GLGSA,A,3,068,069,070,074,075,076,084,085,086,,,,1.0,0.5,0.8*1B
$GPGSA,A,3,005,010,013,015,016,018,023,025,026,029,,,1.0,0.5,0.8*3B
$GAGSA,A,3,103,108,113,115,121,126,127,,,,,,1.0,0.5,0.8*11
$GPRMC,111525.60,A,4442.5641,N,03957.5129,E,000.00000,140.5,230522,,,A*58
$GPGGA,111525.80,4442.5641,N,03957.5129,E,1,26,0.5,00160.5,M,0017.4,M,,*61
$GLGSA,A,3,068,069,070,074,075,076,084,085,086,,,,1.0,0.5,0.8*1B
$GPGSA,A,3,005,010,013,015,016,018,023,025,026,029,,,1.0,0.5,0.8*3B
$GAGSA,A,3,103,108,113,115,121,126,127,,,,,,1.0,0.5,0.8*11
$GPRMC,111525.80,A,4442.5641,N,03957.5129,E,000.00000,136.6,230522,,,A*54
$GPGGA,111526.00,4442.5641,N,03957.5129,E,1,25,0.5,00160.5,M,0017.4,M,,*69
$GLGSA,A,3,068,069,070,075,076,084,085,086,,,,,1.0,0.5,0.9*29
$GPGSA,A,3,005,010,013,015,016,018,023,025,026,029,,,1.0,0.5,0.9*3A
$GAGSA,A,3,103,108,113,115,121,126,127,,,,,,1.0,0.5,0.9*10
$GPGSV,9,1,34,005,30,049,46,010,09,196,29,013,06,079,27,015,13,114,38*74
$GPGSV,9,2,34,016,30,310,50,018,80,309,49,020,04,039,32,023,35,182,50*74
$GPGSV,9,3,34,025,14,168,26,026,49,276,46,027,03,297,,029,53,096,45*7C
$GPGSV,9,4,34,031,04,237,25,068,13,022,44,069,36,072,49,070,21,142,37*7D
$GPGSV,9,5,34,074,11,200,19,075,41,251,50,076,27,320,55,084,37,058,37*7B
$GPGSV,9,6,34,085,56,319,54,086,18,279,31,101,47,286,47,103,13,050,33*75
$GPGSV,9,7,34,105,15,057,,107,02,147,,108,17,101,38,113,64,043,46*74
$GPGSV,9,8,34,115,14,066,37,121,46,208,46,126,51,267,45,127,07,169,24*7B
$GPGSV,9,9,34,131,07,327,36,133,05,254,*7E
$GPRMC,111526.00,A,4442.5641,N,03957.5129,E,000.00000,131.6,230522,,,A*58
$GPZDA,111526.00,23,05,2022,+00,00*4B
$GPGGA,111526.20,4442.5641,N,03957.5129,E,1,25,0.5,00160.5,M,0017.4,M,,*6B
$GLGSA,A,3,068,069,070,075,076,084,085,086,,,,,1.0,0.5,0.9*29
$GPGSA,A,3,005,010,013,015,016,018,023,025,026,029,,,1.0,0.5,0.9*3A
$GAGSA,A,3,103,108,113,115,121,126,127,,,,,,1.0,0.5,0.9*10
$GPRMC,111526.20,A,4442.5641,N,03957.5129,E,000.00000,126.5,230522,,,A*5F
$GPGGA,111526.40,4442.5641,N,03957.5129,E,1,25,0.5,00160.5,M,0017.4,M,,*6D
$GLGSA,A,3,068,069,070,074,075,076,084,085,086,,,,1.0,0.5,0.9*1A
$GPGSA,A,3,005,010,015,016,018,023,025,026,029,,,,1.0,0.5,0.9*08
$GAGSA,A,3,103,108,113,115,121,126,127,,,,,,1.0,0.5,0.9*10
$GPRMC,111526.40,A,4442.5641,N,03957.5129,E,000.00000,120.7,230522,,,A*5D
$GPGGA,111526.60,4442.5641,N,03957.5129,E,1,25,0.5,00160.5,M,0017.4,M,,*6F
$GLGSA,A,3,068,069,070,074,075,076,084,085,086,,,,1.0,0.5,0.8*1B
$GPGSA,A,3,005,010,013,015,016,018,023,025,026,029,,,1.0,0.5,0.8*3B
$GAGSA,A,3,103,108,113,115,121,126,,,,,,,1.0,0.5,0.8*25
$GPRMC,111526.60,A,4442.5641,N,03957.5129,E,000.00000,117.6,230522,,,A*5A
$GPGGA,111526.80,4442.5641,N,03957.5129,E,1,26,0.5,00160.5,M,0017.4,M,,*62
$GLGSA,A,3,068,069,070,074,075,076,084,085,086,,,,1.0,0.5,0.8*1B
$GPGSA,A,3,005,010,013,015,016,018,023,025,026,029,,,1.0,0.5,0.8*3B
$GAGSA,A,3,103,108,113,115,121,126,127,,,,,,1.0,0.5,0.8*11
$GPRMC,111526.80,A,4442.5641,N,03957.5129,E,000.00000,116.0,230522,,,A*53
$GPGGA,111527.00,4442.5641,N,03957.5129,E,1,25,0.5,00160.5,M,0017.4,M,,*68
$GLGSA,A,3,068,069,070,075,076,084,085,086,,,,,1.0,0.5,0.9*29
$GPGSA,A,3,005,010,013,015,016,018,023,025,026,029,,,1.0,0.5,0.9*3A
$GAGSA,A,3,103,108,113,115,121,126,127,,,,,,1.0,0.5,0.9*10
$GPGSV,9,1,34,005,30,049,46,010,09,196,29,013,06,079,27,015,13,114,39*75
$GPGSV,9,2,34,016,30,310,50,018,80,309,49,020,04,039,31,023,35,182,50*77
$GPGSV,9,3,34,025,14,168,27,026,49,276,46,027,03,297,,029,53,096,46*7E
$GPGSV,9,4,34,031,04,237,24,068,13,022,44,069,36,072,48,070,21,142,37*7D
$GPGSV,9,5,34,074,11,200,18,075,41,251,50,076,27,320,55,084,37,058,37*7A
$GPGSV,9,6,34,085,56,319,54,086,18,279,31,101,47,286,47,103,13,050,33*75
$GPGSV,9,7,34,105,15,057,,107,02,147,,108,17,101,38,113,64,043,46*74
$GPGSV,9,8,34,115,14,066,37,121,46,208,46,126,51,267,45,127,07,169,25*7A
$GPGSV,9,9,34,131,07,327,36,133,05,254,*7E
$GPRMC,111527.00,A,4442.5641,N,03957.5129,E,000.00000,115.0,230522,,,A*59
$GPZDA,111527.00,23,05,2022,+00,00*4A
$GPGGA,111527.20,4442.5641,N,03957.5129,E,1,25,0.5,00160.5,M,0017.4,M,,*6A
$GLGSA,A,3,068,069,070,074,075,076,084,085,086,,,,1.0,0.5,0.9*1A
$GPGSA,A,3,005,013,015,016,018,023,025,026,029,,,,1.0,0.5,0.9*0B
$GAGSA,A,3,103,108,113,115,121,126,127,,,,,,1.0,0.5,0.9*10
$GPRMC,111527.20,A,4442.5641,N,03957.5129,E,000.00000,114.5,230522,,,A*5F
$GPGGA,111527.40,4442.5641,N,03957.5129,E,1,25,0.5,00160.5,M,0017.4,M,,*6C
$GLGSA,A,3,068,069,070,074,075,076,084,085,086,,,,1.0,0.5,0.8*1B
$GPGSA,A,3,005,010,013,015,016,018,023,025,026,029,,,1.0,0.5,0.8*3B
$GAGSA,A,3,103,108,113,115,121,126,,,,,,,1.0,0.5,0.8*25
$GPRMC,111527.40,A,4442.5641,N,03957.5129,E,000.00000,114.2,230522,,,A*5E
$GPGGA,111527.60,4442.5641,N,03957.5129,E,1,26,0.5,00160.5,M,0017.4,M,,*6D
$GLGSA,A,3,068,069,070,074,075,076,084,085,086,,,,1.0,0.5,0.8*1B
$GPGSA,A,3,005,010,013,015,016,018,023,025,026,029,,,1.0,0.5,0.8*3B
$GAGSA,A,3,103,108,113,115,121,126,127,,,,,,1.0,0.5,0.8*11
$GPRMC,111527.60,A,4442.5641,N,03957.5129,E,000.00000,114.1,230522,,,A*5F
$GPGGA,111527.80,4442.5641,N,03957.5129,E,1,25,0.5,00160.5,M,0017.4,M,,*60
$GLGSA,A,3,068,069,070,074,075,076,084,085,086,,,,1.0,0.5,0.8*1B
$GPGSA,A,3,005,010,013,015,016,018,023,025,026,029,,,1.0,0.5,0.8*3B
$GAGSA,A,3,103,108,113,115,121,126,,,,,,,1.0,0.5,0.8*25
$GPRMC,111527.80,A,4442.5641,N,03957.5129,E,000.00000,114.0,230522,,,A*50
$GPGGA,111528.00,4442.5641,N,03957.5129,E,1,26,0.5,00160.5,M,0017.4,M,,*64
$GLGSA,A,3,068,069,070,074,075,076,084,085,086,,,,1.0,0.5,0.8*1B
$GPGSA,A,3,005,010,013,015,016,018,023,025,026,029,,,1.0,0.5,0.8*3B
$GAGSA,A,3,103,108,113,115,121,126,127,,,,,,1.0,0.5,0.8*11
$GPGSV,9,1,34,005,30,049,46,010,09,196,27,013,06,079,26,015,13,114,39*7A
$GPGSV,9,2,34,016,30,310,50,018,80,309,49,020,04,039,31,023,35,182,50*77
$GPGSV,9,3,34,025,14,168,26,026,49,276,46,027,03,297,,029,53,096,46*7F
$GPGSV,9,4,34,031,04,237,21,068,13,022,44,069,36,072,49,070,21,142,37*79
$GPGSV,9,5,34,074,11,200,21,075,41,251,50,076,27,320,55,084,37,058,37*70
$GPGSV,9,6,34,085,56,319,54,086,18,279,32,101,47,286,47,103,13,050,33*76
$GPGSV,9,7,34,105,15,057,,107,02,147,,108,17,101,38,113,64,043,46*74
$GPGSV,9,8,34,115,14,066,37,121,46,208,46,126,51,267,46,127,07,169,25*79
$GPGSV,9,9,34,131,07,327,36,133,05,254,*7E
$GPRMC,111528.00,A,4442.5641,N,03957.5129,E,000.00000,113.9,230522,,,A*59
$GPZDA,111528.00,23,05,2022,+00,00*45
$GPGGA,111528.20,4442.5641,N,03957.5129,E,1,25,0.5,00160.5,M,0017.4,M,,*65
$GLGSA,A,3,068,069,070,074,075,076,084,085,086,,,,1.0,0.5,0.8*1B
$GPGSA,A,3,005,010,013,015,016,018,023,025,026,029,,,1.0,0.5,0.8*3B
$GAGSA,A,3,103,108,113,115,121,126,,,,,,,1.0,0.5,0.8*25
$GPRMC,111528.20,A,4442.5641,N,03957.5129,E,000.00000,113.9,230522,,,A*5B
$GPGGA,111528.40,4442.5641,N,03957.5129,E,1,26,0.5,00160.5,M,0017.4,M,,*60
$GLGSA,A,3,068,069,070,074,075,076,084,085,086,,,,1.0,0.5,0.8*1B
$GPGSA,A,3,005,010,013,015,016,018,023,025,026,029,,,1.0,0.5,0.8*3B
$GAGSA,A,3,103,108,113,115,121,126,127,,,,,,1.0,0.5,0.8*11
$GPRMC,111528.40,A,4442.5641,N,03957.5129,E,000.00000,113.9,230522,,,A*5D
$GPGGA,111528.60,4442.5641,N,03957.5129,E,1,25,0.5,00160.5,M,0017.4,M,,*61
$GLGSA,A,3,068,069,070,074,075,076,084,085,086,,,,1.0,0.5,0.8*1B
$GPGSA,A,3,005,010,013,015,016,018,023,025,026,029,,,1.0,0.5,0.8*3B
$GAGSA,A,3,103,108,113,115,121,126,,,,,,,1.0,0.5,0.8*25
$GPRMC,111528.60,A,4442.5641,N,03957.5129,E,000.00000,113.9,230522,,,A*5F
$GPGGA,111528.80,4442.5641,N,03957.5129,E,1,26,0.5,00160.5,M,0017.4,M,,*6C
$GLGSA,A,3,068,069,070,074,075,076,084,085,086,,,,1.0,0.5,0.8*1B
$GPGSA,A,3,005,010,013,015,016,018,023,025,026,029,,,1.0,0.5,0.8*3B
$GAGSA,A,3,103,108,113,115,121,126,127,,,,,,1.0,0.5,0.8*11
$GPRMC,111528.80,A,4442.5641,N,03957.5129,E,000.00000,113.9,230522,,,A*51
$GPGGA,111529.00,4442.5641,N,03957.5129,E,1,26,0.5,00160.5,M,0017.4,M,,*65
$GLGSA,A,3,068,069,070,074,075,076,084,085,086,,,,1.0,0.5,0.8*1B
$GPGSA,A,3,005,010,013,015,016,018,023,025,026,029,,,1.0,0.5,0.8*3B
$GAGSA,A,3,103,108,113,115,121,126,127,,,,,,1.0,0.5,0.8*11
$GPGSV,9,1,34,005,30,049,45,010,09,196,28,013,06,079,28,015,13,114,38*79
$GPGSV,9,2,34,016,30,310,50,018,80,309,49,020,04,039,31,023,35,182,50*77
$GPGSV,9,3,34,025,14,168,26,026,49,276,47,027,03,297,,029,53,096,46*7E
$GPGSV,9,4,34,031,04,237,22,068,13,022,44,069,36,072,49,070,21,142,37*7A
$GPGSV,9,5,34,074,11,200,18,075,41,251,51,076,27,320,55,084,37,058,37*7B
$GPGSV,9,6,34,085,56,319,54,086,18,279,31,101,47,286,47,103,13,050,33*75
$GPGSV,9,7,34,105,15,057,,107,02,147,,108,17,101,38,113,64,043,46*74
$GPGSV,9,8,34,115,14,066,37,121,46,208,46,126,51,267,45,127,07,169,24*7B
$GPGSV,9,9,34,131,07,327,36,133,05,254,*7E
$GPRMC,111529.00,A,4442.5641,N,03957.5129,E,000.00000,113.9,230522,,,A*58
$GPZDA,111529.00,23,05,2022,+00,00*44
$GPGGA,111529.20,4442.5641,N,03957.5129,E,1,26,0.5,00160.5,M,0017.4,M,,*67
$GLGSA,A,3,068,069,070,074,075,076,084,085,086,,,,1.0,0.5,0.8*1B
$GPGSA,A,3,005,010,013,015,016,018,023,025,026,029,,,1.0,0.5,0.8*3B
$GAGSA,A,3,103,108,113,115,121,126,127,,,,,,1.0,0.5,0.8*11
$GPRMC,111529.20,A,4442.5641,N,03957.5129,E,000.00000,113.9,230522,,,A*5A
$GPGGA,111529.40,4442.5641,N,03957.5129,E,1,25,0.5,00160.5,M,0017.4,M,,*62
$GLGSA,A,3,068,069,070,074,075,076,084,085,086,,,,1.0,0.5,0.8*1B
$GPGSA,A,3,005,010,013,015,016,018,023,025,026,029,,,1.0,0.5,0.8*3B
$GAGSA,A,3,103,108,113,115,121,126,,,,,,,1.0,0.5,0.8*25
$GPRMC,111529.40,A,4442.5641,N,03957.5129,E,000.00000,113.9,230522,,,A*5C
$GPGGA,111529.60,4442.5641,N,03957.5129,E,1,26,0.5,00160.5,M,0017.4,M,,*63
$GLGSA,A,3,068,069,070,074,075,076,084,085,086,,,,1.0,0.5,0.8*1B
$GPGSA,A,3,005,010,013,015,016,018,023,025,026,029,,,1.0,0.5,0.8*3B
$GAGSA,A,3,103,108,113,115,121,126,127,,,,,,1.0,0.5,0.8*11
$GPRMC,111529.60,A,4442.5641,N,03957.5129,E,000.00000,110.3,230522,,,A*57
$GPGGA,111529.80,4442.5641,N,03957.5129,E,1,26,0.5,00160.5,M,0017.4,M,,*6D
$GLGSA,A,3,068,069,070,074,075,076,084,085,086,,,,1.0,0.5,0.8*1B
$GPGSA,A,3,005,010,013,015,016,018,023,025,026,029,,,1.0,0.5,0.8*3B
$GAGSA,A,3,103,108,113,115,121,126,127,,,,,,1.0,0.5,0.8*11
$GPRMC,111529.80,A,4442.5641,N,03957.5129,E,000.00000,109.3,230522,,,A*51
$GPGGA,111530.00,4442.5641,N,03957.5129,E,1,25,0.5,00160.5,M,0017.4,M,,*6E
$GLGSA,A,3,068,069,070,075,076,084,085,086,,,,,1.0,0.5,0.9*29
$GPGSA,A,3,005,010,013,015,016,018,023,025,026,029,,,1.0,0.5,0.9*3A
$GAGSA,A,3,103,108,113,115,121,126,127,,,,,,1.0,0.5,0.9*10
$GPGSV,9,1,34,005,30,049,45,010,09,196,32,013,06,079,29,015,13,114,39*72
$GPGSV,9,2,34,016,30,310,49,018,80,309,49,020,04,039,32,023,35,182,50*7C
$GPGSV,9,3,34,025,14,168,23,026,49,276,47,027,03,297,,029,53,096,46*7B
$GPGSV,9,4,34,031,04,237,20,068,13,022,44,069,36,072,48,070,21,142,37*79
$GPGSV,9,5,34,074,11,200,17,075,41,251,51,076,27,320,54,084,37,058,37*75
$GPGSV,9,6,34,085,56,319,53,086,18,279,30,101,47,286,47,103,13,050,34*74
$GPGSV,9,7,34,105,15,057,,107,02,147,,108,17,101,37,113,64,043,46*7B
$GPGSV,9,8,34,115,14,066,37,121,46,208,47,126,51,267,46,127,07,169,25*78
$GPGSV,9,9,34,131,07,327,36,133,05,254,*7E
$GPRMC,111530.00,A,4442.5641,N,03957.5129,E,000.00000,109.6,230522,,,A*54
$GPZDA,111530.00,23,05,2022,+00,00*4C
$GPGGA,111530.20,4442.5641,N,03957.5129,E,1,26,0.5,00160.5,M,0017.4,M,,*6F
$GLGSA,A,3,068,069,070,074,075,076,084,085,086,,,,1.0,0.5,0.8*1B
$GPGSA,A,3,005,010,013,015,016,018,023,025,026,029,,,1.0,0.5,0.8*3B
$GAGSA,A,3,103,108,113,115,121,126,127,,,,,,1.0,0.5,0.8*11
$GPRMC,111530.20,A,4442.5641,N,03957.5129,E,000.00000,111.5,230522,,,A*5C
$GPGGA,111530.40,4442.5641,N,03957.5129,E,1,25,0.5,00160.5,M,0017.4,M,,*6A
$GLGSA,A,3,068,069,070,075,076,084,085,086,,,,,1.0,0.5,0.9*29
$GPGSA,A,3,005,010,013,015,016,018,023,025,026,029,,,1.0,0.5,0.9*3A
$GAGSA,A,3,103,108,113,115,121,126,127,,,,,,1.0,0.5,0.9*10
$GPRMC,111530.40,A,4442.5641,N,03957.5129,E,000.00000,112.5,230522,,,A*59
$GPGGA,111530.60,4442.5641,N,03957.5129,E,1,25,0.5,00160.5,M,0017.4,M,,*68
$GLGSA,A,3,068,069,070,074,075,076,084,085,086,,,,1.0,0.5,0.8*1B
$GPGSA,A,3,005,010,013,015,016,018,023,026,029,,,,1.0,0.5,0.8*0C
$GAGSA,A,3,103,108,113,115,121,126,127,,,,,,1.0,0.5,0.8*11
$GPRMC,111530.60,A,4442.5641,N,03957.5129,E,000.00000,113.1,230522,,,A*5E
$GPGGA,111530.80,4442.5641,N,03957.5129,E,1,26,0.5,00160.5,M,0017.4,M,,*65
$GLGSA,A,3,068,069,070,074,075,076,084,085,086,,,,1.0,0.5,0.8*1B
$GPGSA,A,3,005,010,013,015,016,018,023,025,026,029,,,1.0,0.5,0.8*3B
$GAGSA,A,3,103,108,113,115,121,126,127,,,,,,1.0,0.5,0.8*11
$GPRMC,111530.80,A,4442.5641,N,03957.5129,E,000.00000,113.5,230522,,,A*54
$GPGGA,111531.00,4442.5641,N,03957.5129,E,1,25,0.5,00160.5,M,0017.4,M,,*6F
$GLGSA,A,3,068,069,070,074,075,076,084,085,086,,,,1.0,0.5,0.8*1B
$GPGSA,A,3,005,010,013,015,016,018,023,025,026,029,,,1.0,0.5,0.8*3B
$GAGSA,A,3,103,108,113,115,121,126,,,,,,,1.0,0.5,0.8*25
$GPGSV,9,1,34,005,30,049,44,010,09,196,34,013,06,079,29,015,13,114,39*75
$GPGSV,9,2,34,016,30,310,49,018,80,309,49,020,04,039,32,023,35,182,50*7C
$GPGSV,9,3,34,025,14,168,24,026,49,276,47,027,03,297,,029,53,096,46*7C
$GPGSV,9,4,34,031,04,237,20,068,13,022,44,069,36,072,48,070,21,142,37*79
$GPGSV,9,5,34,074,11,200,15,075,41,251,52,076,27,320,54,084,37,058,38*7B
$GPGSV,9,6,34,085,56,319,54,086,18,279,31,101,47,286,46,103,13,050,34*73
$GPGSV,9,7,34,105,15,057,,107,02,147,,108,17,101,37,113,64,043,46*7B
$GPGSV,9,8,34,115,14,066,37,121,46,208,46,126,51,267,46,127,07,169,23*7F
$GPGSV,9,9,34,131,07,327,36,133,05,254,*7E
$GPRMC,111531.00,A,4442.5641,N,03957.5129,E,000.00000,113.6,230522,,,A*5E
$GPZDA,111531.00,23,05,2022,+00,00*4D
$GPGGA,111531.20,4442.5641,N,03957.5129,E,1,26,0.5,00160.5,M,0017.4,M,,*6E
$GLGSA,A,3,068,069,070,074,075,076,084,085,086,,,,1.0,0.5,0.8*1B
$GPGSA,A,3,005,010,013,015,016,018,023,025,026,029,,,1.0,0.5,0.8*3B
$GAGSA,A,3,103,108,113,115,121,126,127,,,,,,1.0,0.5,0.8*11
$GPRMC,111531.20,A,4442.5641,N,03957.5129,E,000.00000,113.7,230522,,,A*5D
$GPGGA,111531.40,4442.5641,N,03957.5129,E,1,26,0.5,00160.5,M,0017.4,M,,*68
$GLGSA,A,3,068,069,070,074,075,076,084,085,086,,,,1.0,0.5,0.8*1B
$GPGSA,A,3,005,010,013,015,016,018,023,025,026,029,,,1.0,0.5,0.8*3B
$GAGSA,A,3,103,108,113,115,121,126,127,,,,,,1.0,0.5,0.8*11
$GPRMC,111531.40,A,4442.5641,N,03957.5129,E,000.00000,112.4,230522,,,A*59
$GPGGA,111531.60,4442.5641,N,03957.5129,E,1,25,0.5,00160.5,M,0017.4,M,,*69
$GLGSA,A,3,068,069,070,074,075,076,084,085,086,,,,1.0,0.5,0.8*1B
$GPGSA,A,3,005,010,013,015,016,018,023,025,026,029,,,1.0,0.5,0.8*3B
$GAGSA,A,3,103,108,113,115,121,126,,,,,,,1.0,0.5,0.8*25
$GPRMC,111531.60,A,4442.5641,N,03957.5129,E,000.00000,106.7,230522,,,A*5D
$GPGGA,111531.80,4442.5641,N,03957.5129,E,1,25,0.5,00160.5,M,0017.4,M,,*67
$GLGSA,A,3,068,069,070,075,076,084,085,086,,,,,1.0,0.5,0.9*29
$GPGSA,A,3,005,010,013,015,016,018,023,025,026,029,,,1.0,0.5,0.9*3A
$GAGSA,A,3,103,108,113,115,121,126,127,,,,,,1.0,0.5,0.9*10
$GPRMC,111531.80,A,4442.5641,N,03957.5129,E,000.00000,104.0,230522,,,A*56
$GPGGA,111532.00,4442.5641,N,03957.5129,E,1,26,0.5,00160.5,M,0017.4,M,,*6F
$GLGSA,A,3,068,069,070,074,075,076,084,085,086,,,,1.0,0.5,0.8*1B
$GPGSA,A,3,005,010,013,015,016,018,023,025,026,029,,,1.0,0.5,0.8*3B
$GAGSA,A,3,103,108,113,115,121,126,127,,,,,,1.0,0.5,0.8*11
$GPGSV,9,1,34,005,30,049,45,010,09,196,33,013,06,079,29,015,13,114,39*73
$GPGSV,9,2,34,016,30,310,48,018,80,309,49,020,04,039,32,023,35,182,50*7D
$GPGSV,9,3,34,025,14,168,26,026,49,276,46,027,03,297,,029,53,096,46*7F
$GPGSV,9,4,34,031,04,237,20,068,13,022,44,069,36,072,49,070,21,142,37*78
$GPGSV,9,5,34,074,11,200,19,075,41,251,52,076,27,320,55,084,37,058,38*76
$GPGSV,9,6,34,085,56,319,54,086,18,279,30,101,47,286,47,103,13,050,34*73
$GPGSV,9,7,34,105,15,057,,107,02,147,,108,17,101,37,113,64,043,46*7B
$GPGSV,9,8,34,115,14,066,37,121,46,208,46,126,51,267,46,127,07,169,23*7F
$GPGSV,9,9,34,131,07,327,37,133,05,254,*7F
$GPRMC,111532.00,A,4442.5641,N,03957.5129,E,000.00000,102.7,230522,,,A*5C
$GPZDA,111532.00,23,05,2022,+00,00*4E
$GPGGA,111532.20,4442.5641,N,03957.5129,E,1,26,0.5,00160.5,M,0017.4,M,,*6D
$GLGSA,A,3,068,069,070,074,075,076,084,085,086,,,,1.0,0.5,0.8*1B
$GPGSA,A,3,005,010,013,015,016,018,023,025,026,029,,,1.0,0.5,0.8*3B
$GAGSA,A,3,103,108,113,115,121,126,127,,,,,,1.0,0.5,0.8*11
$GPRMC,111532.20,A,4442.5641,N,03957.5129,E,000.00000,102.8,230522,,,A*51
$GPGGA,111532.40,4442.5641,N,03957.5129,E,1,26,0.5,00160.5,M,0017.4,M,,*6B
$GLGSA,A,3,068,069,070,074,075,076,084,085,086,,,,1.0,0.5,0.8*1B
$GPGSA,A,3,005,010,013,015,016,018,023,025,026,029,,,1.0,0.5,0.8*3B
$GAGSA,A,3,103,108,113,115,121,126,127,,,,,,1.0,0.5,0.8*11
$GPRMC,111532.40,A,4442.5641,N,03957.5129,E,000.00000,104.0,230522,,,A*59
$GPGGA,111532.60,4442.5641,N,03957.5129,E,1,26,0.5,00160.5,M,0017.4,M,,*69
$GLGSA,A,3,068,069,070,074,075,076,084,085,086,,,,1.0,0.5,0.8*1B
$GPGSA,A,3,005,010,013,015,016,018,023,025,026,029,,,1.0,0.5,0.8*3B
$GAGSA,A,3,103,108,113,115,121,126,127,,,,,,1.0,0.5,0.8*11
$GPRMC,111532.60,A,4442.5641,N,03957.5129,E,000.00000,105.3,230522,,,A*59
$GPGGA,111532.80,4442.5641,N,03957.5129,E,1,25,0.5,00160.5,M,0017.4,M,,*64
$GLGSA,A,3,068,069,070,074,075,076,084,085,086,,,,1.0,0.5,0.8*1B
$GPGSA,A,3,005,010,013,015,016,018,023,025,026,029,,,1.0,0.5,0.8*3B
$GAGSA,A,3,103,108,113,115,121,126,,,,,,,1.0,0.5,0.8*25
$GPRMC,111532.80,A,4442.5641,N,03957.5129,E,000.00000,106.4,230522,,,A*53
$GPGGA,111533.00,4442.5641,N,03957.5129,E,1,25,0.5,00160.5,M,0017.4,M,,*6D
$GLGSA,A,3,068,069,070,074,075,076,084,085,086,,,,1.0,0.5,0.8*1B
$GPGSA,A,3,005,010,013,015,016,018,023,025,026,029,,,1.0,0.5,0.8*3B
$GAGSA,A,3,103,108,113,115,121,126,,,,,,,1.0,0.5,0.8*25
$GPGSV,9,1,34,005,30,049,44,010,09,196,32,013,06,079,28,015,13,114,39*72
$GPGSV,9,2,34,016,30,310,49,018,80,309,49,020,04,039,29,023,35,182,50*76
$GPGSV,9,3,34,025,14,168,26,026,49,276,46,027,03,297,,029,53,096,46*7F
$GPGSV,9,4,34,031,04,237,24,068,13,022,44,069,36,072,49,070,21,142,37*7C
$GPGSV,9,5,34,074,11,200,21,075,41,251,52,076,27,320,55,084,37,058,38*7D
$GPGSV,9,6,34,085,56,319,54,086,18,279,29,101,47,286,47,103,13,050,34*7B
$GPGSV,9,7,34,105,15,057,,107,02,147,,108,17,101,37,113,64,043,46*7B
$GPGSV,9,8,34,115,14,066,36,121,46,208,46,126,51,267,45,127,07,169,23*7D
$GPGSV,9,9,34,131,07,327,37,133,05,254,*7F
$GPRMC,111533.00,A,4442.5641,N,03957.5129,E,000.00000,107.3,230522,,,A*5C
$GPZDA,111533.00,23,05,2022,+00,00*4F
$GPGGA,111533.20,4442.5641,N,03957.5129,E,1,25,0.5,00160.5,M,0017.4,M,,*6F
$GLGSA,A,3,068,069,070,074,075,076,084,085,086,,,,1.0,0.5,0.8*1B
$GPGSA,A,3,005,010,013,015,016,018,023,025,026,029,,,1.0,0.5,0.8*3B
$GAGSA,A,3,103,108,113,115,121,126,,,,,,,1.0,0.5,0.8*25
$GPRMC,111533.20,A,4442.5641,N,03957.5129,E,000.00000,105.5,230522,,,A*5A
$GPGGA,111533.40,4442.5641,N,03957.5129,E,1,26,0.5,00160.5,M,0017.4,M,,*6A
$GLGSA,A,3,068,069,070,074,075,076,084,085,086,,,,1.0,0.5,0.8*1B
$GPGSA,A,3,005,010,013,015,016,018,023,025,026,029,,,1.0,0.5,0.8*3B
$GAGSA,A,3,103,108,113,115,121,126,127,,,,,,1.0,0.5,0.8*11
$GPRMC,111533.40,A,4442.5641,N,03957.5129,E,000.00000,104.9,230522,,,A*51
$GPGGA,111533.60,4442.5641,N,03957.5129,E,1,25,0.5,00160.5,M,0017.4,M,,*6B
$GLGSA,A,3,068,069,070,074,075,076,084,085,086,,,,1.0,0.5,0.8*1B
$GPGSA,A,3,005,010,013,015,016,018,023,025,026,029,,,1.0,0.5,0.8*3B
$GAGSA,A,3,103,108,113,115,121,126,,,,,,,1.0,0.5,0.8*25
$GPRMC,111533.60,A,4442.5641,N,03957.5129,E,000.00000,104.2,230522,,,A*58
$GPGGA,111533.80,4442.5641,N,03957.5129,E,1,25,0.5,00160.5,M,0017.4,M,,*65
$GLGSA,A,3,068,069,070,074,075,076,084,085,086,,,,1.0,0.5,0.8*1B
$GPGSA,A,3,005,010,013,015,016,018,023,025,026,029,,,1.0,0.5,0.8*3B
$GAGSA,A,3,103,108,113,115,121,126,,,,,,,1.0,0.5,0.8*25
$GPRMC,111533.80,A,4442.5641,N,03957.5129,E,000.00000,108.0,230522,,,A*58
$GPGGA,111534.00,4442.5641,N,03957.5129,E,1,26,0.5,00160.5,M,0017.4,M,,*69
$GLGSA,A,3,068,069,070,074,075,076,084,085,086,,,,1.0,0.5,0.8*1B
$GPGSA,A,3,005,010,013,015,016,018,023,025,026,029,,,1.0,0.5,0.8*3B
$GAGSA,A,3,103,108,113,115,121,126,127,,,,,,1.0,0.5,0.8*11
$GPGSV,9,1,34,005,30,049,44,010,09,196,33,013,06,079,29,015,13,114,39*72
$GPGSV,9,2,34,016,30,310,49,018,80,309,49,020,04,039,28,023,35,182,50*77
$GPGSV,9,3,34,025,14,168,26,026,49,276,46,027,03,297,,029,53,097,47*7F
$GPGSV,9,4,34,031,04,237,25,068,13,022,44,069,36,072,48,070,21,142,37*7C
$GPGSV,9,5,34,074,11,200,23,075,40,251,51,076,27,320,54,084,37,058,38*7C
$GPGSV,9,6,34,085,56,319,54,086,18,279,29,101,47,286,47,103,13,050,34*7B
$GPGSV,9,7,34,105,15,057,,107,02,147,,108,17,101,36,113,64,043,46*7A
$GPGSV,9,8,34,115,14,066,36,121,46,208,46,126,51,267,45,127,07,169,21*7F
$GPGSV,9,9,34,131,07,327,36,133,05,254,*7E
$GPRMC,111534.00,A,4442.5641,N,03957.5129,E,000.00000,110.2,230522,,,A*5C
$GPZDA,111534.00,23,05,2022,+00,00*48
$GPGGA,111534.20,4442.5641,N,03957.5129,E,1,25,0.5,00160.5,M,0017.4,M,,*68
$GLGSA,A,3,068,069,070,074,075,076,084,085,086,,,,1.0,0.5,0.8*1B
$GPGSA,A,3,005,010,013,015,016,018,023,025,026,029,,,1.0,0.5,0.8*3B
$GAGSA,A,3,103,108,113,115,121,126,,,,,,,1.0,0.5,0.8*25
$GPRMC,111534.20,A,4442.5641,N,03957.5129,E,000.00000,112.2,230522,,,A*5C
$GPGGA,111534.40,4442.5641,N,03957.5129,E,1,25,0.5,00160.5,M,0017.4,M,,*6E
$GLGSA,A,3,068,069,070,074,075,076,084,085,086,,,,1.0,0.5,0.8*1B
$GPGSA,A,3,005,010,013,015,016,018,023,025,026,029,,,1.0,0.5,0.8*3B
$GAGSA,A,3,103,108,113,115,121,126,,,,,,,1.0,0.5,0.8*25
$GPRMC,111534.40,A,4442.5641,N,03957.5129,E,000.00000,111.5,230522,,,A*5E
$GPGGA,111534.60,4442.5641,N,03957.5129,E,1,24,0.5,00160.5,M,0017.4,M,,*6D
$GLGSA,A,3,068,069,070,074,075,076,084,085,086,,,,1.0,0.5,0.9*1A
$GPGSA,A,3,005,010,013,015,016,018,023,026,029,,,,1.0,0.5,0.9*0D
$GAGSA,A,3,103,108,113,115,121,126,,,,,,,1.0,0.5,0.9*24
$GPRMC,111534.60,A,4442.5641,N,03957.5129,E,000.00000,110.8,230522,,,A*50
$GPGGA,111534.80,4442.5641,N,03957.5129,E,1,26,0.5,00160.5,M,0017.4,M,,*61
$GLGSA,A,3,068,069,070,074,075,076,084,085,086,,,,1.0,0.5,0.8*1B
$GPGSA,A,3,005,010,013,015,016,018,023,025,026,029,,,1.0,0.5,0.8*3B
$GAGSA,A,3,103,108,113,115,121,126,127,,,,,,1.0,0.5,0.8*11
$GPRMC,111534.80,A,4442.5641,N,03957.5129,E,000.00000,112.0,230522,,,A*54
$GPGGA,111535.00,4442.5641,N,03957.5129,E,1,25,0.5,00160.5,M,0017.4,M,,*6B
$GLGSA,A,3,068,069,070,074,075,076,084,085,086,,,,1.0,0.5,0.8*1B
$GPGSA,A,3,005,010,013,015,016,018,023,026,029,,,,1.0,0.5,0.8*0C
$GAGSA,A,3,103,108,113,115,121,126,127,,,,,,1.0,0.5,0.8*11
$GPGSV,9,1,34,005,30,049,44,010,09,196,33,013,06,079,32,015,13,114,40*76
$GPGSV,9,2,34,016,30,310,48,018,80,309,49,020,04,039,28,023,35,182,50*76
$GPGSV,9,3,34,025,14,168,24,026,49,276,46,027,03,297,,029,53,097,46*7C
$GPGSV,9,4,34,031,04,237,25,068,13,022,44,069,36,072,48,070,21,142,37*7C
$GPGSV,9,5,34,074,11,200,26,075,40,251,51,076,27,320,55,084,37,058,37*77
$GPGSV,9,6,34,085,56,319,53,086,18,279,29,101,47,286,47,103,13,050,35*7D
$GPGSV,9,7,34,105,15,057,,107,02,147,,108,17,101,36,113,64,043,46*7A
$GPGSV,9,8,34,115,14,066,36,121,46,208,46,126,51,267,46,127,07,169,18*76
$GPGSV,9,9,34,131,07,327,36,133,05,254,*7E
$GPRMC,111535.00,A,4442.5641,N,03957.5129,E,000.00000,112.6,230522,,,A*5B
$GPZDA,111535.00,23,05,2022,+00,00*49
$GPGGA,111535.20,4442.5641,N,03957.5129,E,1,25,0.5,00160.5,M,0017.4,M,,*69
$GLGSA,A,3,068,069,070,074,075,076,084,085,086,,,,1.0,0.5,0.8*1B
$GPGSA,A,3,005,010,013,015,016,018,023,025,026,029,,,1.0,0.5,0.8*3B
$GAGSA,A,3,103,108,113,115,121,126,,,,,,,1.0,0.5,0.8*25
$GPRMC,111535.20,A,4442.5641,N,03957.5129,E,000.00000,113.0,230522,,,A*5E
$GPGGA,111535.40,4442.5641,N,03957.5129,E,1,25,0.5,00160.5,M,0017.4,M,,*6F
$GLGSA,A,3,068,069,070,074,075,076,084,085,086,,,,1.0,0.5,0.8*1B
$GPGSA,A,3,005,010,013,015,016,018,023,025,026,029,,,1.0,0.5,0.8*3B
$GAGSA,A,3,103,108,113,115,121,126,,,,,,,1.0,0.5,0.8*25
$GPRMC,111535.40,A,4442.5641,N,03957.5129,E,000.00000,113.2,230522,,,A*5A
$GPGGA,111535.60,4442.5641,N,03957.5129,E,1,25,0.5,00160.5,M,0017.4,M,,*6D
$GLGSA,A,3,068,069,070,074,075,076,084,085,086,,,,1.0,0.5,0.8*1B
$GPGSA,A,3,005,010,013,015,016,018,023,025,026,029,,,1.0,0.5,0.8*3B
$GAGSA,A,3,103,108,113,115,121,126,,,,,,,1.0,0.5,0.8*25
$GPRMC,111535.60,A,4442.5641,N,03957.5129,E,000.00000,112.3,230522,,,A*58
$GPGGA,111535.80,4442.5641,N,03957.5129,E,1,26,0.5,00160.5,M,0017.4,M,,*60
$GLGSA,A,3,068,069,070,074,075,076,084,085,086,,,,1.0,0.5,0.8*1B
$GPGSA,A,3,005,010,013,015,016,018,023,025,026,029,,,1.0,0.5,0.8*3B
$GAGSA,A,3,103,108,113,115,121,126,127,,,,,,1.0,0.5,0.8*11
$GPRMC,111535.80,A,4442.5641,N,03957.5129,E,000.00000,112.1,230522,,,A*54
$GPGGA,111536.00,4442.5641,N,03957.5129,E,1,26,0.5,00160.5,M,0017.4,M,,*6B
$GLGSA,A,3,068,069,070,074,075,076,084,085,086,,,,1.0,0.5,0.8*1B
$GPGSA,A,3,005,010,013,015,016,018,023,025,026,029,,,1.0,0.5,0.8*3B
$GAGSA,A,3,103,108,113,115,121,126,127,,,,,,1.0,0.5,0.8*11
$GPGSV,9,1,34,005,30,049,44,010,09,196,33,013,06,079,32,015,13,114,40*76
$GPGSV,9,2,34,016,30,310,48,018,80,309,49,020,04,039,28,023,35,182,50*76
$GPGSV,9,3,34,025,14,168,26,026,49,276,46,027,03,297,,029,53,097,46*7E
$GPGSV,9,4,34,031,04,237,22,068,13,022,43,069,36,072,48,070,21,142,37*7C
$GPGSV,9,5,34,074,11,200,26,075,40,251,51,076,27,320,55,084,37,058,37*77
$GPGSV,9,6,34,085,56,319,54,086,18,279,30,101,47,286,47,103,13,050,35*72
$GPGSV,9,7,34,105,15,057,,107,02,147,,108,17,101,36,113,64,043,47*7B
$GPGSV,9,8,34,115,14,066,36,121,46,208,46,126,51,267,46,127,07,169,20*7D
$GPGSV,9,9,34,131,07,327,35,133,05,254,*7D
$GPRMC,111536.00,A,4442.5641,N,03957.5129,E,000.00000,111.5,230522,,,A*58
$GPZDA,111536.00,23,05,2022,+00,00*4A
$GPGGA,111536.20,4442.5641,N,03957.5129,E,1,25,0.5,00160.5,M,0017.4,M,,*6A
$GLGSA,A,3,068,069,070,074,075,076,084,085,086,,,,1.0,0.5,0.8*1B
$GPGSA,A,3,005,010,013,015,016,018,023,025,026,029,,,1.0,0.5,0.8*3B
$GAGSA,A,3,103,108,113,115,121,126,,,,,,,1.0,0.5,0.8*25
$GPRMC,111536.20,A,4442.5641,N,03957.5129,E,000.00000,110.0,230522,,,A*5E
$GPGGA,111536.40,4442.5641,N,03957.5129,E,1,25,0.5,00160.5,M,0017.4,M,,*6C
$GLGSA,A,3,068,069,070,074,075,076,084,085,086,,,,1.0,0.5,0.8*1B
$GPGSA,A,3,005,010,013,015,016,018,023,025,026,029,,,1.0,0.5,0.8*3B
$GAGSA,A,3,103,108,113,115,121,126,,,,,,,1.0,0.5,0.8*25
$GPRMC,111536.40,A,4442.5641,N,03957.5129,E,000.00000,108.4,230522,,,A*55
$GPGGA,111536.60,4442.5641,N,03957.5129,E,1,26,0.5,00160.5,M,0017.4,M,,*6D
$GLGSA,A,3,068,069,070,074,075,076,084,085,086,,,,1.0,0.5,0.8*1B
$GPGSA,A,3,005,010,013,015,016,018,023,025,026,029,,,1.0,0.5,0.8*3B
$GAGSA,A,3,103,108,113,115,121,126,127,,,,,,1.0,0.5,0.8*11
$GPRMC,111536.60,A,4442.5641,N,03957.5129,E,000.00000,108.7,230522,,,A*54
$GPGGA,111536.80,4442.5641,N,03957.5129,E,1,25,0.5,00160.5,M,0017.4,M,,*60
$GLGSA,A,3,068,069,070,074,075,076,084,085,086,,,,1.0,0.5,0.8*1B
$GPGSA,A,3,005,010,013,015,016,018,023,025,026,029,,,1.0,0.5,0.8*3B
$GAGSA,A,3,103,108,113,115,121,126,,,,,,,1.0,0.5,0.8*25
$GPRMC,111536.80,A,4442.5641,N,03957.5129,E,000.00000,108.8,230522,,,A*55
$GPGGA,111537.00,4442.5641,N,03957.5129,E,1,25,0.5,00160.5,M,0017.4,M,,*69
$GLGSA,A,3,068,069,070,074,075,076,084,085,086,,,,1.0,0.5,0.8*1B
$GPGSA,A,3,005,010,013,015,016,018,023,025,026,029,,,1.0,0.5,0.8*3B
$GAGSA,A,3,103,108,113,115,121,126,,,,,,,1.0,0.5,0.8*25
$GPGSV,9,1,34,005,30,049,44,010,09,196,34,013,06,079,31,015,13,114,40*72
$GPGSV,9,2,34,016,30,310,48,018,80,309,49,020,04,039,28,023,35,182,50*76
$GPGSV,9,3,34,025,14,168,25,026,49,276,46,027,03,297,15,029,53,097,46*79
$GPGSV,9,4,34,031,04,237,20,068,13,022,43,069,36,072,49,070,21,142,37*7F
$GPGSV,9,5,34,074,11,200,28,075,40,251,51,076,27,320,55,084,37,058,37*79
$GPGSV,9,6,34,085,56,319,54,086,18,279,30,101,47,286,47,103,13,050,36*71
$GPGSV,9,7,34,105,15,057,,107,02,147,,108,17,101,36,113,64,043,47*7B
$GPGSV,9,8,34,115,14,066,36,121,46,208,46,126,51,267,46,127,07,169,18*76
$GPGSV,9,9,34,131,07,327,35,133,05,254,*7D
$GPRMC,111537.00,A,4442.5641,N,03957.5129,E,000.00000,110.3,230522,,,A*5E
$GPZDA,111537.00,23,05,2022,+00,00*4B
$GPGGA,111537.20,4442.5641,N,03957.5129,E,1,25,0.5,00160.5,M,0017.4,M,,*6B
$GLGSA,A,3,068,069,070,074,075,076,084,085,086,,,,1.0,0.5,0.8*1B
$GPGSA,A,3,005,010,013,015,016,018,023,025,026,029,,,1.0,0.5,0.8*3B
$GAGSA,A,3,103,108,113,115,121,126,,,,,,,1.0,0.5,0.8*25
$GPRMC,111537.20,A,4442.5641,N,03957.5129,E,000.00000,111.7,230522,,,A*59
$GPGGA,111537.40,4442.5641,N,03957.5129,E,1,26,0.5,00160.5,M,0017.4,M,,*6E
$GLGSA,A,3,068,069,070,074,075,076,084,085,086,,,,1.0,0.5,0.8*1B
$GPGSA,A,3,005,010,013,015,016,018,023,025,026,029,,,1.0,0.5,0.8*3B
$GAGSA,A,3,103,108,113,115,121,126,127,,,,,,1.0,0.5,0.8*11
$GPRMC,111537.40,A,4442.5641,N,03957.5129,E,000.00000,112.8,230522,,,A*53
$GPGGA,111537.60,4442.5641,N,03957.5129,E,1,26,0.5,00160.5,M,0017.4,M,,*6C
$GLGSA,A,3,068,069,070,074,075,076,084,085,086,,,,1.0,0.5,0.8*1B
$GPGSA,A,3,005,010,013,015,016,018,023,025,026,029,,,1.0,0.5,0.8*3B
$GAGSA,A,3,103,108,113,115,121,126,127,,,,,,1.0,0.5,0.8*11
$GPRMC,111537.60,A,4442.5641,N,03957.5129,E,000.00000,113.3,230522,,,A*5B
$GPGGA,111537.80,4442.5641,N,03957.5129,E,1,26,0.5,00160.5,M,0017.4,M,,*62
$GLGSA,A,3,068,069,070,074,075,076,084,085,086,,,,1.0,0.5,0.8*1B
$GPGSA,A,3,005,010,013,015,016,018,023,025,026,029,,,1.0,0.5,0.8*3B
$GAGSA,A,3,103,108,113,115,121,126,127,,,,,,1.0,0.5,0.8*11
$GPRMC,111537.80,A,4442.5641,N,03957.5129,E,000.00000,113.6,230522,,,A*50
$GPGGA,111538.00,4442.5641,N,03957.5129,E,1,26,0.5,00160.5,M,0017.4,M,,*65
$GLGSA,A,3,068,069,070,074,075,076,084,085,086,,,,1.0,0.5,0.8*1B
$GPGSA,A,3,005,010,013,015,016,018,023,025,026,029,,,1.0,0.5,0.8*3B
$GAGSA,A,3,103,108,113,115,121,126,127,,,,,,1.0,0.5,0.8*11
$GPGSV,9,1,34,005,30,049,44,010,09,196,34,013,06,079,30,015,13,114,40*73
$GPGSV,9,2,34,016,30,310,49,018,80,309,50,020,04,039,30,023,35,182,50*76
$GPGSV,9,3,34,025,14,168,25,026,49,276,47,027,03,297,15,029,53,097,46*78
$GPGSV,9,4,34,031,04,237,24,068,13,022,43,069,36,072,49,070,21,142,37*7B
$GPGSV,9,5,34,074,11,200,28,075,40,251,50,076,27,320,55,084,37,058,37*78
$GPGSV,9,6,34,085,56,319,54,086,18,279,31,101,47,286,47,103,13,050,35*73
$GPGSV,9,7,34,105,15,057,,107,02,147,,108,17,101,36,113,64,043,47*7B
$GPGSV,9,8,34,115,14,066,36,121,46,208,46,126,51,267,46,127,07,169,19*77
$GPGSV,9,9,34,131,07,327,35,133,05,254,*7D
$GPRMC,111538.00,A,4442.5641,N,03957.5129,E,000.00000,113.7,230522,,,A*56
$GPZDA,111538.00,23,05,2022,+00,00*44
$GPGGA,111538.20,4442.5641,N,03957.5129,E,1,25,0.5,00160.5,M,0017.4,M,,*64
$GLGSA,A,3,068,069,070,074,075,076,084,085,086,,,,1.0,0.5,0.8*1B
$GPGSA,A,3,005,010,013,015,016,018,023,025,026,029,,,1.0,0.5,0.8*3B
$GAGSA,A,3,103,108,113,115,121,126,,,,,,,1.0,0.5,0.8*25
$GPRMC,111538.20,A,4442.5641,N,03957.5129,E,000.00000,113.8,230522,,,A*5B
$GPGGA,111538.40,4442.5641,N,03957.5129,E,1,26,0.5,00160.5,M,0017.4,M,,*61
$GLGSA,A,3,068,069,070,074,075,076,084,085,086,,,,1.0,0.5,0.8*1B
$GPGSA,A,3,005,010,013,015,016,018,023,025,026,029,,,1.0,0.5,0.8*3B
$GAGSA,A,3,103,108,113,115,121,126,127,,,,,,1.0,0.5,0.8*11
$GPRMC,111538.40,A,4442.5641,N,03957.5129,E,000.00000,113.8,230522,,,A*5D
$GPGGA,111538.60,4442.5641,N,03957.5129,E,1,25,0.5,00160.5,M,0017.4,M,,*60
$GLGSA,A,3,068,069,070,074,075,076,084,085,086,,,,1.0,0.5,0.8*1B
$GPGSA,A,3,005,010,013,015,016,018,023,025,026,029,,,1.0,0.5,0.8*3B
$GAGSA,A,3,103,108,113,115,121,126,,,,,,,1.0,0.5,0.8*25
$GPRMC,111538.60,A,4442.5641,N,03957.5129,E,000.00000,113.8,230522,,,A*5F
$GPGGA,111538.80,4442.5641,N,03957.5129,E,1,25,0.5,00160.5,M,0017.4,M,,*6E
$GLGSA,A,3,068,069,070,074,075,076,084,085,086,,,,1.0,0.5,0.8*1B
$GPGSA,A,3,005,010,013,015,016,018,023,026,029,,,,1.0,0.5,0.8*0C
$GAGSA,A,3,103,108,113,115,121,126,127,,,,,,1.0,0.5,0.8*11
$GPRMC,111538.80,A,4442.5641,N,03957.5129,E,000.00000,113.8,230522,,,A*51
$GPGGA,111539.00,4442.5641,N,03957.5129,E,1,26,0.5,00160.5,M,0017.4,M,,*64
$GLGSA,A,3,068,069,070,074,075,076,084,085,086,,,,1.0,0.5,0.8*1B
$GPGSA,A,3,005,010,013,015,016,018,023,025,026,029,,,1.0,0.5,0.8*3B
$GAGSA,A,3,103,108,113,115,121,126,127,,,,,,1.0,0.5,0.8*11
$GPGSV,9,1,34,005,30,049,44,010,09,196,32,013,06,079,30,015,13,114,40*75
$GPGSV,9,2,34,016,30,310,48,018,80,309,50,020,04,039,31,023,35,182,50*76
$GPGSV,9,3,34,025,14,168,22,026,49,276,46,027,03,297,14,029,53,097,45*7C
$GPGSV,9,4,34,031,04,237,23,068,13,022,44,069,36,072,48,070,21,142,37*7A
$GPGSV,9,5,34,074,11,200,28,075,40,251,51,076,27,320,55,084,37,058,37*79
$GPGSV,9,6,34,085,56,319,54,086,18,279,31,101,47,286,47,103,13,050,34*72
$GPGSV,9,7,34,105,15,057,,107,02,147,,108,17,101,36,113,64,043,47*7B
$GPGSV,9,8,34,115,14,066,37,121,46,208,46,126,51,267,46,127,07,169,18*77
$GPGSV,9,9,34,131,07,327,35,133,05,254,*7D
$GPRMC,111539.00,A,4442.5641,N,03957.5129,E,000.00000,113.9,230522,,,A*59
