$GPGGA,114514.40,4445.1729,N,03954.9079,E,1,26,0.5,00145.9,M,0017.1,M,,*63
$GLGSA,A,3,069,070,075,076,084,085,086,,,,,,1.0,0.5,0.8*16
$GPGSA,A,3,005,010,013,015,016,018,023,026,027,029,,,1.0,0.5,0.8*39
$GAGSA,A,3,103,107,108,113,115,121,126,131,133,,,,1.0,0.5,0.8*11
$GPRMC,114514.40,A,4445.1729,N,03954.9079,E,000.00000,339.3,230522,,,A*50
$GPGGA,114514.60,4445.1729,N,03954.9079,E,1,26,0.5,00145.9,M,0017.1,M,,*61
$GLGSA,A,3,069,070,075,076,084,085,086,,,,,,1.0,0.5,0.8*16
$GPGSA,A,3,005,010,013,015,016,018,023,026,027,029,,,1.0,0.5,0.8*39
$GAGSA,A,3,103,107,108,113,115,121,126,131,133,,,,1.0,0.5,0.8*11
$GPRMC,114514.60,A,4445.1729,N,03954.9079,E,000.00000,037.6,230522,,,A*5A
$GPGGA,114514.80,4445.1729,N,03954.9079,E,1,25,0.5,00145.9,M,0017.1,M,,*6C
$GLGSA,A,3,069,070,075,076,084,085,086,,,,,,1.0,0.5,0.9*17
$GPGSA,A,3,005,010,013,015,016,018,023,026,027,029,,,1.0,0.5,0.9*38
$GAGSA,A,3,107,108,113,115,121,126,131,133,,,,,1.0,0.5,0.9*22
$GPRMC,114514.80,A,4445.1729,N,03954.9079,E,000.00000,054.4,230522,,,A*53
$GPGGA,114515.00,4445.1729,N,03954.9079,E,1,25,0.5,00145.9,M,0017.1,M,,*65
$GLGSA,A,3,069,070,075,076,084,085,086,,,,,,1.0,0.5,0.9*17
$GPGSA,A,3,005,010,013,015,016,018,023,026,027,029,,,1.0,0.5,0.9*38
$GAGSA,A,3,107,108,113,115,121,126,131,133,,,,,1.0,0.5,0.9*22
$GPGSV,8,1,31,005,19,043,45,010,21,197,49,013,11,067,25,015,21,103,41*7D
$GPGSV,8,2,31,016,40,299,44,018,75,020,48,023,50,180,51,025,02,167,36*7C
$GPGSV,8,3,31,026,48,255,48,027,14,302,42,029,42,110,46,068,03,014,13*74
$GPGSV,8,4,31,069,35,052,47,070,35,133,37,071,01,169,37,075,28,237,38*76
$GPGSV,8,5,31,076,32,303,47,077,05,345,,084,26,072,36,085,61,349,52*79
$GPGSV,8,6,31,086,28,292,35,101,47,270,45,103,12,040,28,107,11,142,37*73
$GPGSV,8,7,31,108,24,092,41,113,55,054,45,115,06,073,18,121,34,203,46*7E
$GPGSV,8,8,31,126,59,282,47,131,14,323,43,133,13,262,43*78
$GPRMC,114515.00,A,4445.1729,N,03954.9079,E,000.00000,064.0,230522,,,A*5D
$GPZDA,114515.00,23,05,2022,+00,00*4E
$GPGGA,114515.20,4445.1729,N,03954.9079,E,1,26,0.5,00145.9,M,0017.1,M,,*64
$GLGSA,A,3,069,070,075,076,084,085,086,,,,,,1.0,0.5,0.8*16
$GPGSA,A,3,005,010,013,015,016,018,023,026,027,029,,,1.0,0.5,0.8*39
$GAGSA,A,3,103,107,108,113,115,121,126,131,133,,,,1.0,0.5,0.8*11
$GPRMC,114515.20,A,4445.1729,N,03954.9079,E,000.00000,081.2,230522,,,A*56
$GPGGA,114515.40,4445.1729,N,03954.9079,E,1,25,0.5,00145.9,M,0017.1,M,,*61
$GLGSA,A,3,069,070,075,076,084,085,086,,,,,,1.0,0.5,0.9*17
$GPGSA,A,3,005,010,013,015,016,018,023,026,027,029,,,1.0,0.5,0.9*38
$GAGSA,A,3,107,108,113,115,121,126,131,133,,,,,1.0,0.5,0.9*22
$GPRMC,114515.40,A,4445.1729,N,03954.9079,E,000.00000,085.0,230522,,,A*56
$GPGGA,114515.60,4445.1729,N,03954.9079,E,1,26,0.5,00145.9,M,0017.1,M,,*60
$GLGSA,A,3,069,070,075,076,084,085,086,,,,,,1.0,0.5,0.8*16
$GPGSA,A,3,005,010,013,015,016,018,023,026,027,029,,,1.0,0.5,0.8*39
$GAGSA,A,3,103,107,108,113,115,121,126,131,133,,,,1.0,0.5,0.8*11
$GPRMC,114515.60,A,4445.1729,N,03954.9079,E,000.00000,078.4,230522,,,A*52
$GPGGA,114515.80,4445.1729,N,03954.9079,E,1,26,0.5,00145.9,M,0017.1,M,,*6E
$GLGSA,A,3,069,070,075,076,084,085,086,,,,,,1.0,0.5,0.8*16
$GPGSA,A,3,005,010,013,015,016,018,023,026,027,029,,,1.0,0.5,0.8*39
$GAGSA,A,3,103,107,108,113,115,121,126,131,133,,,,1.0,0.5,0.8*11
$GPRMC,114515.80,A,4445.1729,N,03954.9079,E,000.00000,068.9,230522,,,A*50
$GPGGA,114516.00,4445.1729,N,03954.9079,E,1,25,0.5,00145.9,M,0017.1,M,,*66
$GLGSA,A,3,069,070,075,076,084,085,086,,,,,,1.0,0.5,0.9*17
$GPGSA,A,3,005,010,013,015,016,018,023,026,027,029,,,1.0,0.5,0.9*38
$GAGSA,A,3,103,107,108,113,121,126,131,133,,,,,1.0,0.5,0.9*25
$GPGSV,8,1,31,005,19,043,45,010,21,197,49,013,11,067,27,015,21,103,41*7F
$GPGSV,8,2,31,016,40,299,44,018,75,020,48,023,50,180,51,025,02,167,36*7C
$GPGSV,8,3,31,026,48,255,48,027,14,302,42,029,42,110,46,068,03,014,*76
$GPGSV,8,4,31,069,35,052,47,070,35,133,37,071,01,169,36,075,28,237,38*77
$GPGSV,8,5,31,076,32,303,47,077,05,345,,084,26,072,37,085,61,349,53*79
$GPGSV,8,6,31,086,28,292,35,101,47,270,46,103,12,040,28,107,11,142,37*70
$GPGSV,8,7,31,108,24,092,41,113,55,054,45,115,06,073,17,121,34,203,46*71
$GPGSV,8,8,31,126,59,282,46,131,14,323,43,133,13,262,43*79
$GPRMC,114516.00,A,4445.1729,N,03954.9079,E,000.00000,040.5,230522,,,A*5D
$GPZDA,114516.00,23,05,2022,+00,00*4D
$GPGGA,114516.20,4445.1729,N,03954.9079,E,1,26,0.5,00145.9,M,0017.1,M,,*67
$GLGSA,A,3,069,070,075,076,084,085,086,,,,,,1.0,0.5,0.8*16
$GPGSA,A,3,005,010,013,015,016,018,023,026,027,029,,,1.0,0.5,0.8*39
$GAGSA,A,3,103,107,108,113,115,121,126,131,133,,,,1.0,0.5,0.8*11
$GPRMC,114516.20,A,4445.1729,N,03954.9079,E,000.00000,004.9,230522,,,A*53
$GPGGA,114516.40,4445.1729,N,03954.9079,E,1,26,0.5,00145.9,M,0017.1,M,,*61
$GLGSA,A,3,069,070,075,076,084,085,086,,,,,,1.0,0.5,0.8*16
$GPGSA,A,3,005,010,013,015,016,018,023,026,027,029,,,1.0,0.5,0.8*39
$GAGSA,A,3,103,107,108,113,115,121,126,131,133,,,,1.0,0.5,0.8*11
$GPRMC,114516.40,A,4445.1729,N,03954.9079,E,000.00000,349.4,230522,,,A*52
$GPGGA,114516.60,4445.1729,N,03954.9079,E,1,26,0.5,00145.9,M,0017.1,M,,*63
$GLGSA,A,3,069,070,075,076,084,085,086,,,,,,1.0,0.5,0.8*16
$GPGSA,A,3,005,010,013,015,016,018,023,026,027,029,,,1.0,0.5,0.8*39
$GAGSA,A,3,103,107,108,113,115,121,126,131,133,,,,1.0,0.5,0.8*11
$GPRMC,114516.60,A,4445.1729,N,03954.9079,E,000.00000,342.8,230522,,,A*57
$GPGGA,114516.80,4445.1729,N,03954.9079,E,1,26,0.5,00145.9,M,0017.1,M,,*6D
$GLGSA,A,3,069,070,075,076,084,085,086,,,,,,1.0,0.5,0.8*16
$GPGSA,A,3,005,010,013,015,016,018,023,026,027,029,,,1.0,0.5,0.8*39
$GAGSA,A,3,103,107,108,113,115,121,126,131,133,,,,1.0,0.5,0.8*11
$GPRMC,114516.80,A,4445.1729,N,03954.9079,E,000.00000,339.6,230522,,,A*5B
$GPGGA,114517.00,4445.1729,N,03954.9079,E,1,26,0.5,00145.9,M,0017.1,M,,*64
$GLGSA,A,3,069,070,075,076,084,085,086,,,,,,1.0,0.5,0.8*16
$GPGSA,A,3,005,010,013,015,016,018,023,026,027,029,,,1.0,0.5,0.8*39
$GAGSA,A,3,103,107,108,113,115,121,126,131,133,,,,1.0,0.5,0.8*11
$GPGSV,8,1,31,005,19,043,45,010,21,197,49,013,11,067,27,015,21,103,41*7F
$GPGSV,8,2,31,016,40,299,44,018,75,020,48,023,50,180,51,025,02,167,36*7C
$GPGSV,8,3,31,026,48,255,48,027,14,302,42,029,42,110,46,068,03,014,*76
$GPGSV,8,4,31,069,35,052,47,070,35,133,37,071,01,169,37,075,28,237,38*76
$GPGSV,8,5,31,076,32,303,46,077,05,345,,084,26,072,37,085,61,349,53*78
$GPGSV,8,6,31,086,28,292,35,101,47,270,46,103,12,040,29,107,11,142,37*71
$GPGSV,8,7,31,108,24,092,40,113,55,054,45,115,06,073,16,121,34,203,46*71
$GPGSV,8,8,31,126,59,282,46,131,14,323,43,133,13,262,43*79
$GPRMC,114517.00,A,4445.1729,N,03954.9079,E,000.00000,338.0,230522,,,A*55
$GPZDA,114517.00,23,05,2022,+00,00*4C
$GPGGA,114517.20,4445.1729,N,03954.9079,E,1,25,0.5,00145.9,M,0017.1,M,,*65
$GLGSA,A,3,069,070,075,076,084,085,086,,,,,,1.0,0.5,0.9*17
$GPGSA,A,3,005,010,013,015,016,018,023,026,027,029,,,1.0,0.5,0.9*38
$GAGSA,A,3,103,107,108,113,121,126,131,133,,,,,1.0,0.5,0.9*25
$GPRMC,114517.20,A,4445.1729,N,03954.9079,E,000.00000,337.1,230522,,,A*59
$GPGGA,114517.40,4445.1729,N,03954.9079,E,1,26,0.5,00146.0,M,0017.1,M,,*6A
$GLGSA,A,3,069,070,075,076,084,085,086,,,,,,1.0,0.5,0.8*16
$GPGSA,A,3,005,010,013,015,016,018,023,026,027,029,,,1.0,0.5,0.8*39
$GAGSA,A,3,103,107,108,113,115,121,126,131,133,,,,1.0,0.5,0.8*11
$GPRMC,114517.40,A,4445.1729,N,03954.9079,E,000.00095,291.2,230522,,,A*5D
$GPGGA,114517.60,4445.1729,N,03954.9079,E,1,26,0.5,00146.0,M,0017.1,M,,*68
$GLGSA,A,3,069,070,075,076,084,085,086,,,,,,1.0,0.5,0.8*16
$GPGSA,A,3,005,010,013,015,016,018,023,026,027,029,,,1.0,0.5,0.8*39
$GAGSA,A,3,103,107,108,113,115,121,126,131,133,,,,1.0,0.5,0.8*11
$GPRMC,114517.60,A,4445.1729,N,03954.9079,E,000.00000,336.0,230522,,,A*5D
$GPGGA,114517.80,4445.1729,N,03954.9079,E,1,26,0.5,00146.0,M,0017.1,M,,*66
$GLGSA,A,3,069,070,075,076,084,085,086,,,,,,1.0,0.5,0.8*16
$GPGSA,A,3,005,010,013,015,016,018,023,026,027,029,,,1.0,0.5,0.8*39
$GAGSA,A,3,103,107,108,113,115,121,126,131,133,,,,1.0,0.5,0.8*11
$GPRMC,114517.80,A,4445.1729,N,03954.9079,E,000.00000,336.0,230522,,,A*53
$GPGGA,114518.00,4445.1729,N,03954.9079,E,1,26,0.5,00146.0,M,0017.1,M,,*61
$GLGSA,A,3,069,070,075,076,084,085,086,,,,,,1.0,0.5,0.8*16
$GPGSA,A,3,005,010,013,015,016,018,023,026,027,029,,,1.0,0.5,0.8*39
$GAGSA,A,3,103,107,108,113,115,121,126,131,133,,,,1.0,0.5,0.8*11
$GPGSV,8,1,31,005,19,043,45,010,21,197,50,013,11,067,27,015,21,103,41*77
$GPGSV,8,2,31,016,40,299,44,018,75,020,49,023,50,180,51,025,02,167,36*7D
$GPGSV,8,3,31,026,48,255,48,027,14,302,42,029,42,110,46,068,03,014,*76
$GPGSV,8,4,31,069,35,052,47,070,35,133,37,071,01,169,37,075,28,237,39*77
$GPGSV,8,5,31,076,32,303,46,077,05,345,,084,26,072,37,085,61,349,53*78
$GPGSV,8,6,31,086,28,292,35,101,47,270,45,103,12,040,28,107,11,142,37*73
$GPGSV,8,7,31,108,24,092,40,113,55,054,45,115,06,073,18,121,34,203,46*7F
$GPGSV,8,8,31,126,59,282,46,131,14,323,43,133,13,262,43*79
$GPRMC,114518.00,A,4445.1729,N,03954.9079,E,000.00000,336.0,230522,,,A*54
$GPZDA,114518.00,23,05,2022,+00,00*43
$GPGGA,114518.20,4445.1729,N,03954.9079,E,1,25,0.5,00146.0,M,0017.1,M,,*60
$GLGSA,A,3,069,070,075,076,084,085,086,,,,,,1.0,0.5,0.9*17
$GPGSA,A,3,005,010,013,015,016,018,023,026,027,029,,,1.0,0.5,0.9*38
$GAGSA,A,3,103,107,108,113,121,126,131,133,,,,,1.0,0.5,0.9*25
$GPRMC,114518.20,A,4445.1729,N,03954.9079,E,000.00000,336.0,230522,,,A*56
$GPGGA,114518.40,4445.1729,N,03954.9079,E,1,26,0.5,00146.0,M,0017.1,M,,*65
$GLGSA,A,3,069,070,075,076,084,085,086,,,,,,1.0,0.5,0.8*16
$GPGSA,A,3,005,010,013,015,016,018,023,026,027,029,,,1.0,0.5,0.8*39
$GAGSA,A,3,103,107,108,113,115,121,126,131,133,,,,1.0,0.5,0.8*11
$GPRMC,114518.40,A,4445.1729,N,03954.9079,E,000.00000,336.0,230522,,,A*50
$GPGGA,114518.60,4445.1729,N,03954.9079,E,1,26,0.5,00146.0,M,0017.1,M,,*67
$GLGSA,A,3,069,070,075,076,084,085,086,,,,,,1.0,0.5,0.8*16
$GPGSA,A,3,005,010,013,015,016,018,023,026,027,029,,,1.0,0.5,0.8*39
$GAGSA,A,3,103,107,108,113,115,121,126,131,133,,,,1.0,0.5,0.8*11
$GPRMC,114518.60,A,4445.1729,N,03954.9079,E,000.00000,336.0,230522,,,A*52
$GPGGA,114518.80,4445.1729,N,03954.9079,E,1,26,0.5,00146.0,M,0017.1,M,,*69
$GLGSA,A,3,069,070,075,076,084,085,086,,,,,,1.0,0.5,0.8*16
$GPGSA,A,3,005,010,013,015,016,018,023,026,027,029,,,1.0,0.5,0.8*39
$GAGSA,A,3,103,107,108,113,115,121,126,131,133,,,,1.0,0.5,0.8*11
$GPRMC,114518.80,A,4445.1729,N,03954.9079,E,000.00000,336.0,230522,,,A*5C
$GPGGA,114519.00,4445.1729,N,03954.9079,E,1,26,0.5,00146.0,M,0017.1,M,,*60
$GLGSA,A,3,069,070,075,076,084,085,086,,,,,,1.0,0.5,0.8*16
$GPGSA,A,3,005,010,013,015,016,018,023,026,027,029,,,1.0,0.5,0.8*39
$GAGSA,A,3,103,107,108,113,115,121,126,131,133,,,,1.0,0.5,0.8*11
$GPGSV,8,1,31,005,19,043,45,010,21,197,50,013,11,067,26,015,21,103,41*76
$GPGSV,8,2,31,016,40,299,44,018,75,020,49,023,50,180,51,025,02,167,36*7D
$GPGSV,8,3,31,026,48,255,48,027,14,302,41,029,42,110,46,068,03,014,*75
$GPGSV,8,4,31,069,35,052,47,070,35,133,37,071,01,169,36,075,28,237,40*78
$GPGSV,8,5,31,076,32,303,46,077,05,345,,084,26,072,36,085,61,349,53*79
$GPGSV,8,6,31,086,28,292,35,101,47,270,46,103,12,040,28,107,11,142,36*71
$GPGSV,8,7,31,108,24,092,40,113,55,055,45,115,06,073,14,121,34,203,46*72
$GPGSV,8,8,31,126,59,282,47,131,14,323,43,133,13,263,43*79
$GPRMC,114519.00,A,4445.1729,N,03954.9079,E,000.00000,336.0,230522,,,A*55
$GPZDA,114519.00,23,05,2022,+00,00*42
$GPGGA,114519.20,4445.1729,N,03954.9079,E,1,26,0.5,00146.0,M,0017.1,M,,*62
$GLGSA,A,3,069,070,075,076,084,085,086,,,,,,1.0,0.5,0.8*16
$GPGSA,A,3,005,010,013,015,016,018,023,026,027,029,,,1.0,0.5,0.8*39
$GAGSA,A,3,103,107,108,113,115,121,126,131,133,,,,1.0,0.5,0.8*11
$GPRMC,114519.20,A,4445.1729,N,03954.9079,E,000.00000,336.0,230522,,,A*57
$GPGGA,114519.40,4445.1729,N,03954.9079,E,1,26,0.5,00146.0,M,0017.1,M,,*64
$GLGSA,A,3,069,070,075,076,084,085,086,,,,,,1.0,0.5,0.8*16
$GPGSA,A,3,005,010,013,015,016,018,023,026,027,029,,,1.0,0.5,0.8*39
$GAGSA,A,3,103,107,108,113,115,121,126,131,133,,,,1.0,0.5,0.8*11
$GPRMC,114519.40,A,4445.1729,N,03954.9079,E,000.00000,336.0,230522,,,A*51
$GPGGA,114519.60,4445.1729,N,03954.9079,E,1,26,0.5,00146.0,M,0017.1,M,,*66
$GLGSA,A,3,069,070,075,076,084,085,086,,,,,,1.0,0.5,0.8*16
$GPGSA,A,3,005,010,013,015,016,018,023,026,027,029,,,1.0,0.5,0.8*39
$GAGSA,A,3,103,107,108,113,115,121,126,131,133,,,,1.0,0.5,0.8*11
$GPRMC,114519.60,A,4445.1729,N,03954.9079,E,000.00000,336.0,230522,,,A*53
$GPGGA,114519.80,4445.1729,N,03954.9079,E,1,25,0.5,00146.0,M,0017.1,M,,*6B
$GLGSA,A,3,069,070,075,076,084,085,086,,,,,,1.0,0.5,0.9*17
$GPGSA,A,3,005,010,013,015,016,018,023,026,027,029,,,1.0,0.5,0.9*38
$GAGSA,A,3,103,107,108,113,121,126,131,133,,,,,1.0,0.5,0.9*25
$GPRMC,114519.80,A,4445.1729,N,03954.9079,E,000.00000,336.0,230522,,,A*5D
$GPGGA,114520.00,4445.1729,N,03954.9079,E,1,25,0.5,00146.0,M,0017.1,M,,*69
$GLGSA,A,3,069,070,075,076,084,085,086,,,,,,1.0,0.5,0.9*17
$GPGSA,A,3,005,010,013,015,016,018,023,026,027,029,,,1.0,0.5,0.9*38
$GAGSA,A,3,103,107,108,113,121,126,131,133,,,,,1.0,0.5,0.9*25
$GPGSV,8,1,31,005,19,043,45,010,21,197,49,013,11,067,25,015,21,103,41*7D
$GPGSV,8,2,31,016,40,299,44,018,75,020,48,023,50,180,51,025,02,167,35*7F
$GPGSV,8,3,31,026,48,255,48,027,14,302,42,029,42,110,46,068,03,014,11*76
$GPGSV,8,4,31,069,35,052,47,070,35,133,37,071,01,169,34,075,28,237,41*7B
$GPGSV,8,5,31,076,32,303,46,077,05,345,,084,26,072,36,085,61,349,53*79
$GPGSV,8,6,31,086,28,292,35,101,47,270,46,103,12,040,28,107,11,142,36*71
$GPGSV,8,7,31,108,24,092,41,113,55,055,45,115,06,073,13,121,34,203,46*74
$GPGSV,8,8,31,126,59,282,46,131,14,323,43,133,13,263,42*79
$GPRMC,114520.00,A,4445.1729,N,03954.9079,E,000.00000,336.0,230522,,,A*5F
$GPZDA,114520.00,23,05,2022,+00,00*48
$GPGGA,114520.20,4445.1729,N,03954.9079,E,1,25,0.5,00146.0,M,0017.1,M,,*6B
$GLGSA,A,3,069,070,075,076,084,085,086,,,,,,1.0,0.5,0.9*17
$GPGSA,A,3,005,010,013,015,016,018,023,026,027,029,,,1.0,0.5,0.9*38
$GAGSA,A,3,103,107,108,113,121,126,131,133,,,,,1.0,0.5,0.9*25
$GPRMC,114520.20,A,4445.1729,N,03954.9079,E,000.00000,336.0,230522,,,A*5D
$GPGGA,114520.40,4445.1729,N,03954.9079,E,1,26,0.5,00146.0,M,0017.1,M,,*6E
$GLGSA,A,3,069,070,075,076,084,085,086,,,,,,1.0,0.5,0.8*16
$GPGSA,A,3,005,010,013,015,016,018,023,026,027,029,,,1.0,0.5,0.8*39
$GAGSA,A,3,103,107,108,113,115,121,126,131,133,,,,1.0,0.5,0.8*11
$GPRMC,114520.40,A,4445.1729,N,03954.9079,E,000.00411,281.1,230522,,,A*53
$GPGGA,114520.60,4445.1729,N,03954.9079,E,1,26,0.5,00146.0,M,0017.1,M,,*6C
$GLGSA,A,3,069,070,075,076,084,085,086,,,,,,1.0,0.5,0.8*16
$GPGSA,A,3,005,010,013,015,016,018,023,026,027,029,,,1.0,0.5,0.8*39
$GAGSA,A,3,103,107,108,113,115,121,126,131,133,,,,1.0,0.5,0.8*11
$GPRMC,114520.60,A,4445.1729,N,03954.9079,E,000.00000,336.0,230522,,,A*59
$GPGGA,114520.80,4445.1729,N,03954.9079,E,1,26,0.5,00146.0,M,0017.1,M,,*62
$GLGSA,A,3,069,070,075,076,084,085,086,,,,,,1.0,0.5,0.8*16
$GPGSA,A,3,005,010,013,015,016,018,023,026,027,029,,,1.0,0.5,0.8*39
$GAGSA,A,3,103,107,108,113,115,121,126,131,133,,,,1.0,0.5,0.8*11
$GPRMC,114520.80,A,4445.1729,N,03954.9079,E,000.00000,336.0,230522,,,A*57
$GPGGA,114521.00,4445.1729,N,03954.9079,E,1,26,0.5,00146.0,M,0017.1,M,,*6B
$GLGSA,A,3,069,070,075,076,084,085,086,,,,,,1.0,0.5,0.8*16
$GPGSA,A,3,005,010,013,015,016,018,023,026,027,029,,,1.0,0.5,0.8*39
$GAGSA,A,3,103,107,108,113,115,121,126,131,133,,,,1.0,0.5,0.8*11
$GPGSV,8,1,31,005,19,043,45,010,22,197,49,013,11,067,23,015,21,103,41*78
$GPGSV,8,2,31,016,40,299,43,018,75,020,48,023,50,180,51,025,02,167,35*78
$GPGSV,8,3,31,026,48,255,48,027,14,302,42,029,42,110,46,068,03,014,11*76
$GPGSV,8,4,31,069,35,052,47,070,35,133,37,071,01,169,33,075,28,237,41*7C
$GPGSV,8,5,31,076,32,303,45,077,05,345,,084,26,072,36,085,61,349,53*7A
$GPGSV,8,6,31,086,28,292,35,101,47,270,46,103,12,040,29,107,11,142,36*70
$GPGSV,8,7,31,108,24,092,41,113,55,055,45,115,06,073,13,121,34,203,46*74
$GPGSV,8,8,31,126,59,283,46,131,15,323,43,133,13,263,42*79
$GPRMC,114521.00,A,4445.1729,N,03954.9079,E,000.00000,336.0,230522,,,A*5E
$GPZDA,114521.00,23,05,2022,+00,00*49
$GPGGA,114521.20,4445.1729,N,03954.9079,E,1,25,0.5,00146.0,M,0017.1,M,,*6A
$GLGSA,A,3,069,070,075,076,084,085,086,,,,,,1.0,0.5,0.9*17
$GPGSA,A,3,005,010,013,015,016,018,023,026,027,029,,,1.0,0.5,0.9*38
$GAGSA,A,3,103,107,108,113,121,126,131,133,,,,,1.0,0.5,0.9*25
$GPRMC,114521.20,A,4445.1729,N,03954.9079,E,000.00000,336.0,230522,,,A*5C
$GPGGA,114521.40,4445.1729,N,03954.9079,E,1,26,0.5,00146.0,M,0017.1,M,,*6F
$GLGSA,A,3,069,070,075,076,084,085,086,,,,,,1.0,0.5,0.8*16
$GPGSA,A,3,005,010,013,015,016,018,023,026,027,029,,,1.0,0.5,0.8*39
$GAGSA,A,3,103,107,108,113,115,121,126,131,133,,,,1.0,0.5,0.8*11
$GPRMC,114521.40,A,4445.1729,N,03954.9079,E,000.00000,336.0,230522,,,A*5A
$GPGGA,114521.60,4445.1729,N,03954.9079,E,1,24,0.5,00146.0,M,0017.1,M,,*6F
$GLGSA,A,3,069,070,075,076,084,085,086,,,,,,1.0,0.5,0.9*17
$GPGSA,A,3,005,010,015,016,018,023,026,027,029,,,,1.0,0.5,0.9*0A
$GAGSA,A,3,103,107,108,113,121,126,131,133,,,,,1.0,0.5,0.9*25
$GPRMC,114521.60,A,4445.1729,N,03954.9079,E,000.00000,336.0,230522,,,A*58
$GPGGA,114521.80,4445.1729,N,03954.9079,E,1,26,0.5,00146.0,M,0017.1,M,,*63
$GLGSA,A,3,069,070,075,076,084,085,086,,,,,,1.0,0.5,0.8*16
$GPGSA,A,3,005,010,013,015,016,018,023,026,027,029,,,1.0,0.5,0.8*39
$GAGSA,A,3,103,107,108,113,115,121,126,131,133,,,,1.0,0.5,0.8*11
$GPRMC,114521.80,A,4445.1729,N,03954.9079,E,000.00000,336.0,230522,,,A*56
$GPGGA,114522.00,4445.1729,N,03954.9079,E,1,26,0.5,00146.0,M,0017.1,M,,*68
$GLGSA,A,3,069,070,075,076,084,085,086,,,,,,1.0,0.5,0.8*16
$GPGSA,A,3,005,010,013,015,016,018,023,026,027,029,,,1.0,0.5,0.8*39
$GAGSA,A,3,103,107,108,113,115,121,126,131,133,,,,1.0,0.5,0.8*11
$GPGSV,8,1,31,005,19,043,44,010,22,197,49,013,11,067,19,015,21,103,42*73
$GPGSV,8,2,31,016,40,299,43,018,75,020,49,023,50,180,51,025,02,167,35*79
$GPGSV,8,3,31,026,48,255,48,027,14,302,42,029,42,110,45,068,03,014,10*74
$GPGSV,8,4,31,069,35,052,47,070,35,133,36,071,01,169,32,075,28,237,41*7C
$GPGSV,8,5,31,076,32,303,46,077,05,345,,084,26,072,36,085,61,349,53*79
$GPGSV,8,6,31,086,28,292,35,101,47,270,46,103,12,040,28,107,11,142,36*71
$GPGSV,8,7,31,108,24,092,41,113,55,055,45,115,06,073,13,121,34,203,45*77
$GPGSV,8,8,31,126,59,283,46,131,15,323,43,133,13,263,43*78
$GPRMC,114522.00,A,4445.1729,N,03954.9079,E,000.00000,336.0,230522,,,A*5D
$GPZDA,114522.00,23,05,2022,+00,00*4A
$GPGGA,114522.20,4445.1729,N,03954.9079,E,1,26,0.5,00146.0,M,0017.1,M,,*6A
$GLGSA,A,3,069,070,075,076,084,085,086,,,,,,1.0,0.5,0.8*16
$GPGSA,A,3,005,010,013,015,016,018,023,026,027,029,,,1.0,0.5,0.8*39
$GAGSA,A,3,103,107,108,113,115,121,126,131,133,,,,1.0,0.5,0.8*11
$GPRMC,114522.20,A,4445.1729,N,03954.9079,E,000.00000,336.0,230522,,,A*5F
$GPGGA,114522.40,4445.1729,N,03954.9079,E,1,26,0.5,00146.0,M,0017.1,M,,*6C
$GLGSA,A,3,069,070,075,076,084,085,086,,,,,,1.0,0.5,0.8*16
$GPGSA,A,3,005,010,013,015,016,018,023,026,027,029,,,1.0,0.5,0.8*39
$GAGSA,A,3,103,107,108,113,115,121,126,131,133,,,,1.0,0.5,0.8*11
$GPRMC,114522.40,A,4445.1729,N,03954.9079,E,000.00000,336.0,230522,,,A*59
$GPGGA,114522.60,4445.1729,N,03954.9079,E,1,26,0.5,00146.0,M,0017.1,M,,*6E
$GLGSA,A,3,069,070,075,076,084,085,086,,,,,,1.0,0.5,0.8*16
$GPGSA,A,3,005,010,013,015,016,018,023,026,027,029,,,1.0,0.5,0.8*39
$GAGSA,A,3,103,107,108,113,115,121,126,131,133,,,,1.0,0.5,0.8*11
$GPRMC,114522.60,A,4445.1729,N,03954.9079,E,000.00000,336.0,230522,,,A*5B
$GPGGA,114522.80,4445.1729,N,03954.9079,E,1,26,0.5,00146.0,M,0017.1,M,,*60
$GLGSA,A,3,069,070,075,076,084,085,086,,,,,,1.0,0.5,0.8*16
$GPGSA,A,3,005,010,013,015,016,018,023,026,027,029,,,1.0,0.5,0.8*39
$GAGSA,A,3,103,107,108,113,115,121,126,131,133,,,,1.0,0.5,0.8*11
$GPRMC,114522.80,A,4445.1729,N,03954.9079,E,000.00000,336.0,230522,,,A*55
$GPGGA,114523.00,4445.1729,N,03954.9079,E,1,26,0.5,00146.0,M,0017.1,M,,*69
$GLGSA,A,3,069,070,075,076,084,085,086,,,,,,1.0,0.5,0.8*16
$GPGSA,A,3,005,010,013,015,016,018,023,026,027,029,,,1.0,0.5,0.8*39
$GAGSA,A,3,103,107,108,113,115,121,126,131,133,,,,1.0,0.5,0.8*11
$GPGSV,8,1,31,005,19,043,44,010,22,197,49,013,11,067,21,015,21,103,42*78
$GPGSV,8,2,31,016,40,299,43,018,75,021,49,023,50,180,51,025,02,167,36*7B
$GPGSV,8,3,31,026,48,255,48,027,14,302,42,029,42,110,46,068,03,014,11*76
$GPGSV,8,4,31,069,35,052,47,070,35,133,37,071,01,169,32,075,28,237,41*7D
$GPGSV,8,5,31,076,32,303,46,077,05,345,,084,26,072,36,085,61,350,53*71
$GPGSV,8,6,31,086,28,292,35,101,47,270,46,103,12,040,28,107,11,142,37*70
$GPGSV,8,7,31,108,24,092,41,113,55,055,45,115,06,073,13,121,34,203,46*74
$GPGSV,8,8,31,126,59,283,46,131,15,323,43,133,13,263,42*79
$GPRMC,114523.00,A,4445.1729,N,03954.9079,E,000.00000,336.0,230522,,,A*5C
$GPZDA,114523.00,23,05,2022,+00,00*4B
$GPGGA,114523.20,4445.1729,N,03954.9079,E,1,26,0.5,00146.0,M,0017.1,M,,*6B
$GLGSA,A,3,069,070,075,076,084,085,086,,,,,,1.0,0.5,0.8*16
$GPGSA,A,3,005,010,013,015,016,018,023,026,027,029,,,1.0,0.5,0.8*39
$GAGSA,A,3,103,107,108,113,115,121,126,131,133,,,,1.0,0.5,0.8*11
$GPRMC,114523.20,A,4445.1729,N,03954.9079,E,000.00000,336.0,230522,,,A*5E
$GPGGA,114523.40,4445.1729,N,03954.9079,E,1,26,0.5,00145.9,M,0017.1,M,,*67
$GLGSA,A,3,069,070,075,076,084,085,086,,,,,,1.0,0.5,0.8*16
$GPGSA,A,3,005,010,013,015,016,018,023,026,027,029,,,1.0,0.5,0.8*39
$GAGSA,A,3,103,107,108,113,115,121,126,131,133,,,,1.0,0.5,0.8*11
$GPRMC,114523.40,A,4445.1729,N,03954.9079,E,000.00506,097.9,230522,,,A*5A
$GPGGA,114523.60,4445.1729,N,03954.9079,E,1,26,0.5,00145.9,M,0017.1,M,,*65
$GLGSA,A,3,069,070,075,076,084,085,086,,,,,,1.0,0.5,0.8*16
$GPGSA,A,3,005,010,013,015,016,018,023,026,027,029,,,1.0,0.5,0.8*39
$GAGSA,A,3,103,107,108,113,115,121,126,131,133,,,,1.0,0.5,0.8*11
$GPRMC,114523.60,A,4445.1729,N,03954.9079,E,000.00000,336.0,230522,,,A*5A
$GPGGA,114523.80,4445.1729,N,03954.9079,E,1,24,0.5,00145.9,M,0017.1,M,,*69
$GLGSA,A,3,069,070,075,076,084,085,086,,,,,,1.0,0.5,0.9*17
$GPGSA,A,3,005,010,015,016,018,023,026,027,029,,,,1.0,0.5,0.9*0A
$GAGSA,A,3,103,107,108,113,121,126,131,133,,,,,1.0,0.5,0.9*25
$GPRMC,114523.80,A,4445.1729,N,03954.9079,E,000.00000,336.0,230522,,,A*54
$GPGGA,114524.00,4445.1729,N,03954.9079,E,1,26,0.5,00145.9,M,0017.1,M,,*64
$GLGSA,A,3,069,070,075,076,084,085,086,,,,,,1.0,0.5,0.8*16
$GPGSA,A,3,005,010,013,015,016,018,023,026,027,029,,,1.0,0.5,0.8*39
$GAGSA,A,3,103,107,108,113,115,121,126,131,133,,,,1.0,0.5,0.8*11
$GPGSV,8,1,31,005,19,043,44,010,22,197,49,013,11,067,22,015,21,103,42*7B
$GPGSV,8,2,31,016,40,299,43,018,75,021,49,023,50,180,51,025,02,167,35*78
$GPGSV,8,3,31,026,48,255,48,027,14,302,41,029,42,110,46,068,03,014,10*74
$GPGSV,8,4,31,069,35,052,47,070,35,133,37,071,01,169,32,075,28,237,43*7F
$GPGSV,8,5,31,076,32,303,46,077,05,345,,084,26,072,37,085,61,350,52*71
$GPGSV,8,6,31,086,28,292,35,101,47,270,46,103,12,040,27,107,11,142,37*7F
$GPGSV,8,7,31,108,24,092,41,113,55,055,46,115,06,073,13,121,34,203,46*77
$GPGSV,8,8,31,126,59,283,46,131,15,323,43,133,13,263,42*79
$GPRMC,114524.00,A,4445.1729,N,03954.9079,E,000.00000,336.0,230522,,,A*5B
$GPZDA,114524.00,23,05,2022,+00,00*4C
$GPGGA,114524.20,4445.1729,N,03954.9079,E,1,25,0.5,00145.9,M,0017.1,M,,*65
$GLGSA,A,3,069,070,075,076,084,085,086,,,,,,1.0,0.5,0.9*17
$GPGSA,A,3,005,010,013,015,016,018,023,026,027,029,,,1.0,0.5,0.9*38
$GAGSA,A,3,107,108,113,115,121,126,131,133,,,,,1.0,0.5,0.9*22
$GPRMC,114524.20,A,4445.1729,N,03954.9079,E,000.00000,336.0,230522,,,A*59
$GPGGA,114524.40,4445.1729,N,03954.9079,E,1,25,0.5,00145.9,M,0017.1,M,,*63
$GLGSA,A,3,069,070,075,076,084,085,086,,,,,,1.0,0.5,0.9*17
$GPGSA,A,3,005,010,013,015,016,018,023,026,027,029,,,1.0,0.5,0.9*38
$GAGSA,A,3,103,107,108,113,121,126,131,133,,,,,1.0,0.5,0.9*25
$GPRMC,114524.40,A,4445.1729,N,03954.9079,E,000.00000,336.0,230522,,,A*5F
$GPGGA,114524.60,4445.1729,N,03954.9079,E,1,26,0.5,00145.9,M,0017.1,M,,*62
$GLGSA,A,3,069,070,075,076,084,085,086,,,,,,1.0,0.5,0.8*16
$GPGSA,A,3,005,010,013,015,016,018,023,026,027,029,,,1.0,0.5,0.8*39
$GAGSA,A,3,103,107,108,113,115,121,126,131,133,,,,1.0,0.5,0.8*11
$GPRMC,114524.60,A,4445.1729,N,03954.9079,E,000.00000,336.0,230522,,,A*5D
$GPGGA,114524.80,4445.1729,N,03954.9079,E,1,26,0.5,00145.9,M,0017.1,M,,*6C
$GLGSA,A,3,069,070,075,076,084,085,086,,,,,,1.0,0.5,0.8*16
$GPGSA,A,3,005,010,013,015,016,018,023,026,027,029,,,1.0,0.5,0.8*39
$GAGSA,A,3,103,107,108,113,115,121,126,131,133,,,,1.0,0.5,0.8*11
$GPRMC,114524.80,A,4445.1729,N,03954.9079,E,000.00000,336.0,230522,,,A*53
$GPGGA,114525.00,4445.1729,N,03954.9079,E,1,26,0.5,00145.9,M,0017.1,M,,*65
$GLGSA,A,3,069,070,075,076,084,085,086,,,,,,1.0,0.5,0.8*16
$GPGSA,A,3,005,010,013,015,016,018,023,026,027,029,,,1.0,0.5,0.8*39
$GAGSA,A,3,103,107,108,113,115,121,126,131,133,,,,1.0,0.5,0.8*11
$GPGSV,8,1,31,005,19,043,44,010,22,197,49,013,11,067,24,015,21,103,42*7D
$GPGSV,8,2,31,016,40,299,43,018,75,021,49,023,50,180,51,025,02,167,35*78
$GPGSV,8,3,31,026,48,255,48,027,14,302,42,029,42,110,46,068,03,014,11*76
$GPGSV,8,4,31,069,35,052,47,070,35,133,37,071,01,169,30,075,28,237,42*7C
$GPGSV,8,5,31,076,32,303,46,077,05,345,,084,26,072,37,085,61,350,52*71
$GPGSV,8,6,31,086,28,292,34,101,47,270,46,103,12,040,26,107,11,142,37*7F
$GPGSV,8,7,31,108,24,092,41,113,55,055,46,115,06,073,12,121,34,203,45*75
$GPGSV,8,8,31,126,59,283,46,131,15,323,43,133,13,263,42*79
$GPRMC,114525.00,A,4445.1729,N,03954.9079,E,000.00000,336.0,230522,,,A*5A
$GPZDA,114525.00,23,05,2022,+00,00*4D
$GPGGA,114525.20,4445.1729,N,03954.9079,E,1,26,0.5,00145.9,M,0017.1,M,,*67
$GLGSA,A,3,069,070,075,076,084,085,086,,,,,,1.0,0.5,0.8*16
$GPGSA,A,3,005,010,013,015,016,018,023,026,027,029,,,1.0,0.5,0.8*39
$GAGSA,A,3,103,107,108,113,115,121,126,131,133,,,,1.0,0.5,0.8*11
$GPRMC,114525.20,A,4445.1729,N,03954.9079,E,000.00000,336.0,230522,,,A*58
$GPGGA,114525.40,4445.1729,N,03954.9079,E,1,25,0.5,00145.9,M,0017.1,M,,*62
$GLGSA,A,3,069,070,075,076,084,085,086,,,,,,1.0,0.5,0.9*17
$GPGSA,A,3,005,010,013,015,016,018,023,026,027,029,,,1.0,0.5,0.9*38
$GAGSA,A,3,103,107,108,113,121,126,131,133,,,,,1.0,0.5,0.9*25
$GPRMC,114525.40,A,4445.1729,N,03954.9079,E,000.01131,033.2,230522,,,A*58
$GPGGA,114525.60,4445.1729,N,03954.9079,E,1,25,0.5,00145.9,M,0017.1,M,,*60
$GLGSA,A,3,069,070,075,076,084,085,086,,,,,,1.0,0.5,0.9*17
$GPGSA,A,3,005,010,013,015,016,018,023,026,027,029,,,1.0,0.5,0.9*38
$GAGSA,A,3,103,107,108,113,121,126,131,133,,,,,1.0,0.5,0.9*25
$GPRMC,114525.60,A,4445.1729,N,03954.9079,E,000.00000,336.0,230522,,,A*5C
$GPGGA,114525.80,4445.1729,N,03954.9079,E,1,26,0.5,00145.9,M,0017.1,M,,*6D
$GLGSA,A,3,069,070,075,076,084,085,086,,,,,,1.0,0.5,0.8*16
$GPGSA,A,3,005,010,013,015,016,018,023,026,027,029,,,1.0,0.5,0.8*39
$GAGSA,A,3,103,107,108,113,115,121,126,131,133,,,,1.0,0.5,0.8*11
$GPRMC,114525.80,A,4445.1729,N,03954.9079,E,000.00000,336.0,230522,,,A*52
$GPGGA,114526.00,4445.1729,N,03954.9079,E,1,26,0.5,00145.9,M,0017.1,M,,*66
$GLGSA,A,3,069,070,075,076,084,085,086,,,,,,1.0,0.5,0.8*16
$GPGSA,A,3,005,010,013,015,016,018,023,026,027,029,,,1.0,0.5,0.8*39
$GAGSA,A,3,103,107,108,113,115,121,126,131,133,,,,1.0,0.5,0.8*11
$GPGSV,8,1,31,005,19,043,45,010,22,197,50,013,11,067,26,015,21,103,42*76
$GPGSV,8,2,31,016,40,299,43,018,75,021,49,023,50,180,51,025,02,167,33*7E
$GPGSV,8,3,31,026,48,255,48,027,14,302,42,029,42,110,46,068,03,014,09*7F
$GPGSV,8,4,31,069,35,052,47,070,35,133,37,071,01,169,30,075,28,237,42*7C
$GPGSV,8,5,31,076,32,303,46,077,05,345,,084,26,072,37,085,61,350,53*70
$GPGSV,8,6,31,086,28,292,34,101,47,270,46,103,12,040,26,107,11,142,38*70
$GPGSV,8,7,31,108,24,091,41,113,55,055,45,115,06,073,12,121,34,203,46*76
$GPGSV,8,8,31,126,59,283,46,131,15,323,43,133,13,263,42*79
$GPRMC,114526.00,A,4445.1729,N,03954.9079,E,000.00000,336.0,230522,,,A*59
$GPZDA,114526.00,23,05,2022,+00,00*4E
$GPGGA,114526.20,4445.1729,N,03954.9079,E,1,25,0.5,00145.9,M,0017.1,M,,*67
$GLGSA,A,3,069,070,075,076,084,085,086,,,,,,1.0,0.5,0.9*17
$GPGSA,A,3,005,010,013,015,016,018,023,026,027,029,,,1.0,0.5,0.9*38
$GAGSA,A,3,103,107,108,113,121,126,131,133,,,,,1.0,0.5,0.9*25
$GPRMC,114526.20,A,4445.1729,N,03954.9079,E,000.00000,336.0,230522,,,A*5B
$GPGGA,114526.40,4445.1729,N,03954.9079,E,1,26,0.5,00145.9,M,0017.1,M,,*62
$GLGSA,A,3,069,070,075,076,084,085,086,,,,,,1.0,0.5,0.8*16
$GPGSA,A,3,005,010,013,015,016,018,023,026,027,029,,,1.0,0.5,0.8*39
$GAGSA,A,3,103,107,108,113,115,121,126,131,133,,,,1.0,0.5,0.8*11
$GPRMC,114526.40,A,4445.1729,N,03954.9079,E,000.00576,102.4,230522,,,A*58
$GPGGA,114526.60,4445.1729,N,03954.9079,E,1,26,0.5,00145.9,M,0017.1,M,,*60
$GLGSA,A,3,069,070,075,076,084,085,086,,,,,,1.0,0.5,0.8*16
$GPGSA,A,3,005,010,013,015,016,018,023,026,027,029,,,1.0,0.5,0.8*39
$GAGSA,A,3,103,107,108,113,115,121,126,131,133,,,,1.0,0.5,0.8*11
$GPRMC,114526.60,A,4445.1729,N,03954.9079,E,000.00000,336.0,230522,,,A*5F
$GPGGA,114526.80,4445.1729,N,03954.9079,E,1,24,0.5,00145.9,M,0017.1,M,,*6C
$GLGSA,A,3,069,070,075,076,084,085,086,,,,,,1.0,0.5,0.9*17
$GPGSA,A,3,005,010,013,015,016,018,023,026,027,029,,,1.0,0.5,0.9*38
$GAGSA,A,3,107,108,113,121,126,131,133,,,,,,1.0,0.5,0.9*17
$GPRMC,114526.80,A,4445.1729,N,03954.9079,E,000.00000,336.0,230522,,,A*51
$GPGGA,114527.00,4445.1729,N,03954.9079,E,1,26,0.5,00145.9,M,0017.1,M,,*67
$GLGSA,A,3,069,070,075,076,084,085,086,,,,,,1.0,0.5,0.8*16
$GPGSA,A,3,005,010,013,015,016,018,023,026,027,029,,,1.0,0.5,0.8*39
$GAGSA,A,3,103,107,108,113,115,121,126,131,133,,,,1.0,0.5,0.8*11
$GPGSV,8,1,31,005,19,043,45,010,22,197,50,013,11,067,26,015,21,103,43*77
$GPGSV,8,2,31,016,40,299,43,018,75,021,49,023,50,180,51,025,02,167,32*7F
$GPGSV,8,3,31,026,48,255,48,027,14,302,42,029,42,110,47,068,03,014,09*7E
$GPGSV,8,4,31,069,35,052,48,070,35,133,37,071,01,169,32,075,28,237,42*71
$GPGSV,8,5,31,076,32,303,46,077,05,345,,084,26,072,37,085,61,350,53*70
$GPGSV,8,6,31,086,28,292,34,101,47,270,46,103,12,040,26,107,11,142,38*70
$GPGSV,8,7,31,108,24,091,42,113,55,055,45,115,06,073,12,121,34,203,46*75
$GPGSV,8,8,31,126,59,283,46,131,15,323,43,133,13,263,42*79
$GPRMC,114527.00,A,4445.1729,N,03954.9079,E,000.00000,348.9,230522,,,A*58
$GPZDA,114527.00,23,05,2022,+00,00*4F
$GPGGA,114527.20,4445.1729,N,03954.9079,E,1,26,0.5,00145.9,M,0017.1,M,,*65
$GLGSA,A,3,069,070,075,076,084,085,086,,,,,,1.0,0.5,0.8*16
$GPGSA,A,3,005,010,013,015,016,018,023,026,027,029,,,1.0,0.5,0.8*39
$GAGSA,A,3,103,107,108,113,115,121,126,131,133,,,,1.0,0.5,0.8*11
$GPRMC,114527.20,A,4445.1729,N,03954.9079,E,000.00000,352.8,230522,,,A*50
$GPGGA,114527.40,4445.1729,N,03954.9079,E,1,26,0.5,00145.9,M,0017.1,M,,*63
$GLGSA,A,3,069,070,075,076,084,085,086,,,,,,1.0,0.5,0.8*16
$GPGSA,A,3,005,010,013,015,016,018,023,026,027,029,,,1.0,0.5,0.8*39
$GAGSA,A,3,103,107,108,113,115,121,126,131,133,,,,1.0,0.5,0.8*11
$GPRMC,114527.40,A,4445.1729,N,03954.9079,E,000.00000,353.7,230522,,,A*58
$GPGGA,114527.60,4445.1729,N,03954.9079,E,1,25,0.5,00145.9,M,0017.1,M,,*62
$GLGSA,A,3,069,070,075,076,084,085,086,,,,,,1.0,0.5,0.9*17
$GPGSA,A,3,005,010,013,015,016,018,023,026,027,029,,,1.0,0.5,0.9*38
$GAGSA,A,3,103,107,108,113,121,126,131,133,,,,,1.0,0.5,0.9*25
$GPRMC,114527.60,A,4445.1729,N,03954.9079,E,000.00000,353.9,230522,,,A*54
$GPGGA,114527.80,4445.1729,N,03954.9079,E,1,25,0.5,00145.9,M,0017.1,M,,*6C
$GLGSA,A,3,069,070,075,076,084,085,086,,,,,,1.0,0.5,0.9*17
$GPGSA,A,3,005,010,013,015,016,018,023,026,027,029,,,1.0,0.5,0.9*38
$GAGSA,A,3,103,107,108,113,121,126,131,133,,,,,1.0,0.5,0.9*25
$GPRMC,114527.80,A,4445.1729,N,03954.9079,E,000.00000,352.8,230522,,,A*5A
$GPGGA,114528.00,4445.1729,N,03954.9079,E,1,25,0.5,00145.9,M,0017.1,M,,*6B
$GLGSA,A,3,069,070,075,076,084,085,086,,,,,,1.0,0.5,0.9*17
$GPGSA,A,3,005,010,013,015,016,018,023,026,027,029,,,1.0,0.5,0.9*38
$GAGSA,A,3,103,107,108,113,121,126,131,133,,,,,1.0,0.5,0.9*25
$GPGSV,8,1,31,005,19,043,45,010,22,197,50,013,11,067,24,015,21,103,42*74
$GPGSV,8,2,31,016,40,299,43,018,75,021,49,023,50,180,51,025,02,167,33*7E
$GPGSV,8,3,31,026,48,255,48,027,14,302,42,029,42,110,47,068,03,014,08*7F
$GPGSV,8,4,31,069,35,052,48,070,35,133,37,071,01,169,33,075,28,237,41*73
$GPGSV,8,5,31,076,32,303,47,077,05,345,,084,26,072,36,085,61,350,53*70
$GPGSV,8,6,31,086,28,292,35,101,47,269,46,103,12,040,27,107,11,142,37*77
$GPGSV,8,7,31,108,24,091,42,113,55,055,45,115,06,073,09,121,34,203,46*7F
$GPGSV,8,8,31,126,59,283,46,131,15,323,43,133,13,263,42*79
$GPRMC,114528.00,A,4445.1729,N,03954.9079,E,000.00000,351.2,230522,,,A*54
$GPZDA,114528.00,23,05,2022,+00,00*40
$GPGGA,114528.20,4445.1729,N,03954.9079,E,1,25,0.5,00145.9,M,0017.1,M,,*69
$GLGSA,A,3,069,070,075,076,084,085,086,,,,,,1.0,0.5,0.9*17
$GPGSA,A,3,005,010,013,015,016,018,023,026,027,029,,,1.0,0.5,0.9*38
$GAGSA,A,3,103,107,108,113,121,126,131,133,,,,,1.0,0.5,0.9*25
$GPRMC,114528.20,A,4445.1729,N,03954.9079,E,000.00000,348.2,230522,,,A*5E
$GPGGA,114528.40,4445.1729,N,03954.9079,E,1,24,0.5,00145.9,M,0017.1,M,,*6E
$GLGSA,A,3,069,070,075,076,084,085,086,,,,,,1.0,0.5,0.9*17
$GPGSA,A,3,005,010,013,015,016,018,023,026,027,029,,,1.0,0.5,0.9*38
$GAGSA,A,3,107,108,113,121,126,131,133,,,,,,1.0,0.5,0.9*17
$GPRMC,114528.40,A,4445.1729,N,03954.9079,E,000.00000,344.7,230522,,,A*51
$GPGGA,114528.60,4445.1729,N,03954.9079,E,1,25,0.5,00145.9,M,0017.1,M,,*6D
$GLGSA,A,3,069,070,075,076,084,085,086,,,,,,1.0,0.5,0.9*17
$GPGSA,A,3,005,010,013,015,016,018,023,026,027,029,,,1.0,0.5,0.9*38
$GAGSA,A,3,103,107,108,113,121,126,131,133,,,,,1.0,0.5,0.9*25
$GPRMC,114528.60,A,4445.1729,N,03954.9079,E,000.00000,341.8,230522,,,A*59
$GPGGA,114528.80,4445.1729,N,03954.9079,E,1,24,0.5,00145.9,M,0017.1,M,,*62
$GLGSA,A,3,069,070,075,076,084,085,086,,,,,,1.0,0.5,0.9*17
$GPGSA,A,3,005,010,015,016,018,023,026,027,029,,,,1.0,0.5,0.9*0A
$GAGSA,A,3,103,107,108,113,121,126,131,133,,,,,1.0,0.5,0.9*25
$GPRMC,114528.80,A,4445.1729,N,03954.9079,E,000.00000,339.6,230522,,,A*56
$GPGGA,114529.00,4445.1729,N,03954.9079,E,1,25,0.5,00145.9,M,0017.1,M,,*6A
$GLGSA,A,3,069,070,075,076,084,085,086,,,,,,1.0,0.5,0.9*17
$GPGSA,A,3,005,010,013,015,016,018,023,026,027,029,,,1.0,0.5,0.9*38
$GAGSA,A,3,103,107,108,113,121,126,131,133,,,,,1.0,0.5,0.9*25
$GPGSV,8,1,31,005,19,043,45,010,22,197,50,013,11,067,23,015,21,103,42*73
$GPGSV,8,2,31,016,40,299,44,018,75,021,49,023,50,180,51,025,02,167,34*7E
$GPGSV,8,3,31,026,48,255,48,027,14,302,42,029,42,110,47,068,03,014,09*7E
$GPGSV,8,4,31,069,35,052,48,070,35,133,37,071,02,169,32,075,28,237,41*71
$GPGSV,8,5,31,076,32,303,47,077,05,345,,084,26,072,36,085,61,350,53*70
$GPGSV,8,6,31,086,28,292,34,101,47,269,46,103,12,040,28,107,11,142,37*79
$GPGSV,8,7,31,108,24,091,41,113,55,055,45,115,06,073,09,121,34,203,46*7C
$GPGSV,8,8,31,126,59,283,46,131,15,323,43,133,13,263,41*7A
$GPRMC,114529.00,A,4445.1729,N,03954.9079,E,000.00000,338.2,230522,,,A*5A
$GPZDA,114529.00,23,05,2022,+00,00*41
$GPGGA,114529.20,4445.1729,N,03954.9079,E,1,25,0.5,00145.9,M,0017.1,M,,*68
$GLGSA,A,3,069,070,075,076,084,085,086,,,,,,1.0,0.5,0.9*17
$GPGSA,A,3,005,010,013,015,016,018,023,026,027,029,,,1.0,0.5,0.9*38
$GAGSA,A,3,103,107,108,113,121,126,131,133,,,,,1.0,0.5,0.9*25
$GPRMC,114529.20,A,4445.1729,N,03954.9079,E,000.00000,337.3,230522,,,A*56
$GPGGA,114529.40,4445.1729,N,03954.9079,E,1,25,0.5,00145.9,M,0017.1,M,,*6E
$GLGSA,A,3,069,070,075,076,084,085,086,,,,,,1.0,0.5,0.9*17
$GPGSA,A,3,005,010,013,015,016,018,023,026,027,029,,,1.0,0.5,0.9*38
$GAGSA,A,3,103,107,108,113,121,126,131,133,,,,,1.0,0.5,0.9*25
$GPRMC,114529.40,A,4445.1729,N,03954.9079,E,000.00000,338.5,230522,,,A*59
$GPGGA,114529.60,4445.1729,N,03954.9079,E,1,26,0.5,00145.9,M,0017.1,M,,*6F
$GLGSA,A,3,069,070,075,076,084,085,086,,,,,,1.0,0.5,0.8*16
$GPGSA,A,3,005,010,013,015,016,018,023,026,027,029,,,1.0,0.5,0.8*39
$GAGSA,A,3,103,107,108,113,115,121,126,131,133,,,,1.0,0.5,0.8*11
$GPRMC,114529.60,A,4445.1729,N,03954.9079,E,000.00000,346.8,230522,,,A*5F
$GPGGA,114529.80,4445.1729,N,03954.9079,E,1,26,0.5,00145.9,M,0017.1,M,,*61
$GLGSA,A,3,069,070,075,076,084,085,086,,,,,,1.0,0.5,0.8*16
$GPGSA,A,3,005,010,013,015,016,018,023,026,027,029,,,1.0,0.5,0.8*39
$GAGSA,A,3,103,107,108,113,115,121,126,131,133,,,,1.0,0.5,0.8*11
$GPRMC,114529.80,A,4445.1729,N,03954.9079,E,000.00000,350.6,230522,,,A*58
$GPGGA,114530.00,4445.1729,N,03954.9079,E,1,26,0.5,00145.9,M,0017.1,M,,*61
$GLGSA,A,3,069,070,075,076,084,085,086,,,,,,1.0,0.5,0.8*16
$GPGSA,A,3,005,010,013,015,016,018,023,026,027,029,,,1.0,0.5,0.8*39
$GAGSA,A,3,103,107,108,113,115,121,126,131,133,,,,1.0,0.5,0.8*11
$GPGSV,8,1,31,005,19,043,45,010,22,197,50,013,11,067,24,015,21,103,42*74
$GPGSV,8,2,31,016,40,299,43,018,75,021,49,023,50,180,51,025,02,167,34*79
$GPGSV,8,3,31,026,48,255,48,027,14,302,42,029,42,110,47,068,03,014,11*77
$GPGSV,8,4,31,069,35,052,48,070,35,133,37,071,02,169,33,075,28,237,41*70
$GPGSV,8,5,31,076,32,303,47,077,05,345,,084,26,072,36,085,61,350,53*70
$GPGSV,8,6,31,086,28,292,34,101,47,269,46,103,12,040,30,107,11,142,37*70
$GPGSV,8,7,31,108,24,091,41,113,55,055,45,115,06,073,13,121,34,203,45*74
$GPGSV,8,8,31,126,59,283,46,131,15,323,43,133,13,263,42*79
$GPRMC,114530.00,A,4445.1729,N,03954.9079,E,000.00000,353.8,230522,,,A*55
$GPZDA,114530.00,23,05,2022,+00,00*49
$GPGGA,114530.20,4445.1729,N,03954.9079,E,1,26,0.5,00145.9,M,0017.1,M,,*63
$GLGSA,A,3,069,070,075,076,084,085,086,,,,,,1.0,0.5,0.8*16
$GPGSA,A,3,005,010,013,015,016,018,023,026,027,029,,,1.0,0.5,0.8*39
$GAGSA,A,3,103,107,108,113,115,121,126,131,133,,,,1.0,0.5,0.8*11
$GPRMC,114530.20,A,4445.1729,N,03954.9079,E,000.00000,354.4,230522,,,A*5C
$GPGGA,114530.40,4445.1729,N,03954.9079,E,1,26,0.5,00145.9,M,0017.1,M,,*65
$GLGSA,A,3,069,070,075,076,084,085,086,,,,,,1.0,0.5,0.8*16
$GPGSA,A,3,005,010,013,015,016,018,023,026,027,029,,,1.0,0.5,0.8*39
$GAGSA,A,3,103,107,108,113,115,121,126,131,133,,,,1.0,0.5,0.8*11
$GPRMC,114530.40,A,4445.1729,N,03954.9079,E,000.00000,354.7,230522,,,A*59
$GPGGA,114530.60,4445.1729,N,03954.9079,E,1,26,0.5,00145.9,M,0017.1,M,,*67
$GLGSA,A,3,069,070,075,076,084,085,086,,,,,,1.0,0.5,0.8*16
$GPGSA,A,3,005,010,013,015,016,018,023,026,027,029,,,1.0,0.5,0.8*39
$GAGSA,A,3,103,107,108,113,115,121,126,131,133,,,,1.0,0.5,0.8*11
$GPRMC,114530.60,A,4445.1729,N,03954.9079,E,000.00000,354.1,230522,,,A*5D
$GPGGA,114530.80,4445.1729,N,03954.9079,E,1,26,0.5,00145.9,M,0017.1,M,,*69
$GLGSA,A,3,069,070,075,076,084,085,086,,,,,,1.0,0.5,0.8*16
$GPGSA,A,3,005,010,013,015,016,018,023,026,027,029,,,1.0,0.5,0.8*39
$GAGSA,A,3,103,107,108,113,115,121,126,131,133,,,,1.0,0.5,0.8*11
$GPRMC,114530.80,A,4445.1729,N,03954.9079,E,000.00000,354.2,230522,,,A*50
$GPGGA,114531.00,4445.1729,N,03954.9079,E,1,26,0.5,00145.9,M,0017.1,M,,*60
$GLGSA,A,3,069,070,075,076,084,085,086,,,,,,1.0,0.5,0.8*16
$GPGSA,A,3,005,010,013,015,016,018,023,026,027,029,,,1.0,0.5,0.8*39
$GAGSA,A,3,103,107,108,113,115,121,126,131,133,,,,1.0,0.5,0.8*11
$GPGSV,8,1,31,005,19,043,45,010,22,197,50,013,11,067,26,015,21,103,42*76
$GPGSV,8,2,31,016,40,299,43,018,75,021,49,023,50,180,51,025,02,167,33*7E
$GPGSV,8,3,31,026,48,255,48,027,14,302,42,029,42,110,47,068,03,014,07*70
$GPGSV,8,4,31,069,35,052,48,070,35,133,37,071,02,169,34,075,28,237,41*77
$GPGSV,8,5,31,076,32,303,47,077,05,345,,084,26,072,37,085,61,350,53*71
$GPGSV,8,6,31,086,28,292,34,101,47,269,46,103,12,040,30,107,11,142,37*70
$GPGSV,8,7,31,108,24,091,41,113,55,055,46,115,06,073,14,121,34,203,46*73
$GPGSV,8,8,31,126,59,283,46,131,15,323,43,133,13,263,42*79
$GPRMC,114531.00,A,4445.1729,N,03954.9079,E,000.00000,354.3,230522,,,A*58
$GPZDA,114531.00,23,05,2022,+00,00*48
$GPGGA,114531.20,4445.1729,N,03954.9079,E,1,26,0.5,00145.9,M,0017.1,M,,*62
$GLGSA,A,3,069,070,075,076,084,085,086,,,,,,1.0,0.5,0.8*16
$GPGSA,A,3,005,010,013,015,016,018,023,026,027,029,,,1.0,0.5,0.8*39
$GAGSA,A,3,103,107,108,113,115,121,126,131,133,,,,1.0,0.5,0.8*11
$GPRMC,114531.20,A,4445.1729,N,03954.9079,E,000.00000,353.8,230522,,,A*56
$GPGGA,114531.40,4445.1729,N,03954.9079,E,1,26,0.5,00145.9,M,0017.1,M,,*64
$GLGSA,A,3,069,070,075,076,084,085,086,,,,,,1.0,0.5,0.8*16
$GPGSA,A,3,005,010,013,015,016,018,023,026,027,029,,,1.0,0.5,0.8*39
$GAGSA,A,3,103,107,108,113,115,121,126,131,133,,,,1.0,0.5,0.8*11
$GPRMC,114531.40,A,4445.1729,N,03954.9079,E,000.00000,352.9,230522,,,A*50
$GPGGA,114531.60,4445.1729,N,03954.9079,E,1,26,0.5,00145.9,M,0017.1,M,,*66
$GLGSA,A,3,069,070,075,076,084,085,086,,,,,,1.0,0.5,0.8*16
$GPGSA,A,3,005,010,013,015,016,018,023,026,027,029,,,1.0,0.5,0.8*39
$GAGSA,A,3,103,107,108,113,115,121,126,131,133,,,,1.0,0.5,0.8*11
$GPRMC,114531.60,A,4445.1729,N,03954.9079,E,000.00000,353.4,230522,,,A*5E
$GPGGA,114531.80,4445.1729,N,03954.9079,E,1,25,0.5,00145.9,M,0017.1,M,,*6B
$GLGSA,A,3,069,070,075,076,084,085,086,,,,,,1.0,0.5,0.9*17
$GPGSA,A,3,005,010,013,015,016,018,023,026,027,029,,,1.0,0.5,0.9*38
$GAGSA,A,3,103,107,108,113,121,126,131,133,,,,,1.0,0.5,0.9*25
$GPRMC,114531.80,A,4445.1729,N,03954.9079,E,000.00000,353.9,230522,,,A*5D
$GPGGA,114532.00,4445.1729,N,03954.9079,E,1,26,0.5,00145.9,M,0017.1,M,,*63
$GLGSA,A,3,069,070,075,076,084,085,086,,,,,,1.0,0.5,0.8*16
$GPGSA,A,3,005,010,013,015,016,018,023,026,027,029,,,1.0,0.5,0.8*39
$GAGSA,A,3,103,107,108,113,115,121,126,131,133,,,,1.0,0.5,0.8*11
$GPGSV,8,1,31,005,19,043,45,010,22,197,50,013,11,067,27,015,21,103,42*77
$GPGSV,8,2,31,016,40,299,43,018,75,021,49,023,50,180,51,025,02,167,33*7E
$GPGSV,8,3,31,026,48,255,48,027,14,302,42,029,42,110,47,068,03,014,06*71
$GPGSV,8,4,31,069,35,052,48,070,35,133,37,071,02,169,32,075,28,237,41*71
$GPGSV,8,5,31,076,32,303,47,077,05,345,,084,26,072,36,085,61,350,53*70
$GPGSV,8,6,31,086,28,292,34,101,47,269,46,103,12,040,30,107,11,142,37*70
$GPGSV,8,7,31,108,24,091,41,113,55,055,45,115,06,073,13,121,34,203,46*77
$GPGSV,8,8,31,126,59,283,46,131,15,323,43,133,13,263,41*7A
$GPRMC,114532.00,A,4445.1729,N,03954.9079,E,000.00000,353.4,230522,,,A*5B
$GPZDA,114532.00,23,05,2022,+00,00*4B
$GPGGA,114532.20,4445.1729,N,03954.9079,E,1,26,0.5,00145.9,M,0017.1,M,,*61
$GLGSA,A,3,069,070,075,076,084,085,086,,,,,,1.0,0.5,0.8*16
$GPGSA,A,3,005,010,013,015,016,018,023,026,027,029,,,1.0,0.5,0.8*39
$GAGSA,A,3,103,107,108,113,115,121,126,131,133,,,,1.0,0.5,0.8*11
$GPRMC,114532.20,A,4445.1729,N,03954.9079,E,000.00000,352.9,230522,,,A*55
$GPGGA,114532.40,4445.1729,N,03954.9079,E,1,26,0.5,00145.8,M,0017.1,M,,*66
$GLGSA,A,3,069,070,075,076,084,085,086,,,,,,1.0,0.5,0.8*16
$GPGSA,A,3,005,010,013,015,016,018,023,026,027,029,,,1.0,0.5,0.8*39
$GAGSA,A,3,103,107,108,113,115,121,126,131,133,,,,1.0,0.5,0.8*11
$GPRMC,114532.40,A,4445.1729,N,03954.9079,E,000.00256,100.5,230522,,,A*5B
$GPGGA,114532.60,4445.1729,N,03954.9079,E,1,26,0.5,00145.8,M,0017.1,M,,*64
$GLGSA,A,3,069,070,075,076,084,085,086,,,,,,1.0,0.5,0.8*16
$GPGSA,A,3,005,010,013,015,016,018,023,026,027,029,,,1.0,0.5,0.8*39
$GAGSA,A,3,103,107,108,113,115,121,126,131,133,,,,1.0,0.5,0.8*11
$GPRMC,114532.60,A,4445.1729,N,03954.9079,E,000.00000,348.9,230522,,,A*5A
$GPGGA,114532.80,4445.1729,N,03954.9079,E,1,26,0.5,00145.8,M,0017.1,M,,*6A
$GLGSA,A,3,069,070,075,076,084,085,086,,,,,,1.0,0.5,0.8*16
$GPGSA,A,3,005,010,013,015,016,018,023,026,027,029,,,1.0,0.5,0.8*39
$GAGSA,A,3,103,107,108,113,115,121,126,131,133,,,,1.0,0.5,0.8*11
$GPRMC,114532.80,A,4445.1729,N,03954.9079,E,000.00000,347.9,230522,,,A*5B
$GPGGA,114533.00,4445.1729,N,03954.9079,E,1,26,0.5,00145.8,M,0017.1,M,,*63
$GLGSA,A,3,069,070,075,076,084,085,086,,,,,,1.0,0.5,0.8*16
$GPGSA,A,3,005,010,013,015,016,018,023,026,027,029,,,1.0,0.5,0.8*39
$GAGSA,A,3,103,107,108,113,115,121,126,131,133,,,,1.0,0.5,0.8*11
$GPGSV,8,1,31,005,19,043,44,010,22,197,50,013,11,067,28,015,21,103,43*78
$GPGSV,8,2,31,016,40,299,43,018,75,021,49,023,50,180,51,025,02,167,32*7F
$GPGSV,8,3,31,026,48,255,48,027,14,302,42,029,42,110,47,068,03,014,07*70
$GPGSV,8,4,31,069,35,052,48,070,35,133,37,071,02,169,33,075,28,237,40*71
$GPGSV,8,5,31,076,32,303,47,077,05,345,,084,26,072,37,085,61,350,53*71
$GPGSV,8,6,31,086,28,292,34,101,47,269,46,103,12,040,29,107,11,142,37*78
$GPGSV,8,7,31,108,24,091,41,113,55,055,45,115,06,073,13,121,34,203,46*77
$GPGSV,8,8,31,126,59,283,46,131,15,323,42,133,13,263,41*7B
$GPRMC,114533.00,A,4445.1729,N,03954.9079,E,000.00000,346.1,230522,,,A*5B
$GPZDA,114533.00,23,05,2022,+00,00*4A
$GPGGA,114533.20,4445.1729,N,03954.9079,E,1,25,0.5,00145.8,M,0017.1,M,,*62
$GLGSA,A,3,069,070,075,076,084,085,086,,,,,,1.0,0.5,0.9*17
$GPGSA,A,3,005,010,013,015,016,018,023,026,027,029,,,1.0,0.5,0.9*38
$GAGSA,A,3,103,107,108,113,121,126,131,133,,,,,1.0,0.5,0.9*25
$GPRMC,114533.20,A,4445.1729,N,03954.9079,E,000.00000,344.5,230522,,,A*5F
$GPGGA,114533.40,4445.1729,N,03954.9079,E,1,26,0.5,00145.8,M,0017.1,M,,*67
$GLGSA,A,3,069,070,075,076,084,085,086,,,,,,1.0,0.5,0.8*16
$GPGSA,A,3,005,010,013,015,016,018,023,026,027,029,,,1.0,0.5,0.8*39
$GAGSA,A,3,103,107,108,113,115,121,126,131,133,,,,1.0,0.5,0.8*11
$GPRMC,114533.40,A,4445.1729,N,03954.9079,E,000.00000,342.8,230522,,,A*52
$GPGGA,114533.60,4445.1729,N,03954.9079,E,1,26,0.5,00145.8,M,0017.1,M,,*65
$GLGSA,A,3,069,070,075,076,084,085,086,,,,,,1.0,0.5,0.8*16
$GPGSA,A,3,005,010,013,015,016,018,023,026,027,029,,,1.0,0.5,0.8*39
$GAGSA,A,3,103,107,108,113,115,121,126,131,133,,,,1.0,0.5,0.8*11
$GPRMC,114533.60,A,4445.1729,N,03954.9079,E,000.00000,343.5,230522,,,A*5C
$GPGGA,114533.80,4445.1729,N,03954.9079,E,1,26,0.5,00145.8,M,0017.1,M,,*6B
$GLGSA,A,3,069,070,075,076,084,085,086,,,,,,1.0,0.5,0.8*16
$GPGSA,A,3,005,010,013,015,016,018,023,026,027,029,,,1.0,0.5,0.8*39
$GAGSA,A,3,103,107,108,113,115,121,126,131,133,,,,1.0,0.5,0.8*11
$GPRMC,114533.80,A,4445.1729,N,03954.9079,E,000.00000,341.9,230522,,,A*5C
$GPGGA,114534.00,4445.1729,N,03954.9079,E,1,25,0.5,00145.8,M,0017.1,M,,*67
$GLGSA,A,3,069,070,075,076,084,085,086,,,,,,1.0,0.5,0.9*17
$GPGSA,A,3,005,010,013,015,016,018,023,026,027,029,,,1.0,0.5,0.9*38
$GAGSA,A,3,103,107,108,113,121,126,131,133,,,,,1.0,0.5,0.9*25
$GPGSV,8,1,31,005,19,043,45,010,22,197,50,013,11,067,27,015,21,103,43*76
$GPGSV,8,2,31,016,40,299,43,018,75,021,49,023,50,180,50,025,02,167,32*7E
$GPGSV,8,3,31,026,48,255,48,027,14,302,42,029,42,110,47,068,03,014,*77
$GPGSV,8,4,31,069,35,052,48,070,36,133,37,071,02,169,33,075,28,237,41*73
$GPGSV,8,5,31,076,32,303,47,077,05,345,,084,26,072,37,085,61,350,53*71
$GPGSV,8,6,31,086,28,292,34,101,47,269,46,103,12,040,30,107,11,142,37*70
$GPGSV,8,7,31,108,24,091,41,113,55,055,46,115,06,073,15,121,34,203,46*72
$GPGSV,8,8,31,126,59,283,46,131,15,323,43,133,13,263,41*7A
$GPRMC,114534.00,A,4445.1729,N,03954.9079,E,000.00000,342.5,230522,,,A*5C
$GPZDA,114534.00,23,05,2022,+00,00*4D
$GPGGA,114534.20,4445.1729,N,03954.9079,E,1,26,0.5,00145.8,M,0017.1,M,,*66
$GLGSA,A,3,069,070,075,076,084,085,086,,,,,,1.0,0.5,0.8*16
$GPGSA,A,3,005,010,013,015,016,018,023,026,027,029,,,1.0,0.5,0.8*39
$GAGSA,A,3,103,107,108,113,115,121,126,131,133,,,,1.0,0.5,0.8*11
$GPRMC,114534.20,A,4445.1729,N,03954.9079,E,000.00000,350.5,230522,,,A*5D
$GPGGA,114534.40,4445.1729,N,03954.9079,E,1,26,0.5,00145.8,M,0017.1,M,,*60
$GLGSA,A,3,069,070,075,076,084,085,086,,,,,,1.0,0.5,0.8*16
$GPGSA,A,3,005,010,013,015,016,018,023,026,027,029,,,1.0,0.5,0.8*39
$GAGSA,A,3,103,107,108,113,115,121,126,131,133,,,,1.0,0.5,0.8*11
$GPRMC,114534.40,A,4445.1729,N,03954.9079,E,000.00000,352.7,230522,,,A*5B
$GPGGA,114534.60,4445.1729,N,03954.9079,E,1,26,0.5,00145.8,M,0017.1,M,,*62
$GLGSA,A,3,069,070,075,076,084,085,086,,,,,,1.0,0.5,0.8*16
$GPGSA,A,3,005,010,013,015,016,018,023,026,027,029,,,1.0,0.5,0.8*39
$GAGSA,A,3,103,107,108,113,115,121,126,131,133,,,,1.0,0.5,0.8*11
$GPRMC,114534.60,A,4445.1729,N,03954.9079,E,000.00000,352.1,230522,,,A*5F
$GPGGA,114534.80,4445.1729,N,03954.9079,E,1,26,0.5,00145.8,M,0017.1,M,,*6C
$GLGSA,A,3,069,070,075,076,084,085,086,,,,,,1.0,0.5,0.8*16
$GPGSA,A,3,005,010,013,015,016,018,023,026,027,029,,,1.0,0.5,0.8*39
$GAGSA,A,3,103,107,108,113,115,121,126,131,133,,,,1.0,0.5,0.8*11
$GPRMC,114534.80,A,4445.1729,N,03954.9079,E,000.00000,349.2,230522,,,A*58
$GPGGA,114535.00,4445.1729,N,03954.9079,E,1,26,0.5,00145.8,M,0017.1,M,,*65
$GLGSA,A,3,069,070,075,076,084,085,086,,,,,,1.0,0.5,0.8*16
$GPGSA,A,3,005,010,013,015,016,018,023,026,027,029,,,1.0,0.5,0.8*39
$GAGSA,A,3,103,107,108,113,115,121,126,131,133,,,,1.0,0.5,0.8*11
$GPGSV,8,1,31,005,19,043,45,010,22,197,50,013,11,067,27,015,21,103,43*76
$GPGSV,8,2,31,016,40,299,43,018,75,021,49,023,50,180,50,025,02,167,32*7E
$GPGSV,8,3,31,026,48,255,47,027,14,302,42,029,42,110,47,068,03,014,*78
$GPGSV,8,4,31,069,35,052,48,070,36,133,37,071,02,169,33,075,28,237,41*73
$GPGSV,8,5,31,076,32,303,47,077,05,345,,084,26,072,37,085,61,350,53*71
$GPGSV,8,6,31,086,28,292,34,101,47,269,46,103,12,040,30,107,11,142,37*70
$GPGSV,8,7,31,108,24,091,40,113,55,055,46,115,06,073,14,121,34,203,46*72
$GPGSV,8,8,31,126,59,283,46,131,15,323,43,133,13,263,41*7A
$GPRMC,114535.00,A,4445.1729,N,03954.9079,E,000.00000,345.7,230522,,,A*58
$GPZDA,114535.00,23,05,2022,+00,00*4C
$GPGGA,114535.20,4445.1729,N,03954.9079,E,1,26,0.5,00145.8,M,0017.1,M,,*67
$GLGSA,A,3,069,070,075,076,084,085,086,,,,,,1.0,0.5,0.8*16
$GPGSA,A,3,005,010,013,015,016,018,023,026,027,029,,,1.0,0.5,0.8*39
$GAGSA,A,3,103,107,108,113,115,121,126,131,133,,,,1.0,0.5,0.8*11
$GPRMC,114535.20,A,4445.1729,N,03954.9079,E,000.00000,342.6,230522,,,A*5C
$GPGGA,114535.40,4445.1729,N,03954.9079,E,1,26,0.5,00145.8,M,0017.1,M,,*61
$GLGSA,A,3,069,070,075,076,084,085,086,,,,,,1.0,0.5,0.8*16
$GPGSA,A,3,005,010,013,015,016,018,023,026,027,029,,,1.0,0.5,0.8*39
$GAGSA,A,3,103,107,108,113,115,121,126,131,133,,,,1.0,0.5,0.8*11
$GPRMC,114535.40,A,4445.1729,N,03954.9079,E,000.00398,102.8,230522,,,A*50
$GPGGA,114535.60,4445.1729,N,03954.9079,E,1,25,0.5,00145.8,M,0017.1,M,,*60
$GLGSA,A,3,069,070,075,076,084,085,086,,,,,,1.0,0.5,0.9*17
$GPGSA,A,3,005,010,013,015,016,018,023,026,027,029,,,1.0,0.5,0.9*38
$GAGSA,A,3,103,107,108,113,121,126,131,133,,,,,1.0,0.5,0.9*25
$GPRMC,114535.60,A,4445.1729,N,03954.9079,E,000.00000,336.0,230522,,,A*5D
$GPGGA,114535.80,4445.1729,N,03954.9079,E,1,26,0.5,00145.8,M,0017.1,M,,*6D
$GLGSA,A,3,069,070,075,076,084,085,086,,,,,,1.0,0.5,0.8*16
$GPGSA,A,3,005,010,013,015,016,018,023,026,027,029,,,1.0,0.5,0.8*39
$GAGSA,A,3,103,107,108,113,115,121,126,131,133,,,,1.0,0.5,0.8*11
$GPRMC,114535.80,A,4445.1729,N,03954.9079,E,000.00000,348.4,230522,,,A*5E
$GPGGA,114536.00,4445.1729,N,03954.9079,E,1,26,0.5,00145.8,M,0017.1,M,,*66
$GLGSA,A,3,069,070,075,076,084,085,086,,,,,,1.0,0.5,0.8*16
$GPGSA,A,3,005,010,013,015,016,018,023,026,027,029,,,1.0,0.5,0.8*39
$GAGSA,A,3,103,107,108,113,115,121,126,131,133,,,,1.0,0.5,0.8*11
$GPGSV,8,1,31,005,19,043,45,010,22,197,50,013,11,067,27,015,21,103,43*76
$GPGSV,8,2,31,016,40,299,44,018,75,021,49,023,50,180,50,025,02,167,33*78
$GPGSV,8,3,31,026,48,255,47,027,14,302,43,029,42,110,47,068,03,014,*79
$GPGSV,8,4,31,069,35,052,48,070,36,133,37,071,02,169,33,075,28,237,41*73
$GPGSV,8,5,31,076,32,303,47,077,05,345,,084,26,072,37,085,61,350,52*70
$GPGSV,8,6,31,086,28,292,35,101,47,269,46,103,12,040,29,107,11,142,37*79
$GPGSV,8,7,31,108,24,091,41,113,55,055,46,115,06,073,14,121,34,203,46*73
$GPGSV,8,8,31,126,59,283,46,131,15,323,43,133,13,263,42*79
$GPRMC,114536.00,A,4445.1729,N,03954.9079,E,000.00000,349.9,230522,,,A*59
$GPZDA,114536.00,23,05,2022,+00,00*4F
$GPGGA,114536.20,4445.1729,N,03954.9079,E,1,26,0.5,00145.8,M,0017.1,M,,*64
$GLGSA,A,3,069,070,075,076,084,085,086,,,,,,1.0,0.5,0.8*16
$GPGSA,A,3,005,010,013,015,016,018,023,026,027,029,,,1.0,0.5,0.8*39
$GAGSA,A,3,103,107,108,113,115,121,126,131,133,,,,1.0,0.5,0.8*11
$GPRMC,114536.20,A,4445.1729,N,03954.9079,E,000.00000,348.7,230522,,,A*54
$GPGGA,114536.40,4445.1729,N,03954.9079,E,1,26,0.5,00145.8,M,0017.1,M,,*62
$GLGSA,A,3,069,070,075,076,084,085,086,,,,,,1.0,0.5,0.8*16
$GPGSA,A,3,005,010,013,015,016,018,023,026,027,029,,,1.0,0.5,0.8*39
$GAGSA,A,3,103,107,108,113,115,121,126,131,133,,,,1.0,0.5,0.8*11
$GPRMC,114536.40,A,4445.1729,N,03954.9079,E,000.00000,348.1,230522,,,A*54
$GPGGA,114536.60,4445.1729,N,03954.9079,E,1,25,0.5,00145.8,M,0017.1,M,,*63
$GLGSA,A,3,069,070,075,076,084,085,086,,,,,,1.0,0.5,0.9*17
$GPGSA,A,3,005,010,013,015,016,018,023,026,027,029,,,1.0,0.5,0.9*38
$GAGSA,A,3,103,107,108,113,121,126,131,133,,,,,1.0,0.5,0.9*25
$GPRMC,114536.60,A,4445.1729,N,03954.9079,E,000.00000,346.3,230522,,,A*5A
$GPGGA,114536.80,4445.1729,N,03954.9079,E,1,25,0.5,00145.8,M,0017.1,M,,*6D
$GLGSA,A,3,069,070,075,076,084,085,086,,,,,,1.0,0.5,0.9*17
$GPGSA,A,3,005,010,013,015,016,018,023,026,027,029,,,1.0,0.5,0.9*38
$GAGSA,A,3,103,107,108,113,121,126,131,133,,,,,1.0,0.5,0.9*25
$GPRMC,114536.80,A,4445.1729,N,03954.9079,E,000.00000,343.1,230522,,,A*53
$GPGGA,114537.00,4445.1729,N,03954.9079,E,1,25,0.5,00145.8,M,0017.1,M,,*64
$GLGSA,A,3,069,070,075,076,084,085,086,,,,,,1.0,0.5,0.9*17
$GPGSA,A,3,005,010,013,015,016,018,023,026,027,029,,,1.0,0.5,0.9*38
$GAGSA,A,3,107,108,113,115,121,126,131,133,,,,,1.0,0.5,0.9*22
$GPGSV,8,1,31,005,19,043,45,010,22,197,50,013,11,067,25,015,21,103,43*74
$GPGSV,8,2,31,016,40,299,44,018,75,021,49,023,50,180,50,025,02,167,33*78
$GPGSV,8,3,31,026,48,255,47,027,14,302,43,029,42,110,47,068,03,014,*79
$GPGSV,8,4,31,069,35,052,48,070,36,133,38,071,02,169,34,075,28,237,42*78
$GPGSV,8,5,31,076,32,303,46,077,05,345,,084,26,072,37,085,61,350,52*71
$GPGSV,8,6,31,086,28,292,35,101,47,269,46,103,12,040,29,107,11,142,37*79
$GPGSV,8,7,31,108,24,091,41,113,55,055,45,115,06,073,16,121,34,203,46*72
$GPGSV,8,8,31,126,59,283,46,131,15,323,42,133,13,263,42*78
$GPRMC,114537.00,A,4445.1729,N,03954.9079,E,000.00000,340.6,230522,,,A*5E
$GPZDA,114537.00,23,05,2022,+00,00*4E
$GPGGA,114537.20,4445.1729,N,03954.9079,E,1,26,0.5,00145.8,M,0017.1,M,,*65
$GLGSA,A,3,069,070,075,076,084,085,086,,,,,,1.0,0.5,0.8*16
$GPGSA,A,3,005,010,013,015,016,018,023,026,027,029,,,1.0,0.5,0.8*39
$GAGSA,A,3,103,107,108,113,115,121,126,131,133,,,,1.0,0.5,0.8*11
$GPRMC,114537.20,A,4445.1729,N,03954.9079,E,000.00000,338.8,230522,,,A*5D
$GPGGA,114537.40,4445.1729,N,03954.9079,E,1,26,0.5,00145.8,M,0017.1,M,,*63
$GLGSA,A,3,069,070,075,076,084,085,086,,,,,,1.0,0.5,0.8*16
$GPGSA,A,3,005,010,013,015,016,018,023,026,027,029,,,1.0,0.5,0.8*39
$GAGSA,A,3,103,107,108,113,115,121,126,131,133,,,,1.0,0.5,0.8*11
$GPRMC,114537.40,A,4445.1729,N,03954.9079,E,000.00592,099.0,230522,,,A*55
$GPGGA,114537.60,4445.1729,N,03954.9079,E,1,26,0.5,00145.8,M,0017.1,M,,*61
$GLGSA,A,3,069,070,075,076,084,085,086,,,,,,1.0,0.5,0.8*16
$GPGSA,A,3,005,010,013,015,016,018,023,026,027,029,,,1.0,0.5,0.8*39
$GAGSA,A,3,103,107,108,113,115,121,126,131,133,,,,1.0,0.5,0.8*11
$GPRMC,114537.60,A,4445.1729,N,03954.9079,E,000.00000,337.4,230522,,,A*5A
$GPGGA,114537.80,4445.1729,N,03954.9079,E,1,26,0.5,00145.8,M,0017.1,M,,*6F
$GLGSA,A,3,069,070,075,076,084,085,086,,,,,,1.0,0.5,0.8*16
$GPGSA,A,3,005,010,013,015,016,018,023,026,027,029,,,1.0,0.5,0.8*39
$GAGSA,A,3,103,107,108,113,115,121,126,131,133,,,,1.0,0.5,0.8*11
$GPRMC,114537.80,A,4445.1729,N,03954.9079,E,000.00000,336.8,230522,,,A*59
$GPGGA,114538.00,4445.1729,N,03954.9079,E,1,25,0.5,00145.8,M,0017.1,M,,*6B
$GLGSA,A,3,069,070,075,076,084,085,086,,,,,,1.0,0.5,0.9*17
$GPGSA,A,3,005,010,013,015,016,018,023,026,027,029,,,1.0,0.5,0.9*38
$GAGSA,A,3,107,108,113,115,121,126,131,133,,,,,1.0,0.5,0.9*22
$GPGSV,8,1,31,005,19,043,45,010,22,197,50,013,11,067,25,015,21,103,43*74
$GPGSV,8,2,31,016,40,299,44,018,75,021,49,023,50,180,50,025,02,167,32*79
$GPGSV,8,3,31,026,48,255,48,027,14,302,43,029,42,110,47,068,03,014,*76
$GPGSV,8,4,31,069,35,052,48,070,36,133,38,071,02,169,34,075,28,237,41*7B
$GPGSV,8,5,31,076,32,303,47,077,05,345,,084,26,072,36,085,61,350,52*71
$GPGSV,8,6,31,086,28,292,35,101,47,269,46,103,12,040,28,107,11,142,37*78
$GPGSV,8,7,31,108,24,091,40,113,55,055,45,115,06,073,15,121,34,203,46*70
$GPGSV,8,8,31,126,59,283,46,131,15,323,42,133,13,263,42*78
$GPRMC,114538.00,A,4445.1729,N,03954.9079,E,000.00000,336.0,230522,,,A*56
$GPZDA,114538.00,23,05,2022,+00,00*41
$GPGGA,114538.20,4445.1729,N,03954.9079,E,1,25,0.5,00145.8,M,0017.1,M,,*69
$GLGSA,A,3,069,070,075,076,084,085,086,,,,,,1.0,0.5,0.9*17
$GPGSA,A,3,005,010,013,015,016,018,023,026,027,029,,,1.0,0.5,0.9*38
$GAGSA,A,3,103,107,108,113,121,126,131,133,,,,,1.0,0.5,0.9*25
$GPRMC,114538.20,A,4445.1729,N,03954.9079,E,000.00000,336.0,230522,,,A*54
$GPGGA,114538.40,4445.1729,N,03954.9079,E,1,25,0.5,00145.8,M,0017.1,M,,*6F
$GLGSA,A,3,069,070,075,076,084,085,086,,,,,,1.0,0.5,0.9*17
$GPGSA,A,3,005,010,013,015,016,018,023,026,027,029,,,1.0,0.5,0.9*38
$GAGSA,A,3,103,107,108,113,121,126,131,133,,,,,1.0,0.5,0.9*25
$GPRMC,114538.40,A,4445.1729,N,03954.9079,E,000.00000,294.4,230522,,,A*5F
$GPGGA,114538.60,4445.1729,N,03954.9079,E,1,25,0.5,00145.8,M,0017.1,M,,*6D
$GLGSA,A,3,069,070,075,076,084,085,086,,,,,,1.0,0.5,0.9*17
$GPGSA,A,3,005,010,013,015,016,018,023,026,027,029,,,1.0,0.5,0.9*38
$GAGSA,A,3,103,107,108,113,121,126,131,133,,,,,1.0,0.5,0.9*25
$GPRMC,114538.60,A,4445.1729,N,03954.9079,E,000.00000,266.1,230522,,,A*55
$GPGGA,114538.80,4445.1729,N,03954.9079,E,1,26,0.5,00145.8,M,0017.1,M,,*60
$GLGSA,A,3,069,070,075,076,084,085,086,,,,,,1.0,0.5,0.8*16
$GPGSA,A,3,005,010,013,015,016,018,023,026,027,029,,,1.0,0.5,0.8*39
$GAGSA,A,3,103,107,108,113,115,121,126,131,133,,,,1.0,0.5,0.8*11
$GPRMC,114538.80,A,4445.1729,N,03954.9079,E,000.00000,163.4,230522,,,A*58
$GPGGA,114539.00,4445.1729,N,03954.9079,E,1,25,0.5,00145.8,M,0017.1,M,,*6A
$GLGSA,A,3,069,070,075,076,084,085,086,,,,,,1.0,0.5,0.9*17
$GPGSA,A,3,005,010,013,015,016,018,023,026,027,029,,,1.0,0.5,0.9*38
$GAGSA,A,3,103,107,108,113,121,126,131,133,,,,,1.0,0.5,0.9*25
$GPGSV,8,1,31,005,19,043,45,010,22,197,50,013,11,067,25,015,21,103,42*75
$GPGSV,8,2,31,016,40,299,44,018,75,021,50,023,50,180,50,025,02,167,33*70
$GPGSV,8,3,31,026,48,255,47,027,14,302,44,029,42,110,47,068,03,014,*7E
$GPGSV,8,4,31,069,35,052,47,070,36,133,38,071,02,169,34,075,28,237,41*74
$GPGSV,8,5,31,076,32,303,47,077,05,345,,084,26,072,36,085,61,350,52*71
$GPGSV,8,6,31,086,28,292,35,101,47,269,46,103,12,040,28,107,11,142,37*78
$GPGSV,8,7,31,108,24,091,40,113,55,055,45,115,06,073,14,121,34,203,45*72
$GPGSV,8,8,31,126,59,283,46,131,15,323,43,133,13,263,42*79
$GPRMC,114539.00,A,4445.1729,N,03954.9079,E,000.00000,163.1,230522,,,A*54
$GPZDA,114539.00,23,05,2022,+00,00*40
$GPGGA,114539.20,4445.1729,N,03954.9079,E,1,26,0.5,00145.8,M,0017.1,M,,*6B
$GLGSA,A,3,069,070,075,076,084,085,086,,,,,,1.0,0.5,0.8*16
$GPGSA,A,3,005,010,013,015,016,018,023,026,027,029,,,1.0,0.5,0.8*39
$GAGSA,A,3,103,107,108,113,115,121,126,131,133,,,,1.0,0.5,0.8*11
$GPRMC,114539.20,A,4445.1729,N,03954.9079,E,000.00000,142.6,230522,,,A*52
$GPGGA,114539.40,4445.1729,N,03954.9079,E,1,26,0.5,00145.8,M,0017.1,M,,*6D
$GLGSA,A,3,069,070,075,076,084,085,086,,,,,,1.0,0.5,0.8*16
$GPGSA,A,3,005,010,013,015,016,018,023,026,027,029,,,1.0,0.5,0.8*39
$GAGSA,A,3,103,107,108,113,115,121,126,131,133,,,,1.0,0.5,0.8*11
$GPRMC,114539.40,A,4445.1729,N,03954.9079,E,000.00000,137.0,230522,,,A*50
$GPGGA,114539.60,4445.1729,N,03954.9079,E,1,25,0.5,00145.8,M,0017.1,M,,*6C
$GLGSA,A,3,069,070,075,076,084,085,086,,,,,,1.0,0.5,0.9*17
$GPGSA,A,3,005,010,013,015,016,018,023,026,027,029,,,1.0,0.5,0.9*38
$GAGSA,A,3,103,107,108,113,121,126,131,133,,,,,1.0,0.5,0.9*25
