$GPGSV,8,1,29,005,16,043,25,010,25,198,49,013,12,064,25,015,23,099,43*74
$GPGSV,8,2,29,016,42,295,45,018,73,030,49,023,54,179,50,026,47,250,50*7A
$GPGSV,8,3,29,027,17,304,41,029,39,113,45,069,34,048,50,070,39,130,36*70
$GPGSV,8,4,29,071,05,168,20,075,25,234,40,076,32,298,47,077,07,342,24*70
$GPGSV,8,5,29,084,24,076,23,085,62,359,51,086,31,296,38,101,46,265,45*7F
$GPGSV,8,6,29,103,11,038,25,107,13,141,38,108,25,089,39,113,53,057,47*78
$GPGSV,8,7,29,115,04,075,,121,31,202,46,126,61,287,47,131,16,321,43*73
$GPGSV,8,8,29,133,15,265,31*74
$GPRMC,115321.00,A,4443.7933,N,03956.2866,E,000.00000,085.2,230522,,,A*5A
$GPZDA,115321.00,23,05,2022,+00,00*4E
$GPGGA,115321.20,4443.7933,N,03956.2866,E,1,25,0.5,00148.8,M,0017.3,M,,*63
$GLGSA,A,3,069,070,075,076,077,084,085,086,,,,,1.0,0.5,0.9*27
$GPGSA,A,3,005,010,015,016,018,023,026,027,029,,,,1.0,0.5,0.9*0A
$GAGSA,A,3,103,107,108,113,121,126,131,133,,,,,1.0,0.5,0.9*25
$GPRMC,115321.20,A,4443.7933,N,03956.2866,E,000.00000,070.3,230522,,,A*53
$GPGGA,115321.40,4443.7933,N,03956.2866,E,1,27,0.5,00148.8,M,0017.3,M,,*67
$GLGSA,A,3,069,070,071,075,076,077,084,085,086,,,,0.9,0.5,0.8*18
$GPGSA,A,3,005,010,013,015,016,018,023,026,027,029,,,0.9,0.5,0.8*31
$GAGSA,A,3,103,107,108,113,121,126,131,133,,,,,0.9,0.5,0.8*2C
$GPRMC,115321.40,A,4443.7933,N,03956.2866,E,000.00000,072.5,230522,,,A*51
$GPGGA,115321.60,4443.7933,N,03956.2866,E,1,26,0.5,00148.8,M,0017.3,M,,*64
$GLGSA,A,3,069,070,071,075,076,077,084,085,086,,,,1.0,0.5,0.8*10
$GPGSA,A,3,005,010,013,015,016,018,023,026,027,029,,,1.0,0.5,0.8*39
$GAGSA,A,3,107,108,113,121,126,131,133,,,,,,1.0,0.5,0.8*16
$GPRMC,115321.60,A,4443.7933,N,03956.2866,E,000.00000,062.9,230522,,,A*5E
$GPGGA,115321.80,4443.7933,N,03956.2866,E,1,26,0.5,00148.8,M,0017.3,M,,*6A
$GLGSA,A,3,069,070,071,075,076,077,084,085,086,,,,1.0,0.5,0.8*10
$GPGSA,A,3,005,010,013,015,016,018,023,026,027,029,,,1.0,0.5,0.8*39
$GAGSA,A,3,107,108,113,121,126,131,133,,,,,,1.0,0.5,0.8*16
$GPRMC,115321.80,A,4443.7933,N,03956.2866,E,000.00000,050.2,230522,,,A*5A
$GPGGA,115322.00,4443.7933,N,03956.2866,E,1,27,0.5,00148.8,M,0017.3,M,,*60
$GLGSA,A,3,069,070,071,075,076,077,084,085,086,,,,0.9,0.5,0.8*18
$GPGSA,A,3,005,010,013,015,016,018,023,026,027,029,,,0.9,0.5,0.8*31
$GAGSA,A,3,103,107,108,113,121,126,131,133,,,,,0.9,0.5,0.8*2C
$GPGSV,8,1,29,005,16,043,28,010,25,198,49,013,12,064,26,015,23,099,43*7A
$GPGSV,8,2,29,016,42,295,45,018,73,030,49,023,54,179,50,026,47,250,50*7A
$GPGSV,8,3,29,027,17,304,41,029,39,113,45,069,34,048,50,070,39,130,36*70
$GPGSV,8,4,29,071,05,168,21,075,25,234,41,076,32,298,46,077,07,342,25*70
$GPGSV,8,5,29,084,24,076,22,085,62,359,52,086,31,296,38,101,46,265,45*7D
$GPGSV,8,6,29,103,11,038,24,107,13,141,38,108,25,089,39,113,53,057,46*78
$GPGSV,8,7,29,115,04,075,,121,31,202,46,126,61,287,47,131,16,321,43*73
$GPGSV,8,8,29,133,15,265,31*74
$GPRMC,115322.00,A,4443.7933,N,03956.2866,E,000.00000,038.4,230522,,,A*59
$GPZDA,115322.00,23,05,2022,+00,00*4D
$GPGGA,115322.20,4443.7933,N,03956.2866,E,1,27,0.5,00148.8,M,0017.3,M,,*62
$GLGSA,A,3,069,070,071,075,076,077,084,085,086,,,,0.9,0.5,0.8*18
$GPGSA,A,3,005,010,013,015,016,018,023,026,027,029,,,0.9,0.5,0.8*31
$GAGSA,A,3,103,107,108,113,121,126,131,133,,,,,0.9,0.5,0.8*2C
$GPRMC,115322.20,A,4443.7933,N,03956.2866,E,000.00000,029.5,230522,,,A*5A
$GPGGA,115322.40,4443.7933,N,03956.2866,E,1,25,0.5,00148.8,M,0017.3,M,,*66
$GLGSA,A,3,069,070,071,075,076,077,084,085,086,,,,1.0,0.5,0.8*10
$GPGSA,A,3,005,010,013,015,016,018,023,026,027,029,,,1.0,0.5,0.8*39
$GAGSA,A,3,107,108,113,121,126,131,,,,,,,1.0,0.5,0.8*27
$GPRMC,115322.40,A,4443.7933,N,03956.2866,E,000.00000,039.2,230522,,,A*5A
$GPGGA,115322.60,4443.7933,N,03956.2866,E,1,26,0.5,00148.8,M,0017.3,M,,*67
$GLGSA,A,3,069,070,071,075,076,077,084,085,086,,,,1.0,0.5,0.8*10
$GPGSA,A,3,005,010,013,015,016,018,023,026,027,029,,,1.0,0.5,0.8*39
$GAGSA,A,3,103,107,108,113,121,126,131,,,,,,1.0,0.5,0.8*15
$GPRMC,115322.60,A,4443.7933,N,03956.2866,E,000.00000,040.5,230522,,,A*51
$GPGGA,115322.80,4443.7933,N,03956.2866,E,1,27,0.5,00148.8,M,0017.3,M,,*68
$GLGSA,A,3,069,070,071,075,076,077,084,085,086,,,,0.9,0.5,0.8*18
$GPGSA,A,3,005,010,013,015,016,018,023,026,027,029,,,0.9,0.5,0.8*31
$GAGSA,A,3,103,107,108,113,121,126,131,133,,,,,0.9,0.5,0.8*2C
$GPRMC,115322.80,A,4443.7933,N,03956.2866,E,000.00000,043.9,230522,,,A*50
$GPGGA,115323.00,4443.7933,N,03956.2866,E,1,25,0.5,00148.8,M,0017.3,M,,*63
$GLGSA,A,3,069,070,071,075,076,077,084,085,086,,,,1.0,0.5,0.8*10
$GPGSA,A,3,010,013,015,016,018,023,026,027,029,,,,1.0,0.5,0.8*0C
$GAGSA,A,3,103,107,108,113,121,126,131,,,,,,1.0,0.5,0.8*15
$GPGSV,8,1,29,005,16,043,27,010,25,198,49,013,12,064,27,015,23,099,43*74
$GPGSV,8,2,29,016,42,295,45,018,73,030,49,023,54,179,50,026,47,250,50*7A
$GPGSV,8,3,29,027,17,304,41,029,39,113,44,069,34,048,50,070,39,130,37*70
$GPGSV,8,4,29,071,05,168,23,075,25,234,40,076,32,298,47,077,08,342,24*7C
$GPGSV,8,5,29,084,24,076,21,085,62,359,52,086,31,296,39,101,46,265,46*7C
$GPGSV,8,6,29,103,11,038,26,107,13,141,38,108,25,089,39,113,53,057,46*7A
$GPGSV,8,7,29,115,04,075,,121,31,202,46,126,61,287,47,131,16,321,43*73
$GPGSV,8,8,29,133,15,265,30*75
$GPRMC,115323.00,A,4443.7933,N,03956.2866,E,000.00000,047.7,230522,,,A*53
$GPZDA,115323.00,23,05,2022,+00,00*4C
$GPGGA,115323.20,4443.7933,N,03956.2866,E,1,24,0.5,00148.8,M,0017.3,M,,*60
$GLGSA,A,3,069,070,075,076,077,084,085,086,,,,,1.1,0.5,0.9*26
$GPGSA,A,3,005,010,013,015,016,018,023,026,027,029,,,1.1,0.5,0.9*39
$GAGSA,A,3,107,108,113,121,126,131,,,,,,,1.1,0.5,0.9*27
$GPRMC,115323.20,A,4443.7933,N,03956.2866,E,000.00000,043.0,230522,,,A*52
$GPGGA,115323.40,4443.7933,N,03956.2866,E,1,24,0.5,00148.8,M,0017.3,M,,*66
$GLGSA,A,3,069,070,071,075,076,077,084,085,086,,,,1.0,0.5,0.9*11
$GPGSA,A,3,010,013,015,016,018,023,026,027,029,,,,1.0,0.5,0.9*0D
$GAGSA,A,3,107,108,113,121,126,131,,,,,,,1.0,0.5,0.9*26
$GPRMC,115323.40,A,4443.7933,N,03956.2866,E,000.00000,056.0,230522,,,A*50
$GPGGA,115323.60,4443.7933,N,03956.2866,E,1,27,0.5,00148.8,M,0017.3,M,,*67
$GLGSA,A,3,069,070,071,075,076,077,084,085,086,,,,0.9,0.5,0.8*18
$GPGSA,A,3,005,010,013,015,016,018,023,026,027,029,,,0.9,0.5,0.8*31
$GAGSA,A,3,103,107,108,113,121,126,131,133,,,,,0.9,0.5,0.8*2C
$GPRMC,115323.60,A,4443.7933,N,03956.2866,E,000.00000,055.3,230522,,,A*52
$GPGGA,115323.80,4443.7933,N,03956.2866,E,1,27,0.5,00148.8,M,0017.3,M,,*69
$GLGSA,A,3,069,070,071,075,076,077,084,085,086,,,,0.9,0.5,0.8*18
$GPGSA,A,3,005,010,013,015,016,018,023,026,027,029,,,0.9,0.5,0.8*31
$GAGSA,A,3,103,107,108,113,121,126,131,133,,,,,0.9,0.5,0.8*2C
$GPRMC,115323.80,A,4443.7933,N,03956.2866,E,000.00000,057.4,230522,,,A*59
$GPGGA,115324.00,4443.7933,N,03956.2866,E,1,27,0.5,00148.8,M,0017.3,M,,*66
$GLGSA,A,3,069,070,071,075,076,077,084,085,086,,,,0.9,0.5,0.8*18
$GPGSA,A,3,005,010,013,015,016,018,023,026,027,029,,,0.9,0.5,0.8*31
$GAGSA,A,3,103,107,108,113,121,126,131,133,,,,,0.9,0.5,0.8*2C
$GPGSV,8,1,29,005,16,043,27,010,25,198,49,013,12,064,24,015,23,099,41*75
$GPGSV,8,2,29,016,42,295,46,018,73,030,49,023,54,179,50,026,47,250,50*79
$GPGSV,8,3,29,027,17,304,41,029,39,113,44,069,34,048,50,070,39,130,36*71
$GPGSV,8,4,29,071,05,168,24,075,25,234,38,076,32,298,46,077,08,342,25*74
$GPGSV,8,5,29,084,24,076,22,085,62,359,52,086,31,296,39,101,46,265,45*7C
$GPGSV,8,6,29,103,11,038,27,107,13,141,38,108,25,089,40,113,53,057,46*75
$GPGSV,8,7,29,115,04,075,,121,31,202,46,126,61,287,47,131,16,321,43*73
$GPGSV,8,8,29,133,15,265,31*74
$GPRMC,115324.00,A,4443.7933,N,03956.2866,E,000.00000,054.3,230522,,,A*52
$GPZDA,115324.00,23,05,2022,+00,00*4B
$GPGGA,115324.20,4443.7933,N,03956.2866,E,1,27,0.5,00148.8,M,0017.3,M,,*64
$GLGSA,A,3,069,070,071,075,076,077,084,085,086,,,,0.9,0.5,0.8*18
$GPGSA,A,3,005,010,013,015,016,018,023,026,027,029,,,0.9,0.5,0.8*31
$GAGSA,A,3,103,107,108,113,121,126,131,133,,,,,0.9,0.5,0.8*2C
$GPRMC,115324.20,A,4443.7933,N,03956.2866,E,000.00000,056.9,230522,,,A*58
$GPGGA,115324.40,4443.7933,N,03956.2866,E,1,26,0.5,00148.8,M,0017.3,M,,*63
$GLGSA,A,3,069,070,071,075,076,077,085,086,,,,,0.9,0.5,0.8*24
$GPGSA,A,3,005,010,013,015,016,018,023,026,027,029,,,0.9,0.5,0.8*31
$GAGSA,A,3,103,107,108,113,121,126,131,133,,,,,0.9,0.5,0.8*2C
$GPRMC,115324.40,A,4443.7933,N,03956.2866,E,000.00000,058.5,230522,,,A*5C
$GPGGA,115324.60,4443.7933,N,03956.2866,E,1,27,0.5,00148.8,M,0017.3,M,,*60
$GLGSA,A,3,069,070,071,075,076,077,084,085,086,,,,0.9,0.5,0.8*18
$GPGSA,A,3,005,010,013,015,016,018,023,026,027,029,,,0.9,0.5,0.8*31
$GAGSA,A,3,103,107,108,113,121,126,131,133,,,,,0.9,0.5,0.8*2C
$GPRMC,115324.60,A,4443.7933,N,03956.2866,E,000.00000,059.4,230522,,,A*5E
$GPGGA,115324.80,4443.7933,N,03956.2866,E,1,25,0.5,00148.8,M,0017.3,M,,*6C
$GLGSA,A,3,069,070,075,076,077,084,085,086,,,,,1.0,0.5,0.9*27
$GPGSA,A,3,005,010,013,015,016,018,023,026,027,029,,,1.0,0.5,0.9*38
$GAGSA,A,3,107,108,113,121,126,131,133,,,,,,1.0,0.5,0.9*17
$GPRMC,115324.80,A,4443.7933,N,03956.2866,E,000.00000,059.9,230522,,,A*5D
$GPGGA,115325.00,4443.7933,N,03956.2866,E,1,26,0.5,00148.8,M,0017.3,M,,*66
$GLGSA,A,3,069,070,071,075,076,077,085,086,,,,,0.9,0.5,0.8*24
$GPGSA,A,3,005,010,013,015,016,018,023,026,027,029,,,0.9,0.5,0.8*31
$GAGSA,A,3,103,107,108,113,121,126,131,133,,,,,0.9,0.5,0.8*2C
$GPGSV,8,1,29,005,16,043,32,010,25,198,49,013,12,064,22,015,23,099,40*76
$GPGSV,8,2,29,016,42,295,45,018,73,030,48,023,54,179,50,026,47,250,50*7B
$GPGSV,8,3,29,027,17,304,40,029,39,113,44,069,34,047,50,070,39,130,36*7F
$GPGSV,8,4,29,071,05,168,19,075,25,234,38,076,32,298,46,077,08,342,25*7A
$GPGSV,8,5,29,084,24,076,16,085,62,359,52,086,31,296,38,101,46,265,45*7A
$GPGSV,8,6,29,103,11,038,27,107,13,141,38,108,25,089,39,113,53,057,46*7B
$GPGSV,8,7,29,115,04,075,,121,31,202,46,126,61,287,47,131,16,321,43*73
$GPGSV,8,8,29,133,15,265,31*74
$GPRMC,115325.00,A,4443.7933,N,03956.2866,E,000.00000,057.9,230522,,,A*5A
$GPZDA,115325.00,23,05,2022,+00,00*4A
$GPGGA,115325.20,4443.7933,N,03956.2866,E,1,25,0.5,00148.8,M,0017.3,M,,*67
$GLGSA,A,3,069,070,071,075,076,077,084,085,086,,,,1.0,0.5,0.8*10
$GPGSA,A,3,005,010,015,016,018,023,026,027,029,,,,1.0,0.5,0.8*0B
$GAGSA,A,3,107,108,113,121,126,131,133,,,,,,1.0,0.5,0.8*16
$GPRMC,115325.20,A,4443.7933,N,03956.2866,E,000.00000,057.0,230522,,,A*51
$GPGGA,115325.40,4443.7934,N,03956.2866,E,1,23,0.5,00148.8,M,0017.3,M,,*60
$GLGSA,A,3,069,070,075,076,084,085,086,,,,,,1.1,0.5,1.0*1E
$GPGSA,A,3,005,010,015,016,018,023,026,027,029,,,,1.1,0.5,1.0*03
$GAGSA,A,3,107,108,113,121,126,131,133,,,,,,1.1,0.5,1.0*1E
$GPRMC,115325.40,A,4443.7934,N,03956.2866,E,000.00000,062.7,230522,,,A*51
$GPGGA,115325.60,4443.7934,N,03956.2866,E,1,27,0.5,00148.8,M,0017.3,M,,*66
$GLGSA,A,3,069,070,071,075,076,077,084,085,086,,,,0.9,0.5,0.8*18
$GPGSA,A,3,005,010,013,015,016,018,023,026,027,029,,,0.9,0.5,0.8*31
$GAGSA,A,3,103,107,108,113,121,126,131,133,,,,,0.9,0.5,0.8*2C
$GPRMC,115325.60,A,4443.7934,N,03956.2866,E,000.00000,087.7,230522,,,A*58
$GPGGA,115325.80,4443.7934,N,03956.2866,E,1,26,0.5,00148.8,M,0017.3,M,,*69
$GLGSA,A,3,069,070,071,075,076,077,084,085,086,,,,1.0,0.5,0.8*10
$GPGSA,A,3,005,010,013,015,016,018,023,026,027,029,,,1.0,0.5,0.8*39
$GAGSA,A,3,107,108,113,121,126,131,133,,,,,,1.0,0.5,0.8*16
$GPRMC,115325.80,A,4443.7934,N,03956.2866,E,000.00000,087.6,230522,,,A*57
$GPGGA,115326.00,4443.7934,N,03956.2866,E,1,25,0.5,00148.8,M,0017.3,M,,*61
$GLGSA,A,3,069,070,071,075,076,085,086,,,,,,1.0,0.5,0.8*1C
$GPGSA,A,3,005,010,013,015,016,018,023,026,027,029,,,1.0,0.5,0.8*39
$GAGSA,A,3,103,107,108,113,121,126,131,133,,,,,1.0,0.5,0.8*24
$GPGSV,8,1,29,005,16,043,33,010,25,198,48,013,12,064,22,015,23,099,41*77
$GPGSV,8,2,29,016,42,295,44,018,73,030,48,023,54,179,50,026,47,250,50*7A
$GPGSV,8,3,29,027,17,304,40,029,39,113,44,069,34,047,50,070,39,130,36*7F
$GPGSV,8,4,29,071,05,168,17,075,25,234,39,076,32,298,47,077,08,342,23*72
$GPGSV,8,5,29,084,24,076,12,085,62,359,52,086,31,296,38,101,46,265,45*7E
$GPGSV,8,6,29,103,11,038,26,107,13,141,39,108,25,089,39,113,53,057,46*7B
$GPGSV,8,7,29,115,04,075,,121,31,202,46,126,61,287,47,131,16,321,44*74
$GPGSV,8,8,29,133,15,265,32*77
$GPRMC,115326.00,A,4443.7934,N,03956.2866,E,000.00000,089.2,230522,,,A*56
$GPZDA,115326.00,23,05,2022,+00,00*49
$GPGGA,115326.20,4443.7934,N,03956.2866,E,1,26,0.5,00148.8,M,0017.3,M,,*60
$GLGSA,A,3,069,070,071,075,076,077,085,086,,,,,0.9,0.5,0.8*24
$GPGSA,A,3,005,010,013,015,016,018,023,026,027,029,,,0.9,0.5,0.8*31
$GAGSA,A,3,103,107,108,113,121,126,131,133,,,,,0.9,0.5,0.8*2C
$GPRMC,115326.20,A,4443.7934,N,03956.2866,E,000.00000,086.0,230522,,,A*59
$GPGGA,115326.40,4443.7934,N,03956.2866,E,1,26,0.5,00148.8,M,0017.3,M,,*66
$GLGSA,A,3,069,070,071,075,076,077,085,086,,,,,0.9,0.5,0.8*24
$GPGSA,A,3,005,010,013,015,016,018,023,026,027,029,,,0.9,0.5,0.8*31
$GAGSA,A,3,103,107,108,113,121,126,131,133,,,,,0.9,0.5,0.8*2C
$GPRMC,115326.40,A,4443.7934,N,03956.2866,E,000.00000,061.8,230522,,,A*5E
$GPGGA,115326.60,4443.7934,N,03956.2866,E,1,26,0.5,00148.8,M,0017.3,M,,*64
$GLGSA,A,3,069,070,071,075,076,084,085,086,,,,,1.0,0.5,0.8*20
$GPGSA,A,3,005,010,013,015,016,018,023,026,027,029,,,1.0,0.5,0.8*39
$GAGSA,A,3,103,107,108,113,121,126,131,133,,,,,1.0,0.5,0.8*24
$GPRMC,115326.60,A,4443.7934,N,03956.2866,E,000.00000,064.8,230522,,,A*59
$GPGGA,115326.80,4443.7934,N,03956.2866,E,1,26,0.5,00148.8,M,0017.3,M,,*6A
$GLGSA,A,3,069,070,071,075,076,077,084,085,086,,,,1.0,0.5,0.8*10
$GPGSA,A,3,005,010,013,015,016,018,023,026,027,029,,,1.0,0.5,0.8*39
$GAGSA,A,3,107,108,113,121,126,131,133,,,,,,1.0,0.5,0.8*16
$GPRMC,115326.80,A,4443.7934,N,03956.2866,E,000.00000,063.5,230522,,,A*5D
$GPGGA,115327.00,4443.7934,N,03956.2866,E,1,27,0.5,00148.8,M,0017.3,M,,*62
$GLGSA,A,3,069,070,071,075,076,077,084,085,086,,,,0.9,0.5,0.8*18
$GPGSA,A,3,005,010,013,015,016,018,023,026,027,029,,,0.9,0.5,0.8*31
$GAGSA,A,3,103,107,108,113,121,126,131,133,,,,,0.9,0.5,0.8*2C
$GPGSV,8,1,29,005,16,043,31,010,25,198,48,013,12,064,23,015,23,099,42*77
$GPGSV,8,2,29,016,42,295,44,018,73,030,48,023,54,179,50,026,47,250,49*72
$GPGSV,8,3,29,027,17,304,40,029,39,113,45,069,34,047,49,070,39,130,36*76
$GPGSV,8,4,29,071,05,168,19,075,25,234,40,076,32,298,47,077,08,342,20*71
$GPGSV,8,5,29,084,24,076,13,085,62,359,52,086,31,296,39,101,46,265,45*7E
$GPGSV,8,6,29,103,11,038,25,107,13,141,39,108,25,089,38,113,53,057,47*78
$GPGSV,8,7,29,115,04,075,,121,31,202,46,126,61,287,47,131,16,321,44*74
$GPGSV,8,8,29,133,15,265,32*77
$GPRMC,115327.00,A,4443.7934,N,03956.2866,E,000.00000,063.8,230522,,,A*59
$GPZDA,115327.00,23,05,2022,+00,00*48
$GPGGA,115327.20,4443.7934,N,03956.2866,E,1,27,0.5,00148.8,M,0017.3,M,,*60
$GLGSA,A,3,069,070,071,075,076,077,084,085,086,,,,0.9,0.5,0.8*18
$GPGSA,A,3,005,010,013,015,016,018,023,026,027,029,,,0.9,0.5,0.8*31
$GAGSA,A,3,103,107,108,113,121,126,131,133,,,,,0.9,0.5,0.8*2C
$GPRMC,115327.20,A,4443.7934,N,03956.2866,E,000.00000,067.6,230522,,,A*51
$GPGGA,115327.40,4443.7934,N,03956.2866,E,1,27,0.5,00148.8,M,0017.3,M,,*66
$GLGSA,A,3,069,070,071,075,076,077,084,085,086,,,,0.9,0.5,0.8*18
$GPGSA,A,3,005,010,013,015,016,018,023,026,027,029,,,0.9,0.5,0.8*31
$GAGSA,A,3,103,107,108,113,121,126,131,133,,,,,0.9,0.5,0.8*2C
$GPRMC,115327.40,A,4443.7934,N,03956.2866,E,000.00000,060.0,230522,,,A*56
$GPGGA,115327.60,4443.7934,N,03956.2866,E,1,27,0.5,00148.8,M,0017.3,M,,*64
$GLGSA,A,3,069,070,071,075,076,077,084,085,086,,,,0.9,0.5,0.8*18
$GPGSA,A,3,005,010,013,015,016,018,023,026,027,029,,,0.9,0.5,0.8*31
$GAGSA,A,3,103,107,108,113,121,126,131,133,,,,,0.9,0.5,0.8*2C
$GPRMC,115327.60,A,4443.7934,N,03956.2866,E,000.00000,031.8,230522,,,A*58
$GPGGA,115327.80,4443.7934,N,03956.2866,E,1,27,0.5,00148.8,M,0017.3,M,,*6A
$GLGSA,A,3,069,070,071,075,076,077,084,085,086,,,,0.9,0.5,0.8*18
$GPGSA,A,3,005,010,013,015,016,018,023,026,027,029,,,0.9,0.5,0.8*31
$GAGSA,A,3,103,107,108,113,121,126,131,133,,,,,0.9,0.5,0.8*2C
$GPRMC,115327.80,A,4443.7934,N,03956.2866,E,000.00000,025.1,230522,,,A*5A
$GPGGA,115328.00,4443.7934,N,03956.2866,E,1,27,0.5,00148.8,M,0017.3,M,,*6D
$GLGSA,A,3,069,070,071,075,076,077,084,085,086,,,,0.9,0.5,0.8*18
$GPGSA,A,3,005,010,013,015,016,018,023,026,027,029,,,0.9,0.5,0.8*31
$GAGSA,A,3,103,107,108,113,121,126,131,133,,,,,0.9,0.5,0.8*2C
$GPGSV,8,1,29,005,16,043,27,010,25,198,48,013,12,064,26,015,23,099,42*75
$GPGSV,8,2,29,016,42,295,44,018,73,030,49,023,54,179,50,026,47,250,50*7B
$GPGSV,8,3,29,027,17,304,39,029,39,113,46,069,34,047,50,070,39,130,35*70
$GPGSV,8,4,29,071,05,168,22,075,25,234,40,076,32,298,47,077,08,342,21*78
$GPGSV,8,5,29,084,24,076,19,085,62,359,52,086,31,296,38,101,46,265,45*75
$GPGSV,8,6,29,103,11,038,25,107,13,141,39,108,25,089,39,113,53,057,47*79
$GPGSV,8,7,29,115,04,075,,121,31,202,46,126,61,287,48,131,16,321,43*7C
$GPGSV,8,8,29,133,15,265,31*74
$GPRMC,115328.00,A,4443.7934,N,03956.2866,E,000.00000,012.7,230522,,,A*5F
$GPZDA,115328.00,23,05,2022,+00,00*47
$GPGGA,115328.20,4443.7934,N,03956.2866,E,1,26,0.5,00148.8,M,0017.3,M,,*6E
$GLGSA,A,3,069,070,071,075,076,077,084,085,086,,,,1.0,0.5,0.8*10
$GPGSA,A,3,005,010,013,015,016,018,023,026,027,029,,,1.0,0.5,0.8*39
$GAGSA,A,3,107,108,113,121,126,131,133,,,,,,1.0,0.5,0.8*16
$GPRMC,115328.20,A,4443.7934,N,03956.2866,E,000.00000,004.3,230522,,,A*5E
$GPGGA,115328.40,4443.7934,N,03956.2866,E,1,27,0.5,00148.7,M,0017.3,M,,*66
$GLGSA,A,3,069,070,071,075,076,077,084,085,086,,,,0.9,0.5,0.8*18
$GPGSA,A,3,005,010,013,015,016,018,023,026,027,029,,,0.9,0.5,0.8*31
$GAGSA,A,3,103,107,108,113,121,126,131,133,,,,,0.9,0.5,0.8*2C
$GPRMC,115328.40,A,4443.7934,N,03956.2866,E,000.00000,355.8,230522,,,A*54
$GPGGA,115328.60,4443.7934,N,03956.2866,E,1,27,0.5,00148.7,M,0017.3,M,,*64
$GLGSA,A,3,069,070,071,075,076,077,084,085,086,,,,0.9,0.5,0.8*18
$GPGSA,A,3,005,010,013,015,016,018,023,026,027,029,,,0.9,0.5,0.8*31
$GAGSA,A,3,103,107,108,113,121,126,131,133,,,,,0.9,0.5,0.8*2C
$GPRMC,115328.60,A,4443.7934,N,03956.2866,E,000.00000,355.8,230522,,,A*56
$GPGGA,115328.80,4443.7934,N,03956.2866,E,1,26,0.5,00148.7,M,0017.3,M,,*6B
$GLGSA,A,3,069,070,071,075,076,077,084,085,086,,,,1.0,0.5,0.8*10
$GPGSA,A,3,005,010,013,015,016,018,023,026,027,029,,,1.0,0.5,0.8*39
$GAGSA,A,3,107,108,113,121,126,131,133,,,,,,1.0,0.5,0.8*16
$GPRMC,115328.80,A,4443.7934,N,03956.2866,E,000.00000,355.8,230522,,,A*58
$GPGGA,115329.00,4443.7934,N,03956.2866,E,1,26,0.5,00148.7,M,0017.3,M,,*62
$GLGSA,A,3,069,070,071,075,076,077,085,086,,,,,0.9,0.5,0.8*24
$GPGSA,A,3,005,010,013,015,016,018,023,026,027,029,,,0.9,0.5,0.8*31
$GAGSA,A,3,103,107,108,113,121,126,131,133,,,,,0.9,0.5,0.8*2C
$GPGSV,8,1,29,005,16,043,26,010,25,198,48,013,12,064,27,015,23,099,43*74
$GPGSV,8,2,29,016,42,295,44,018,73,030,49,023,54,179,50,026,47,250,50*7B
$GPGSV,8,3,29,027,17,304,40,029,39,113,46,069,34,047,50,070,39,130,35*7E
$GPGSV,8,4,29,071,05,168,19,075,25,234,38,076,32,298,46,077,08,342,22*7D
$GPGSV,8,5,29,084,24,076,16,085,62,359,52,086,31,296,38,101,46,265,45*7A
$GPGSV,8,6,29,103,11,038,25,107,13,141,39,108,25,089,38,113,53,057,47*78
$GPGSV,8,7,29,115,04,075,,121,31,202,46,126,61,287,47,131,16,321,44*74
$GPGSV,8,8,29,133,15,265,30*75
$GPRMC,115329.00,A,4443.7934,N,03956.2866,E,000.00000,355.8,230522,,,A*51
$GPZDA,115329.00,23,05,2022,+00,00*46
$GPGGA,115329.20,4443.7934,N,03956.2866,E,1,27,0.5,00148.7,M,0017.3,M,,*61
$GLGSA,A,3,069,070,071,075,076,077,084,085,086,,,,0.9,0.5,0.8*18
$GPGSA,A,3,005,010,013,015,016,018,023,026,027,029,,,0.9,0.5,0.8*31
$GAGSA,A,3,103,107,108,113,121,126,131,133,,,,,0.9,0.5,0.8*2C
$GPRMC,115329.20,A,4443.7934,N,03956.2866,E,000.00000,355.8,230522,,,A*53
$GPGGA,115329.40,4443.7933,N,03956.2866,E,1,27,0.5,00148.8,M,0017.3,M,,*6F
$GLGSA,A,3,069,070,071,075,076,077,084,085,086,,,,0.9,0.5,0.8*18
$GPGSA,A,3,005,010,013,015,016,018,023,026,027,029,,,0.9,0.5,0.8*31
$GAGSA,A,3,103,107,108,113,121,126,131,133,,,,,0.9,0.5,0.8*2C
$GPRMC,115329.40,A,4443.7933,N,03956.2866,E,000.00000,002.5,230522,,,A*5E
$GPGGA,115329.60,4443.7933,N,03956.2866,E,1,25,0.5,00148.8,M,0017.3,M,,*6F
$GLGSA,A,3,069,070,071,075,076,077,085,086,,,,,1.0,0.5,0.8*2C
$GPGSA,A,3,005,010,013,015,016,018,023,026,027,029,,,1.0,0.5,0.8*39
$GAGSA,A,3,107,108,113,121,126,131,133,,,,,,1.0,0.5,0.8*16
$GPRMC,115329.60,A,4443.7933,N,03956.2866,E,000.00000,018.1,230522,,,A*53
$GPGGA,115329.80,4443.7933,N,03956.2866,E,1,24,0.5,00148.8,M,0017.3,M,,*60
$GLGSA,A,3,069,070,071,075,076,077,085,086,,,,,1.0,0.5,0.8*2C
$GPGSA,A,3,005,010,013,015,016,018,023,026,027,029,,,1.0,0.5,0.8*39
$GAGSA,A,3,107,108,113,121,126,131,,,,,,,1.0,0.5,0.8*27
$GPRMC,115329.80,A,4443.7933,N,03956.2866,E,000.00000,021.2,230522,,,A*54
$GPGGA,115330.00,4443.7933,N,03956.2866,E,1,25,0.5,00148.8,M,0017.3,M,,*61
$GLGSA,A,3,069,070,071,075,076,084,085,086,,,,,1.0,0.5,0.9*21
$GPGSA,A,3,005,010,013,015,016,018,023,026,027,029,,,1.0,0.5,0.9*38
$GAGSA,A,3,107,108,113,121,126,131,133,,,,,,1.0,0.5,0.9*17
$GPGSV,8,1,29,005,16,043,26,010,25,198,48,013,12,064,25,015,23,099,43*76
$GPGSV,8,2,29,016,42,295,44,018,73,030,48,023,54,179,50,026,47,250,50*7A
$GPGSV,8,3,29,027,17,304,40,029,39,113,47,069,34,047,49,070,39,130,35*77
$GPGSV,8,4,29,071,05,168,22,075,25,234,39,076,32,298,47,077,08,342,23*74
$GPGSV,8,5,29,084,24,076,13,085,62,359,52,086,31,296,38,101,46,265,45*7F
$GPGSV,8,6,29,103,11,038,24,107,13,141,40,108,25,089,38,113,53,057,47*77
$GPGSV,8,7,29,115,04,075,,121,31,202,46,126,61,287,47,131,16,321,44*74
$GPGSV,8,8,29,133,15,265,30*75
$GPRMC,115330.00,A,4443.7933,N,03956.2866,E,000.00000,016.6,230522,,,A*54
$GPZDA,115330.00,23,05,2022,+00,00*4E
$GPGGA,115330.20,4443.7933,N,03956.2866,E,1,27,0.5,00148.8,M,0017.3,M,,*61
$GLGSA,A,3,069,070,071,075,076,077,084,085,086,,,,0.9,0.5,0.8*18
$GPGSA,A,3,005,010,013,015,016,018,023,026,027,029,,,0.9,0.5,0.8*31
$GAGSA,A,3,103,107,108,113,121,126,131,133,,,,,0.9,0.5,0.8*2C
$GPRMC,115330.20,A,4443.7933,N,03956.2866,E,000.00000,012.5,230522,,,A*51
$GPGGA,115330.40,4443.7933,N,03956.2866,E,1,27,0.5,00148.8,M,0017.3,M,,*67
$GLGSA,A,3,069,070,071,075,076,077,084,085,086,,,,0.9,0.5,0.8*18
$GPGSA,A,3,005,010,013,015,016,018,023,026,027,029,,,0.9,0.5,0.8*31
$GAGSA,A,3,103,107,108,113,121,126,131,133,,,,,0.9,0.5,0.8*2C
$GPRMC,115330.40,A,4443.7933,N,03956.2866,E,000.00000,008.1,230522,,,A*58
$GPGGA,115330.60,4443.7933,N,03956.2866,E,1,22,0.5,00148.8,M,0017.3,M,,*60
$GLGSA,A,3,069,070,075,076,077,085,086,,,,,,1.1,0.5,1.0*12
$GPGSA,A,3,005,010,015,016,018,023,026,027,029,,,,1.1,0.5,1.0*03
$GAGSA,A,3,107,108,113,121,126,131,,,,,,,1.1,0.5,1.0*2F
$GPRMC,115330.60,A,4443.7933,N,03956.2866,E,000.00000,016.3,230522,,,A*57
$GPGGA,115330.80,4443.7933,N,03956.2866,E,1,26,0.5,00148.8,M,0017.3,M,,*6A
$GLGSA,A,3,069,070,071,075,076,077,085,086,,,,,0.9,0.5,0.8*24
$GPGSA,A,3,005,010,013,015,016,018,023,026,027,029,,,0.9,0.5,0.8*31
$GAGSA,A,3,103,107,108,113,121,126,131,133,,,,,0.9,0.5,0.8*2C
$GPRMC,115330.80,A,4443.7933,N,03956.2866,E,000.00000,007.6,230522,,,A*5C
$GPGGA,115331.00,4443.7933,N,03956.2866,E,1,23,0.5,00148.8,M,0017.3,M,,*66
$GLGSA,A,3,069,070,071,075,076,084,085,086,,,,,1.1,0.5,0.9*20
$GPGSA,A,3,005,010,015,016,018,023,026,027,029,,,,1.1,0.5,0.9*0B
$GAGSA,A,3,107,108,113,121,126,131,,,,,,,1.1,0.5,0.9*27
$GPGSV,8,1,29,005,16,043,28,010,25,198,48,013,12,064,21,015,23,099,43*7C
$GPGSV,8,2,29,016,42,295,44,018,73,030,49,023,54,179,50,026,47,250,49*73
$GPGSV,8,3,29,027,17,304,40,029,39,113,47,069,34,047,49,070,39,130,35*77
$GPGSV,8,4,29,071,05,168,20,075,25,234,39,076,32,298,47,077,08,342,24*71
$GPGSV,8,5,29,084,24,076,12,085,62,359,52,086,31,296,38,101,46,265,45*7E
$GPGSV,8,6,29,103,11,038,25,107,13,141,40,108,25,089,38,113,52,057,46*76
$GPGSV,8,7,29,115,04,075,,121,31,202,46,126,61,287,47,131,16,321,44*74
$GPGSV,8,8,29,133,15,265,31*74
$GPRMC,115331.00,A,4443.7933,N,03956.2866,E,000.00000,356.0,230522,,,A*54
$GPZDA,115331.00,23,05,2022,+00,00*4F
$GPGGA,115331.20,4443.7933,N,03956.2866,E,1,27,0.5,00148.8,M,0017.3,M,,*60
$GLGSA,A,3,069,070,071,075,076,077,084,085,086,,,,0.9,0.5,0.8*18
$GPGSA,A,3,005,010,013,015,016,018,023,026,027,029,,,0.9,0.5,0.8*31
$GAGSA,A,3,103,107,108,113,121,126,131,133,,,,,0.9,0.5,0.8*2C
$GPRMC,115331.20,A,4443.7933,N,03956.2866,E,000.00000,340.8,230522,,,A*59
$GPGGA,115331.40,4443.7933,N,03956.2866,E,1,24,0.5,00148.7,M,0017.3,M,,*6A
$GLGSA,A,3,069,070,075,076,077,085,086,,,,,,1.0,0.5,0.9*1B
$GPGSA,A,3,005,010,015,016,018,023,026,027,029,,,,1.0,0.5,0.9*0A
$GAGSA,A,3,103,107,108,113,121,126,131,133,,,,,1.0,0.5,0.9*25
$GPRMC,115331.40,A,4443.7933,N,03956.2866,E,000.00000,156.1,230522,,,A*53
$GPGGA,115331.60,4443.7933,N,03956.2866,E,1,26,0.5,00148.7,M,0017.3,M,,*6A
$GLGSA,A,3,069,070,071,075,076,077,085,086,,,,,0.9,0.5,0.8*24
$GPGSA,A,3,005,010,013,015,016,018,023,026,027,029,,,0.9,0.5,0.8*31
$GAGSA,A,3,103,107,108,113,121,126,131,133,,,,,0.9,0.5,0.8*2C
$GPRMC,115331.60,A,4443.7933,N,03956.2866,E,000.00000,156.1,230522,,,A*51
$GPGGA,115331.80,4443.7933,N,03956.2866,E,1,26,0.5,00148.7,M,0017.3,M,,*64
$GLGSA,A,3,069,070,071,075,076,084,085,086,,,,,1.0,0.5,0.8*20
$GPGSA,A,3,005,010,013,015,016,018,023,026,027,029,,,1.0,0.5,0.8*39
$GAGSA,A,3,103,107,108,113,121,126,131,133,,,,,1.0,0.5,0.8*24
$GPRMC,115331.80,A,4443.7933,N,03956.2866,E,000.00000,176.3,230522,,,A*5F
$GPGGA,115332.00,4443.7933,N,03956.2866,E,1,26,0.5,00148.7,M,0017.3,M,,*6F
$GLGSA,A,3,069,070,071,075,076,077,084,085,086,,,,1.0,0.5,0.8*10
$GPGSA,A,3,005,010,013,015,016,018,023,026,027,029,,,1.0,0.5,0.8*39
$GAGSA,A,3,103,107,108,113,121,126,131,,,,,,1.0,0.5,0.8*15
$GPGSV,8,1,29,005,16,043,26,010,25,198,48,013,12,064,23,015,23,099,43*70
$GPGSV,8,2,29,016,42,295,44,018,73,030,48,023,54,179,50,026,47,250,49*72
$GPGSV,8,3,29,027,17,304,40,029,39,113,47,069,34,047,50,070,39,130,35*7F
$GPGSV,8,4,29,071,05,168,22,075,25,234,40,076,32,298,47,077,08,342,23*7A
$GPGSV,8,5,29,084,24,076,16,085,62,359,51,086,31,296,38,101,46,265,45*79
$GPGSV,8,6,29,103,11,038,26,107,13,141,40,108,25,089,37,113,52,057,46*7A
$GPGSV,8,7,29,115,04,075,,121,31,202,46,126,61,287,47,131,16,321,44*74
$GPGSV,8,8,29,133,15,265,30*75
$GPRMC,115332.00,A,4443.7933,N,03956.2866,E,000.00000,257.2,230522,,,A*55
$GPZDA,115332.00,23,05,2022,+00,00*4C
$GPGGA,115332.20,4443.7933,N,03956.2866,E,1,24,0.5,00148.7,M,0017.3,M,,*6F
$GLGSA,A,3,069,070,071,075,076,077,084,085,086,,,,1.0,0.5,0.9*11
$GPGSA,A,3,005,010,015,016,018,023,026,027,029,,,,1.0,0.5,0.9*0A
$GAGSA,A,3,107,108,113,121,126,131,,,,,,,1.0,0.5,0.9*26
$GPRMC,115332.20,A,4443.7933,N,03956.2866,E,000.00000,275.6,230522,,,A*53
$GPGGA,115332.40,4443.7934,N,03956.2866,E,1,26,0.5,00148.8,M,0017.3,M,,*63
$GLGSA,A,3,069,070,071,075,076,077,085,086,,,,,0.9,0.5,0.8*24
$GPGSA,A,3,005,010,013,015,016,018,023,026,027,029,,,0.9,0.5,0.8*31
$GAGSA,A,3,103,107,108,113,121,126,131,133,,,,,0.9,0.5,0.8*2C
$GPRMC,115332.40,A,4443.7934,N,03956.2866,E,000.00000,306.9,230522,,,A*58
$GPGGA,115332.60,4443.7934,N,03956.2866,E,1,25,0.5,00148.8,M,0017.3,M,,*62
$GLGSA,A,3,069,070,071,075,076,077,084,085,086,,,,1.0,0.5,0.8*10
$GPGSA,A,3,005,010,013,015,016,018,023,026,027,029,,,1.0,0.5,0.8*39
$GAGSA,A,3,107,108,113,121,126,131,,,,,,,1.0,0.5,0.8*27
$GPRMC,115332.60,A,4443.7934,N,03956.2866,E,000.00000,332.6,230522,,,A*52
$GPGGA,115332.80,4443.7934,N,03956.2866,E,1,27,0.5,00148.8,M,0017.3,M,,*6E
$GLGSA,A,3,069,070,071,075,076,077,084,085,086,,,,0.9,0.5,0.8*18
$GPGSA,A,3,005,010,013,015,016,018,023,026,027,029,,,0.9,0.5,0.8*31
$GAGSA,A,3,103,107,108,113,121,126,131,133,,,,,0.9,0.5,0.8*2C
$GPRMC,115332.80,A,4443.7934,N,03956.2866,E,000.00000,350.6,230522,,,A*58
$GPGGA,115333.00,4443.7934,N,03956.2866,E,1,27,0.5,00148.8,M,0017.3,M,,*67
$GLGSA,A,3,069,070,071,075,076,077,084,085,086,,,,0.9,0.5,0.8*18
$GPGSA,A,3,005,010,013,015,016,018,023,026,027,029,,,0.9,0.5,0.8*31
$GAGSA,A,3,103,107,108,113,121,126,131,133,,,,,0.9,0.5,0.8*2C
$GPGSV,8,1,29,005,16,043,26,010,25,198,48,013,12,064,24,015,23,099,41*75
$GPGSV,8,2,29,016,42,295,44,018,73,030,48,023,54,179,50,026,47,250,49*72
$GPGSV,8,3,29,027,17,304,41,029,39,113,47,069,34,047,49,070,39,130,35*76
$GPGSV,8,4,29,071,05,168,24,075,25,234,40,076,32,298,48,077,08,342,21*71
$GPGSV,8,5,29,084,24,076,21,085,62,359,52,086,31,296,38,101,46,265,45*7E
$GPGSV,8,6,29,103,11,038,26,107,13,141,40,108,25,089,38,113,52,057,46*75
$GPGSV,8,7,29,115,04,075,,121,31,202,46,126,61,287,47,131,16,321,44*74
$GPGSV,8,8,29,133,15,265,29*7D
$GPRMC,115333.00,A,4443.7934,N,03956.2866,E,000.00000,337.3,230522,,,A*55
$GPZDA,115333.00,23,05,2022,+00,00*4D
$GPGGA,115333.20,4443.7934,N,03956.2866,E,1,26,0.5,00148.8,M,0017.3,M,,*64
$GLGSA,A,3,069,070,071,075,076,077,084,085,086,,,,1.0,0.5,0.8*10
$GPGSA,A,3,005,010,013,015,016,018,023,026,027,029,,,1.0,0.5,0.8*39
$GAGSA,A,3,103,107,108,113,121,126,131,,,,,,1.0,0.5,0.8*15
$GPRMC,115333.20,A,4443.7934,N,03956.2866,E,000.00000,324.6,230522,,,A*50
$GPGGA,115333.40,4443.7934,N,03956.2866,E,1,26,0.5,00148.8,M,0017.3,M,,*62
$GLGSA,A,3,069,070,071,075,076,077,084,085,086,,,,0.9,0.5,0.8*18
$GPGSA,A,3,010,013,015,016,018,023,026,027,029,,,,0.9,0.5,0.8*04
$GAGSA,A,3,103,107,108,113,121,126,131,133,,,,,0.9,0.5,0.8*2C
$GPRMC,115333.40,A,4443.7934,N,03956.2866,E,000.00000,310.3,230522,,,A*54
$GPGGA,115333.60,4443.7934,N,03956.2866,E,1,25,0.5,00148.8,M,0017.3,M,,*63
$GLGSA,A,3,069,070,071,075,076,084,085,086,,,,,1.0,0.5,0.9*21
$GPGSA,A,3,010,013,015,016,018,023,026,027,029,,,,1.0,0.5,0.9*0D
$GAGSA,A,3,103,107,108,113,121,126,131,133,,,,,1.0,0.5,0.9*25
$GPRMC,115333.60,A,4443.7934,N,03956.2866,E,000.00000,300.2,230522,,,A*56
$GPGGA,115333.80,4443.7934,N,03956.2866,E,1,25,0.5,00148.8,M,0017.3,M,,*6D
$GLGSA,A,3,069,070,071,075,076,077,085,086,,,,,1.0,0.5,0.8*2C
$GPGSA,A,3,010,013,015,016,018,023,026,027,029,,,,1.0,0.5,0.8*0C
$GAGSA,A,3,103,107,108,113,121,126,131,133,,,,,1.0,0.5,0.8*24
$GPRMC,115333.80,A,4443.7934,N,03956.2866,E,000.00000,292.6,230522,,,A*56
$GPGGA,115334.00,4443.7934,N,03956.2866,E,1,27,0.5,00148.8,M,0017.3,M,,*60
$GLGSA,A,3,069,070,071,075,076,077,084,085,086,,,,0.9,0.5,0.8*18
$GPGSA,A,3,005,010,013,015,016,018,023,026,027,029,,,0.9,0.5,0.8*31
$GAGSA,A,3,103,107,108,113,121,126,131,133,,,,,0.9,0.5,0.8*2C
$GPGSV,8,1,29,005,16,043,23,010,25,198,48,013,12,064,26,015,23,099,42*71
$GPGSV,8,2,29,016,42,295,44,018,73,030,48,023,54,179,50,026,47,250,49*72
$GPGSV,8,3,29,027,17,304,41,029,39,113,47,069,34,047,50,070,39,130,34*7F
$GPGSV,8,4,29,071,05,168,22,075,25,234,41,076,32,298,47,077,08,342,22*7A
$GPGSV,8,5,29,084,24,076,19,085,62,359,52,086,31,296,38,101,46,265,45*75
$GPGSV,8,6,29,103,11,038,21,107,13,141,39,108,25,089,38,113,52,057,47*7D
$GPGSV,8,7,29,115,04,075,,121,31,202,46,126,61,287,47,131,16,321,44*74
$GPGSV,8,8,29,133,15,265,30*75
$GPRMC,115334.00,A,4443.7934,N,03956.2866,E,000.00000,285.6,230522,,,A*5F
$GPZDA,115334.00,23,05,2022,+00,00*4A
$GPGGA,115334.20,4443.7934,N,03956.2866,E,1,26,0.5,00148.8,M,0017.3,M,,*63
$GLGSA,A,3,069,070,071,075,076,077,085,086,,,,,0.9,0.5,0.8*24
$GPGSA,A,3,005,010,013,015,016,018,023,026,027,029,,,0.9,0.5,0.8*31
$GAGSA,A,3,103,107,108,113,121,126,131,133,,,,,0.9,0.5,0.8*2C
$GPRMC,115334.20,A,4443.7934,N,03956.2866,E,000.00000,269.8,230522,,,A*51
$GPGGA,115334.40,4443.7934,N,03956.2866,E,1,26,0.5,00148.8,M,0017.3,M,,*65
$GLGSA,A,3,069,070,071,075,076,077,084,085,086,,,,0.9,0.5,0.8*18
$GPGSA,A,3,010,013,015,016,018,023,026,027,029,,,,0.9,0.5,0.8*04
$GAGSA,A,3,103,107,108,113,121,126,131,133,,,,,0.9,0.5,0.8*2C
$GPRMC,115334.40,A,4443.7934,N,03956.2866,E,000.00000,289.2,230522,,,A*53
$GPGGA,115334.60,4443.7934,N,03956.2866,E,1,25,0.5,00148.8,M,0017.3,M,,*64
$GLGSA,A,3,069,070,075,076,077,084,085,086,,,,,1.0,0.5,0.9*27
$GPGSA,A,3,010,013,015,016,018,023,026,027,029,,,,1.0,0.5,0.9*0D
$GAGSA,A,3,103,107,108,113,121,126,131,133,,,,,1.0,0.5,0.9*25
$GPRMC,115334.60,A,4443.7934,N,03956.2866,E,000.00000,291.6,230522,,,A*5C
$GPGGA,115334.80,4443.7934,N,03956.2866,E,1,26,0.5,00148.8,M,0017.3,M,,*69
$GLGSA,A,3,069,070,071,075,076,084,085,086,,,,,1.0,0.5,0.8*20
$GPGSA,A,3,005,010,013,015,016,018,023,026,027,029,,,1.0,0.5,0.8*39
$GAGSA,A,3,103,107,108,113,121,126,131,133,,,,,1.0,0.5,0.8*24
$GPRMC,115334.80,A,4443.7934,N,03956.2866,E,000.00000,292.8,230522,,,A*5F
$GPGGA,115335.00,4443.7934,N,03956.2866,E,1,26,0.5,00148.8,M,0017.3,M,,*60
$GLGSA,A,3,069,070,071,075,076,077,084,085,086,,,,1.0,0.5,0.8*10
$GPGSA,A,3,005,010,013,015,016,018,023,026,027,029,,,1.0,0.5,0.8*39
$GAGSA,A,3,107,108,113,121,126,131,133,,,,,,1.0,0.5,0.8*16
$GPGSV,8,1,29,005,16,043,22,010,25,198,48,013,12,064,27,015,23,099,43*70
$GPGSV,8,2,29,016,42,295,45,018,73,030,49,023,54,179,50,026,47,250,49*72
$GPGSV,8,3,29,027,17,304,39,029,39,113,47,069,34,047,50,070,39,130,35*71
$GPGSV,8,4,29,071,05,168,24,075,25,234,42,076,32,298,47,077,08,342,21*7C
$GPGSV,8,5,29,084,24,076,20,085,62,359,52,086,31,296,38,101,46,265,45*7F
$GPGSV,8,6,29,103,11,038,21,107,13,141,40,108,25,089,37,113,52,058,47*73
$GPGSV,8,7,29,115,04,075,,121,31,202,46,126,61,287,47,131,16,321,44*74
$GPGSV,8,8,29,133,15,265,31*74
$GPRMC,115335.00,A,4443.7934,N,03956.2866,E,000.00000,293.3,230522,,,A*5C
$GPZDA,115335.00,23,05,2022,+00,00*4B
$GPGGA,115335.20,4443.7934,N,03956.2866,E,1,27,0.5,00148.8,M,0017.3,M,,*63
$GLGSA,A,3,069,070,071,075,076,077,084,085,086,,,,0.9,0.5,0.8*18
$GPGSA,A,3,005,010,013,015,016,018,023,026,027,029,,,0.9,0.5,0.8*31
$GAGSA,A,3,103,107,108,113,121,126,131,133,,,,,0.9,0.5,0.8*2C
$GPRMC,115335.20,A,4443.7934,N,03956.2866,E,000.00000,293.5,230522,,,A*58
$GPGGA,115335.40,4443.7934,N,03956.2866,E,1,26,0.5,00148.8,M,0017.3,M,,*64
$GLGSA,A,3,069,070,071,075,076,077,084,085,086,,,,0.9,0.5,0.8*18
$GPGSA,A,3,010,013,015,016,018,023,026,027,029,,,,0.9,0.5,0.8*04
$GAGSA,A,3,103,107,108,113,121,126,131,133,,,,,0.9,0.5,0.8*2C
$GPRMC,115335.40,A,4443.7934,N,03956.2866,E,000.00000,293.7,230522,,,A*5C
$GPGGA,115335.60,4443.7934,N,03956.2866,E,1,26,0.5,00148.8,M,0017.3,M,,*66
$GLGSA,A,3,069,070,071,075,076,077,084,085,086,,,,0.9,0.5,0.8*18
$GPGSA,A,3,010,013,015,016,018,023,026,027,029,,,,0.9,0.5,0.8*04
$GAGSA,A,3,103,107,108,113,121,126,131,133,,,,,0.9,0.5,0.8*2C
$GPRMC,115335.60,A,4443.7934,N,03956.2866,E,000.00000,293.7,230522,,,A*5E
$GPGGA,115335.80,4443.7934,N,03956.2866,E,1,27,0.5,00148.8,M,0017.3,M,,*69
$GLGSA,A,3,069,070,071,075,076,077,084,085,086,,,,0.9,0.5,0.8*18
$GPGSA,A,3,005,010,013,015,016,018,023,026,027,029,,,0.9,0.5,0.8*31
$GAGSA,A,3,103,107,108,113,121,126,131,133,,,,,0.9,0.5,0.8*2C
$GPRMC,115335.80,A,4443.7934,N,03956.2866,E,000.00000,292.6,230522,,,A*50
$GPGGA,115336.00,4443.7934,N,03956.2866,E,1,25,0.5,00148.8,M,0017.3,M,,*60
$GLGSA,A,3,069,070,071,075,076,077,084,085,086,,,,1.0,0.5,0.8*10
$GPGSA,A,3,010,013,015,016,018,023,026,027,029,,,,1.0,0.5,0.8*0C
$GAGSA,A,3,107,108,113,121,126,131,133,,,,,,1.0,0.5,0.8*16
$GPGSV,8,1,29,005,16,043,17,010,25,198,48,013,12,064,30,015,23,099,42*71
$GPGSV,8,2,29,016,42,295,44,018,72,030,49,023,54,179,50,026,47,250,49*72
$GPGSV,8,3,29,027,17,304,40,029,39,113,47,069,34,047,49,070,39,130,34*76
$GPGSV,8,4,29,071,05,168,25,075,25,234,41,076,32,298,47,077,08,342,23*7C
$GPGSV,8,5,29,084,24,076,20,085,62,359,52,086,31,296,37,101,46,265,45*70
$GPGSV,8,6,29,103,11,038,20,107,13,141,40,108,25,089,37,113,52,058,47*72
$GPGSV,8,7,29,115,04,075,,121,31,202,46,126,61,287,47,131,16,321,44*74
$GPGSV,8,8,29,133,15,265,32*77
$GPRMC,115336.00,A,4443.7934,N,03956.2866,E,000.00000,290.7,230522,,,A*58
$GPZDA,115336.00,23,05,2022,+00,00*48
$GPGGA,115336.20,4443.7934,N,03956.2866,E,1,26,0.5,00148.8,M,0017.3,M,,*61
$GLGSA,A,3,069,070,071,075,076,077,084,085,086,,,,0.9,0.5,0.8*18
$GPGSA,A,3,010,013,015,016,018,023,026,027,029,,,,0.9,0.5,0.8*04
$GAGSA,A,3,103,107,108,113,121,126,131,133,,,,,0.9,0.5,0.8*2C
$GPRMC,115336.20,A,4443.7934,N,03956.2866,E,000.00000,289.0,230522,,,A*55
$GPGGA,115336.40,4443.7934,N,03956.2866,E,1,25,0.5,00148.8,M,0017.3,M,,*64
$GLGSA,A,3,069,070,075,076,077,084,085,086,,,,,1.0,0.5,0.9*27
$GPGSA,A,3,010,013,015,016,018,023,026,027,029,,,,1.0,0.5,0.9*0D
$GAGSA,A,3,103,107,108,113,121,126,131,133,,,,,1.0,0.5,0.9*25
$GPRMC,115336.40,A,4443.7934,N,03956.2866,E,000.00000,285.0,230522,,,A*5F
$GPGGA,115336.60,4443.7934,N,03956.2866,E,1,26,0.5,00148.8,M,0017.3,M,,*65
$GLGSA,A,3,069,070,071,075,076,077,084,085,086,,,,0.9,0.5,0.8*18
$GPGSA,A,3,010,013,015,016,018,023,026,027,029,,,,0.9,0.5,0.8*04
$GAGSA,A,3,103,107,108,113,121,126,131,133,,,,,0.9,0.5,0.8*2C
$GPRMC,115336.60,A,4443.7934,N,03956.2866,E,000.00000,279.1,230522,,,A*5F
$GPGGA,115336.80,4443.7934,N,03956.2866,E,1,26,0.5,00148.8,M,0017.3,M,,*6B
$GLGSA,A,3,069,070,071,075,076,077,084,085,086,,,,0.9,0.5,0.8*18
$GPGSA,A,3,010,013,015,016,018,023,026,027,029,,,,0.9,0.5,0.8*04
$GAGSA,A,3,103,107,108,113,121,126,131,133,,,,,0.9,0.5,0.8*2C
$GPRMC,115336.80,A,4443.7934,N,03956.2866,E,000.00000,302.8,230522,,,A*55
$GPGGA,115337.00,4443.7934,N,03956.2866,E,1,25,0.5,00148.8,M,0017.3,M,,*61
$GLGSA,A,3,069,070,071,075,076,077,084,085,086,,,,1.0,0.5,0.8*10
$GPGSA,A,3,005,010,013,015,016,018,023,026,027,029,,,1.0,0.5,0.8*39
$GAGSA,A,3,107,108,113,121,126,131,,,,,,,1.0,0.5,0.8*27
$GPGSV,8,1,29,005,16,043,21,010,25,198,48,013,12,064,30,015,23,099,42*74
$GPGSV,8,2,29,016,42,295,45,018,72,030,49,023,54,179,50,026,47,250,48*72
$GPGSV,8,3,29,027,17,304,39,029,39,113,47,069,34,047,48,070,39,130,35*78
$GPGSV,8,4,29,071,05,168,21,075,24,234,41,076,32,298,46,077,08,342,23*78
$GPGSV,8,5,29,084,24,076,20,085,62,359,52,086,31,296,37,101,46,265,45*70
$GPGSV,8,6,29,103,11,038,22,107,13,141,40,108,25,089,38,113,52,058,47*7F
$GPGSV,8,7,29,115,04,075,,121,31,202,46,126,61,287,47,131,16,321,44*74
$GPGSV,8,8,29,133,15,265,31*74
$GPRMC,115337.00,A,4443.7934,N,03956.2866,E,000.00000,312.4,230522,,,A*51
$GPZDA,115337.00,23,05,2022,+00,00*49
$GPGGA,115337.20,4443.7934,N,03956.2866,E,1,26,0.5,00148.8,M,0017.3,M,,*60
$GLGSA,A,3,069,070,071,075,076,077,084,085,086,,,,1.0,0.5,0.8*10
$GPGSA,A,3,005,010,013,015,016,018,023,026,027,029,,,1.0,0.5,0.8*39
$GAGSA,A,3,107,108,113,121,126,131,133,,,,,,1.0,0.5,0.8*16
$GPRMC,115337.20,A,4443.7934,N,03956.2866,E,000.00000,329.1,230522,,,A*5E
$GPGGA,115337.40,4443.7934,N,03956.2866,E,1,26,0.5,00148.8,M,0017.3,M,,*66
$GLGSA,A,3,069,070,071,075,076,077,084,085,086,,,,0.9,0.5,0.8*18
$GPGSA,A,3,010,013,015,016,018,023,026,027,029,,,,0.9,0.5,0.8*04
$GAGSA,A,3,103,107,108,113,121,126,131,133,,,,,0.9,0.5,0.8*2C
$GPRMC,115337.40,A,4443.7934,N,03956.2866,E,000.00000,345.0,230522,,,A*53
$GPGGA,115337.60,4443.7934,N,03956.2866,E,1,27,0.5,00148.8,M,0017.3,M,,*65
$GLGSA,A,3,069,070,071,075,076,077,084,085,086,,,,0.9,0.5,0.8*18
$GPGSA,A,3,005,010,013,015,016,018,023,026,027,029,,,0.9,0.5,0.8*31
$GAGSA,A,3,103,107,108,113,121,126,131,133,,,,,0.9,0.5,0.8*2C
$GPRMC,115337.60,A,4443.7934,N,03956.2866,E,000.00000,343.0,230522,,,A*57
$GPGGA,115337.80,4443.7934,N,03956.2866,E,1,27,0.5,00148.8,M,0017.3,M,,*6B
$GLGSA,A,3,069,070,071,075,076,077,084,085,086,,,,0.9,0.5,0.8*18
$GPGSA,A,3,005,010,013,015,016,018,023,026,027,029,,,0.9,0.5,0.8*31
$GAGSA,A,3,103,107,108,113,121,126,131,133,,,,,0.9,0.5,0.8*2C
$GPRMC,115337.80,A,4443.7934,N,03956.2866,E,000.00000,345.1,230522,,,A*5E
$GPGGA,115338.00,4443.7934,N,03956.2866,E,1,27,0.5,00148.8,M,0017.3,M,,*6C
$GLGSA,A,3,069,070,071,075,076,077,084,085,086,,,,0.9,0.5,0.8*18
$GPGSA,A,3,005,010,013,015,016,018,023,026,027,029,,,0.9,0.5,0.8*31
$GAGSA,A,3,103,107,108,113,121,126,131,133,,,,,0.9,0.5,0.8*2C
$GPGSV,8,1,29,005,16,043,25,010,25,198,48,013,12,064,31,015,23,099,42*71
$GPGSV,8,2,29,016,42,295,45,018,72,030,49,023,54,179,50,026,47,250,48*72
$GPGSV,8,3,29,027,17,304,40,029,39,113,47,069,34,047,49,070,39,130,35*77
$GPGSV,8,4,29,071,05,168,24,075,24,234,39,076,32,298,45,077,08,342,24*76
$GPGSV,8,5,29,084,24,076,19,085,62,359,52,086,31,296,37,101,46,265,46*79
$GPGSV,8,6,29,103,11,038,24,107,14,141,39,108,25,089,37,113,52,058,46*7E
$GPGSV,8,7,29,115,04,075,,121,31,202,46,126,61,287,47,131,16,321,44*74
$GPGSV,8,8,29,133,15,265,31*74
$GPRMC,115338.00,A,4443.7934,N,03956.2866,E,000.00000,347.7,230522,,,A*5D
$GPZDA,115338.00,23,05,2022,+00,00*46
$GPGGA,115338.20,4443.7934,N,03956.2866,E,1,27,0.5,00148.8,M,0017.3,M,,*6E
$GLGSA,A,3,069,070,071,075,076,077,084,085,086,,,,0.9,0.5,0.8*18
$GPGSA,A,3,005,010,013,015,016,018,023,026,027,029,,,0.9,0.5,0.8*31
$GAGSA,A,3,103,107,108,113,121,126,131,133,,,,,0.9,0.5,0.8*2C
$GPRMC,115338.20,A,4443.7934,N,03956.2866,E,000.00000,351.4,230522,,,A*5B
$GPGGA,115338.40,4443.7934,N,03956.2866,E,1,27,0.5,00148.7,M,0017.3,M,,*67
$GLGSA,A,3,069,070,071,075,076,077,084,085,086,,,,0.9,0.5,0.8*18
$GPGSA,A,3,005,010,013,015,016,018,023,026,027,029,,,0.9,0.5,0.8*31
$GAGSA,A,3,103,107,108,113,121,126,131,133,,,,,0.9,0.5,0.8*2C
$GPRMC,115338.40,A,4443.7934,N,03956.2866,E,000.00000,355.8,230522,,,A*55
$GPGGA,115338.60,4443.7934,N,03956.2866,E,1,26,0.5,00148.7,M,0017.3,M,,*64
$GLGSA,A,3,069,070,071,075,076,077,084,085,086,,,,0.9,0.5,0.8*18
$GPGSA,A,3,010,013,015,016,018,023,026,027,029,,,,0.9,0.5,0.8*04
$GAGSA,A,3,103,107,108,113,121,126,131,133,,,,,0.9,0.5,0.8*2C
$GPRMC,115338.60,A,4443.7934,N,03956.2866,E,000.00000,355.8,230522,,,A*57
$GPGGA,115338.80,4443.7934,N,03956.2866,E,1,26,0.5,00148.7,M,0017.3,M,,*6A
$GLGSA,A,3,069,070,071,075,076,077,084,085,086,,,,0.9,0.5,0.8*18
$GPGSA,A,3,010,013,015,016,018,023,026,027,029,,,,0.9,0.5,0.8*04
$GAGSA,A,3,103,107,108,113,121,126,131,133,,,,,0.9,0.5,0.8*2C
$GPRMC,115338.80,A,4443.7934,N,03956.2866,E,000.00000,355.8,230522,,,A*59
$GPGGA,115339.00,4443.7934,N,03956.2866,E,1,26,0.5,00148.7,M,0017.3,M,,*63
$GLGSA,A,3,069,070,071,075,076,077,084,085,086,,,,0.9,0.5,0.8*18
$GPGSA,A,3,010,013,015,016,018,023,026,027,029,,,,0.9,0.5,0.8*04
$GAGSA,A,3,103,107,108,113,121,126,131,133,,,,,0.9,0.5,0.8*2C
$GPGSV,8,1,29,005,16,043,26,010,25,198,48,013,12,064,31,015,23,099,42*72
$GPGSV,8,2,29,016,42,295,46,018,72,030,49,023,54,179,50,026,47,250,48*71
$GPGSV,8,3,29,027,17,304,40,029,39,113,47,069,34,047,49,070,39,130,35*77
$GPGSV,8,4,29,071,05,168,26,075,24,234,40,076,32,298,46,077,08,342,25*78
$GPGSV,8,5,29,084,24,076,13,085,62,359,52,086,31,296,37,101,46,265,46*73
$GPGSV,8,6,29,103,11,038,25,107,14,141,39,108,25,089,37,113,52,058,47*7E
$GPGSV,8,7,29,115,04,075,,121,31,202,46,126,61,287,47,131,16,321,44*74
$GPGSV,8,8,29,133,15,265,31*74
$GPRMC,115339.00,A,4443.7934,N,03956.2866,E,000.00000,353.8,230522,,,A*56
$GPZDA,115339.00,23,05,2022,+00,00*47
$GPGGA,115339.20,4443.7934,N,03956.2866,E,1,26,0.5,00148.7,M,0017.3,M,,*61
$GLGSA,A,3,069,070,071,075,076,077,084,085,086,,,,1.0,0.5,0.8*10
$GPGSA,A,3,005,010,013,015,016,018,023,026,027,029,,,1.0,0.5,0.8*39
$GAGSA,A,3,107,108,113,121,126,131,133,,,,,,1.0,0.5,0.8*16
$GPRMC,115339.20,A,4443.7934,N,03956.2866,E,000.00000,348.8,230522,,,A*5E
$GPGGA,115339.40,4443.7934,N,03956.2866,E,1,27,0.5,00148.7,M,0017.3,M,,*66
$GLGSA,A,3,069,070,071,075,076,077,084,085,086,,,,0.9,0.5,0.8*18
$GPGSA,A,3,005,010,013,015,016,018,023,026,027,029,,,0.9,0.5,0.8*31
$GAGSA,A,3,103,107,108,113,121,126,131,133,,,,,0.9,0.5,0.8*2C
$GPRMC,115339.40,A,4443.7934,N,03956.2866,E,000.00000,337.5,230522,,,A*5D
$GPGGA,115339.60,4443.7934,N,03956.2866,E,1,26,0.5,00148.7,M,0017.3,M,,*65
$GLGSA,A,3,069,070,071,075,076,077,085,086,,,,,0.9,0.5,0.8*24
$GPGSA,A,3,005,010,013,015,016,018,023,026,027,029,,,0.9,0.5,0.8*31
$GAGSA,A,3,103,107,108,113,121,126,131,133,,,,,0.9,0.5,0.8*2C
$GPRMC,115339.60,A,4443.7934,N,03956.2866,E,000.00000,337.8,230522,,,A*52
$GPGGA,115339.80,4443.7934,N,03956.2866,E,1,27,0.5,00148.7,M,0017.3,M,,*6A
$GLGSA,A,3,069,070,071,075,076,077,084,085,086,,,,0.9,0.5,0.8*18
$GPGSA,A,3,005,010,013,015,016,018,023,026,027,029,,,0.9,0.5,0.8*31
$GAGSA,A,3,103,107,108,113,121,126,131,133,,,,,0.9,0.5,0.8*2C
$GPRMC,115339.80,A,4443.7934,N,03956.2866,E,000.00000,334.7,230522,,,A*50
$GPGGA,115340.00,4443.7934,N,03956.2866,E,1,25,0.5,00148.7,M,0017.3,M,,*6E
$GLGSA,A,3,069,070,071,075,076,077,085,086,,,,,1.0,0.5,0.8*2C
$GPGSA,A,3,005,010,013,015,016,018,023,026,027,029,,,1.0,0.5,0.8*39
$GAGSA,A,3,107,108,113,121,126,131,133,,,,,,1.0,0.5,0.8*16
$GPGSV,8,1,29,005,16,043,27,010,25,198,48,013,12,064,30,015,23,099,41*71
$GPGSV,8,2,29,016,42,295,45,018,72,030,49,023,54,179,50,026,47,250,48*72
$GPGSV,8,3,29,027,17,304,41,029,39,113,48,069,34,047,49,070,39,130,35*79
$GPGSV,8,4,29,071,05,168,23,075,24,234,40,076,32,298,46,077,08,342,24*7C
$GPGSV,8,5,29,084,24,076,12,085,62,359,52,086,31,296,37,101,46,265,46*72
$GPGSV,8,6,29,103,11,038,22,107,14,141,39,108,25,089,37,113,52,058,47*79
$GPGSV,8,7,29,115,04,075,,121,31,202,46,126,61,287,47,131,16,321,44*74
$GPGSV,8,8,29,133,15,265,31*74
$GPRMC,115340.00,A,4443.7934,N,03956.2866,E,000.00000,338.3,230522,,,A*5E
$GPZDA,115340.00,23,05,2022,+00,00*49
$GPGGA,115340.20,4443.7934,N,03956.2866,E,1,25,0.5,00148.7,M,0017.3,M,,*6C
$GLGSA,A,3,069,070,071,075,076,077,084,085,086,,,,1.0,0.5,0.8*10
$GPGSA,A,3,005,010,013,015,016,018,023,026,027,029,,,1.0,0.5,0.8*39
$GAGSA,A,3,107,108,113,121,126,131,,,,,,,1.0,0.5,0.8*27
$GPRMC,115340.20,A,4443.7934,N,03956.2866,E,000.00000,323.6,230522,,,A*53
$GPGGA,115340.40,4443.7934,N,03956.2866,E,1,27,0.5,00148.7,M,0017.3,M,,*68
$GLGSA,A,3,069,070,071,075,076,077,084,085,086,,,,0.9,0.5,0.8*18
$GPGSA,A,3,005,010,013,015,016,018,023,026,027,029,,,0.9,0.5,0.8*31
$GAGSA,A,3,103,107,108,113,121,126,131,133,,,,,0.9,0.5,0.8*2C
$GPRMC,115340.40,A,4443.7934,N,03956.2866,E,000.00000,338.7,230522,,,A*5E
$GPGGA,115340.60,4443.7934,N,03956.2866,E,1,27,0.5,00148.7,M,0017.3,M,,*6A
$GLGSA,A,3,069,070,071,075,076,077,084,085,086,,,,0.9,0.5,0.8*18
$GPGSA,A,3,005,010,013,015,016,018,023,026,027,029,,,0.9,0.5,0.8*31
$GAGSA,A,3,103,107,108,113,121,126,131,133,,,,,0.9,0.5,0.8*2C
$GPRMC,115340.60,A,4443.7934,N,03956.2866,E,000.00000,334.0,230522,,,A*57
$GPGGA,115340.80,4443.7934,N,03956.2866,E,1,25,0.5,00148.7,M,0017.3,M,,*66
$GLGSA,A,3,069,070,071,075,076,077,084,085,086,,,,1.0,0.5,0.8*10
$GPGSA,A,3,010,013,015,016,018,023,026,027,029,,,,1.0,0.5,0.8*0C
$GAGSA,A,3,107,108,113,121,126,131,133,,,,,,1.0,0.5,0.8*16
$GPRMC,115340.80,A,4443.7934,N,03956.2866,E,000.00000,304.7,230522,,,A*5D
$GPGGA,115341.00,4443.7934,N,03956.2866,E,1,25,0.5,00148.7,M,0017.3,M,,*6F
$GLGSA,A,3,069,070,071,075,076,077,085,086,,,,,1.0,0.5,0.8*2C
$GPGSA,A,3,010,013,015,016,018,023,026,027,029,,,,1.0,0.5,0.8*0C
$GAGSA,A,3,103,107,108,113,121,126,131,133,,,,,1.0,0.5,0.8*24
$GPGSV,8,1,29,005,16,043,24,010,25,198,49,013,12,064,30,015,23,099,42*70
$GPGSV,8,2,29,016,42,295,45,018,72,030,49,023,54,179,50,026,47,250,49*73
$GPGSV,8,3,29,027,17,304,42,029,39,113,48,069,34,047,49,070,39,130,35*7A
$GPGSV,8,4,29,071,05,168,22,075,24,234,40,076,32,298,47,077,08,342,24*7C
$GPGSV,8,5,29,084,24,076,11,085,62,359,51,086,31,296,37,101,46,265,46*72
$GPGSV,8,6,29,103,11,038,20,107,14,141,39,108,25,089,37,113,52,058,47*7B
$GPGSV,8,7,29,115,04,075,,121,31,202,46,126,61,287,47,131,16,321,44*74
$GPGSV,8,8,29,133,15,265,31*74
$GPRMC,115341.00,A,4443.7934,N,03956.2866,E,000.00000,299.2,230522,,,A*54
$GPZDA,115341.00,23,05,2022,+00,00*48
$GPGGA,115341.20,4443.7934,N,03956.2866,E,1,25,0.5,00148.7,M,0017.3,M,,*6D
$GLGSA,A,3,069,070,071,075,076,077,084,085,086,,,,1.0,0.5,0.8*10
$GPGSA,A,3,010,013,015,016,018,023,026,027,029,,,,1.0,0.5,0.8*0C
$GAGSA,A,3,107,108,113,121,126,131,133,,,,,,1.0,0.5,0.8*16
$GPRMC,115341.20,A,4443.7934,N,03956.2866,E,000.00000,296.4,230522,,,A*5F
$GPGGA,115341.40,4443.7934,N,03956.2866,E,1,26,0.5,00148.7,M,0017.3,M,,*68
$GLGSA,A,3,069,070,071,075,076,077,084,085,086,,,,1.0,0.5,0.8*10
$GPGSA,A,3,005,010,013,015,016,018,023,026,027,029,,,1.0,0.5,0.8*39
$GAGSA,A,3,107,108,113,121,126,131,133,,,,,,1.0,0.5,0.8*16
$GPRMC,115341.40,A,4443.7934,N,03956.2866,E,000.00000,293.1,230522,,,A*59
$GPGGA,115341.60,4443.7934,N,03956.2866,E,1,27,0.5,00148.7,M,0017.3,M,,*6B
$GLGSA,A,3,069,070,071,075,076,077,084,085,086,,,,0.9,0.5,0.8*18
$GPGSA,A,3,005,010,013,015,016,018,023,026,027,029,,,0.9,0.5,0.8*31
$GAGSA,A,3,103,107,108,113,121,126,131,133,,,,,0.9,0.5,0.8*2C
$GPRMC,115341.60,A,4443.7934,N,03956.2866,E,000.00000,292.9,230522,,,A*52
$GPGGA,115341.80,4443.7934,N,03956.2866,E,1,27,0.5,00148.7,M,0017.3,M,,*65
$GLGSA,A,3,069,070,071,075,076,077,084,085,086,,,,0.9,0.5,0.8*18
$GPGSA,A,3,005,010,013,015,016,018,023,026,027,029,,,0.9,0.5,0.8*31
$GAGSA,A,3,103,107,108,113,121,126,131,133,,,,,0.9,0.5,0.8*2C
$GPRMC,115341.80,A,4443.7934,N,03956.2866,E,000.00000,293.3,230522,,,A*57
$GPGGA,115342.00,4443.7934,N,03956.2866,E,1,27,0.5,00148.7,M,0017.3,M,,*6E
$GLGSA,A,3,069,070,071,075,076,077,084,085,086,,,,0.9,0.5,0.8*18
$GPGSA,A,3,005,010,013,015,016,018,023,026,027,029,,,0.9,0.5,0.8*31
$GAGSA,A,3,103,107,108,113,121,126,131,133,,,,,0.9,0.5,0.8*2C
$GPGSV,8,1,29,005,16,043,25,010,25,198,49,013,12,064,29,015,23,099,41*7A
$GPGSV,8,2,29,016,42,295,45,018,72,030,49,023,54,179,50,026,47,249,49*7B
$GPGSV,8,3,29,027,17,304,41,029,39,113,48,069,34,047,49,070,39,130,34*78
$GPGSV,8,4,29,071,05,168,20,075,24,234,41,076,32,298,47,077,08,342,23*78
$GPGSV,8,5,29,084,24,076,15,085,62,359,51,086,31,296,37,101,46,265,46*76
$GPGSV,8,6,29,103,11,038,22,107,14,141,39,108,25,089,36,113,52,058,46*79
$GPGSV,8,7,29,115,04,075,,121,31,202,46,126,61,287,47,131,16,321,43*73
$GPGSV,8,8,29,133,15,265,31*74
$GPRMC,115342.00,A,4443.7934,N,03956.2866,E,000.00000,293.3,230522,,,A*5C
$GPZDA,115342.00,23,05,2022,+00,00*4B
$GPGGA,115342.20,4443.7934,N,03956.2866,E,1,27,0.5,00148.7,M,0017.3,M,,*6C
$GLGSA,A,3,069,070,071,075,076,077,084,085,086,,,,0.9,0.5,0.8*18
$GPGSA,A,3,005,010,013,015,016,018,023,026,027,029,,,0.9,0.5,0.8*31
$GAGSA,A,3,103,107,108,113,121,126,131,133,,,,,0.9,0.5,0.8*2C
$GPRMC,115342.20,A,4443.7934,N,03956.2866,E,000.00000,293.3,230522,,,A*5E
$GPGGA,115342.40,4443.7934,N,03956.2866,E,1,26,0.5,00148.7,M,0017.3,M,,*6B
$GLGSA,A,3,069,070,071,075,076,077,084,085,086,,,,1.0,0.5,0.8*10
$GPGSA,A,3,005,010,013,015,016,018,023,026,027,029,,,1.0,0.5,0.8*39
$GAGSA,A,3,107,108,113,121,126,131,133,,,,,,1.0,0.5,0.8*16
$GPRMC,115342.40,A,4443.7934,N,03956.2866,E,000.00000,287.8,230522,,,A*56
$GPGGA,115342.60,4443.7934,N,03956.2866,E,1,27,0.5,00148.7,M,0017.3,M,,*68
$GLGSA,A,3,069,070,071,075,076,077,084,085,086,,,,0.9,0.5,0.8*18
$GPGSA,A,3,005,010,013,015,016,018,023,026,027,029,,,0.9,0.5,0.8*31
$GAGSA,A,3,103,107,108,113,121,126,131,133,,,,,0.9,0.5,0.8*2C
$GPRMC,115342.60,A,4443.7934,N,03956.2866,E,000.00000,278.5,230522,,,A*59
$GPGGA,115342.80,4443.7934,N,03956.2866,E,1,27,0.5,00148.7,M,0017.3,M,,*66
$GLGSA,A,3,069,070,071,075,076,077,084,085,086,,,,0.9,0.5,0.8*18
$GPGSA,A,3,005,010,013,015,016,018,023,026,027,029,,,0.9,0.5,0.8*31
$GAGSA,A,3,103,107,108,113,121,126,131,133,,,,,0.9,0.5,0.8*2C
$GPRMC,115342.80,A,4443.7934,N,03956.2866,E,000.00000,264.1,230522,,,A*5E
$GPGGA,115343.00,4443.7934,N,03956.2866,E,1,27,0.5,00148.7,M,0017.3,M,,*6F
$GLGSA,A,3,069,070,071,075,076,077,084,085,086,,,,0.9,0.5,0.8*18
$GPGSA,A,3,005,010,013,015,016,018,023,026,027,029,,,0.9,0.5,0.8*31
$GAGSA,A,3,103,107,108,113,121,126,131,133,,,,,0.9,0.5,0.8*2C
$GPGSV,8,1,29,005,16,043,26,010,25,198,49,013,12,064,30,015,23,099,42*72
$GPGSV,8,2,29,016,42,295,45,018,72,030,49,023,54,179,50,026,47,249,48*7A
$GPGSV,8,3,29,027,17,304,42,029,39,113,48,069,34,047,49,070,39,130,34*7B
$GPGSV,8,4,29,071,05,168,24,075,24,234,41,076,32,298,48,077,08,342,24*74
$GPGSV,8,5,29,084,24,076,19,085,62,359,51,086,31,296,37,101,46,265,46*7A
$GPGSV,8,6,29,103,11,038,22,107,14,140,39,108,25,089,37,113,52,058,46*79
$GPGSV,8,7,29,115,04,075,,121,31,202,46,126,61,288,48,131,16,321,44*74
$GPGSV,8,8,29,133,15,265,30*75
$GPRMC,115343.00,A,4443.7934,N,03956.2866,E,000.00000,236.7,230522,,,A*56
$GPZDA,115343.00,23,05,2022,+00,00*4A
$GPGGA,115343.20,4443.7934,N,03956.2866,E,1,26,0.5,00148.7,M,0017.3,M,,*6C
$GLGSA,A,3,069,070,071,075,076,077,085,086,,,,,0.9,0.5,0.8*24
$GPGSA,A,3,005,010,013,015,016,018,023,026,027,029,,,0.9,0.5,0.8*31
$GAGSA,A,3,103,107,108,113,121,126,131,133,,,,,0.9,0.5,0.8*2C
$GPRMC,115343.20,A,4443.7934,N,03956.2866,E,000.00000,227.3,230522,,,A*50
$GPGGA,115343.40,4443.7934,N,03956.2866,E,1,27,0.5,00148.7,M,0017.3,M,,*6B
$GLGSA,A,3,069,070,071,075,076,077,084,085,086,,,,0.9,0.5,0.8*18
$GPGSA,A,3,005,010,013,015,016,018,023,026,027,029,,,0.9,0.5,0.8*31
$GAGSA,A,3,103,107,108,113,121,126,131,133,,,,,0.9,0.5,0.8*2C
$GPRMC,115343.40,A,4443.7934,N,03956.2866,E,000.00000,236.8,230522,,,A*5D
$GPGGA,115343.60,4443.7934,N,03956.2866,E,1,26,0.5,00148.7,M,0017.3,M,,*68
$GLGSA,A,3,069,070,071,075,076,077,084,085,086,,,,1.0,0.5,0.8*10
$GPGSA,A,3,005,010,013,015,016,018,023,026,027,029,,,1.0,0.5,0.8*39
$GAGSA,A,3,107,108,113,121,126,131,133,,,,,,1.0,0.5,0.8*16
$GPRMC,115343.60,A,4443.7934,N,03956.2866,E,000.00000,218.4,230522,,,A*5F
$GPGGA,115343.80,4443.7934,N,03956.2866,E,1,27,0.5,00148.7,M,0017.3,M,,*67
$GLGSA,A,3,069,070,071,075,076,077,084,085,086,,,,0.9,0.5,0.8*18
$GPGSA,A,3,005,010,013,015,016,018,023,026,027,029,,,0.9,0.5,0.8*31
$GAGSA,A,3,103,107,108,113,121,126,131,133,,,,,0.9,0.5,0.8*2C
$GPRMC,115343.80,A,4443.7934,N,03956.2866,E,000.00000,182.5,230522,,,A*50
$GPGGA,115344.00,4443.7934,N,03956.2866,E,1,26,0.5,00148.7,M,0017.3,M,,*69
$GLGSA,A,3,069,070,075,076,077,084,085,086,,,,,1.0,0.5,0.9*27
$GPGSA,A,3,005,010,013,015,016,018,023,026,027,029,,,1.0,0.5,0.9*38
$GAGSA,A,3,103,107,108,113,121,126,131,133,,,,,1.0,0.5,0.9*25
$GPGSV,8,1,29,005,16,043,26,010,25,198,49,013,12,064,32,015,23,099,43*71
$GPGSV,8,2,29,016,42,295,44,018,72,030,49,023,54,179,50,026,47,249,49*7A
$GPGSV,8,3,29,027,17,304,42,029,39,113,48,069,34,047,49,070,39,130,35*7A
$GPGSV,8,4,29,071,05,168,22,075,24,234,39,076,32,298,48,077,08,342,25*7C
$GPGSV,8,5,29,084,24,076,21,085,62,359,51,086,31,296,37,101,46,265,46*71
$GPGSV,8,6,29,103,11,038,22,107,14,140,39,108,25,089,37,113,52,058,47*78
$GPGSV,8,7,29,115,04,075,,121,31,202,46,126,61,288,48,131,16,321,44*74
$GPGSV,8,8,29,133,15,265,30*75
$GPRMC,115344.00,A,4443.7934,N,03956.2866,E,000.00000,168.2,230522,,,A*5C
$GPZDA,115344.00,23,05,2022,+00,00*4D
$GPGGA,115344.20,4443.7934,N,03956.2866,E,1,24,0.5,00148.7,M,0017.3,M,,*69
$GLGSA,A,3,069,070,075,076,077,085,086,,,,,,1.0,0.5,0.9*1B
$GPGSA,A,3,010,013,015,016,018,023,026,027,029,,,,1.0,0.5,0.9*0D
$GAGSA,A,3,103,107,108,113,121,126,131,133,,,,,1.0,0.5,0.9*25
$GPRMC,115344.20,A,4443.7934,N,03956.2866,E,000.00000,162.2,230522,,,A*54
$GPGGA,115344.40,4443.7934,N,03956.2866,E,1,27,0.5,00148.7,M,0017.3,M,,*6C
$GLGSA,A,3,069,070,071,075,076,077,084,085,086,,,,0.9,0.5,0.8*18
$GPGSA,A,3,005,010,013,015,016,018,023,026,027,029,,,0.9,0.5,0.8*31
$GAGSA,A,3,103,107,108,113,121,126,131,133,,,,,0.9,0.5,0.8*2C
$GPRMC,115344.40,A,4443.7934,N,03956.2866,E,000.00000,156.1,230522,,,A*56
$GPGGA,115344.60,4443.7934,N,03956.2866,E,1,27,0.5,00148.7,M,0017.3,M,,*6E
$GLGSA,A,3,069,070,071,075,076,077,084,085,086,,,,0.9,0.5,0.8*18
$GPGSA,A,3,005,010,013,015,016,018,023,026,027,029,,,0.9,0.5,0.8*31
$GAGSA,A,3,103,107,108,113,121,126,131,133,,,,,0.9,0.5,0.8*2C
$GPRMC,115344.60,A,4443.7934,N,03956.2866,E,000.00000,156.1,230522,,,A*54
$GPGGA,115344.80,4443.7934,N,03956.2866,E,1,26,0.5,00148.7,M,0017.3,M,,*61
$GLGSA,A,3,069,070,075,076,077,084,085,086,,,,,1.0,0.5,0.9*27
$GPGSA,A,3,005,010,013,015,016,018,023,026,027,029,,,1.0,0.5,0.9*38
$GAGSA,A,3,103,107,108,113,121,126,131,133,,,,,1.0,0.5,0.9*25
$GPRMC,115344.80,A,4443.7934,N,03956.2866,E,000.00000,156.1,230522,,,A*5A
$GPGGA,115345.00,4443.7934,N,03956.2866,E,1,27,0.5,00148.7,M,0017.3,M,,*69
$GLGSA,A,3,069,070,071,075,076,077,084,085,086,,,,0.9,0.5,0.8*18
$GPGSA,A,3,005,010,013,015,016,018,023,026,027,029,,,0.9,0.5,0.8*31
$GAGSA,A,3,103,107,108,113,121,126,131,133,,,,,0.9,0.5,0.8*2C
$GPGSV,8,1,29,005,16,043,25,010,25,198,49,013,12,064,29,015,23,099,42*79
$GPGSV,8,2,29,016,42,295,44,018,72,030,49,023,54,179,50,026,47,249,49*7A
$GPGSV,8,3,29,027,17,304,42,029,39,113,48,069,34,047,49,070,39,130,35*7A
$GPGSV,8,4,29,071,05,168,20,075,24,234,39,076,32,298,48,077,08,342,25*7E
$GPGSV,8,5,29,084,24,076,23,085,62,359,51,086,31,296,38,101,46,265,46*7C
$GPGSV,8,6,29,103,11,038,23,107,14,140,39,108,25,089,36,113,52,058,46*79
$GPGSV,8,7,29,115,04,075,,121,31,202,46,126,61,288,48,131,16,321,44*74
$GPGSV,8,8,29,133,15,265,31*74
$GPRMC,115345.00,A,4443.7934,N,03956.2866,E,000.00000,156.1,230522,,,A*53
$GPZDA,115345.00,23,05,2022,+00,00*4C
$GPGGA,115345.20,4443.7934,N,03956.2866,E,1,27,0.5,00148.7,M,0017.3,M,,*6B
$GLGSA,A,3,069,070,071,075,076,077,084,085,086,,,,0.9,0.5,0.8*18
$GPGSA,A,3,005,010,013,015,016,018,023,026,027,029,,,0.9,0.5,0.8*31
$GAGSA,A,3,103,107,108,113,121,126,131,133,,,,,0.9,0.5,0.8*2C
$GPRMC,115345.20,A,4443.7934,N,03956.2866,E,000.00000,156.1,230522,,,A*51
$GPGGA,115345.40,4443.7934,N,03956.2866,E,1,27,0.5,00148.7,M,0017.3,M,,*6D
$GLGSA,A,3,069,070,071,075,076,077,084,085,086,,,,0.9,0.5,0.8*18
$GPGSA,A,3,005,010,013,015,016,018,023,026,027,029,,,0.9,0.5,0.8*31
$GAGSA,A,3,103,107,108,113,121,126,131,133,,,,,0.9,0.5,0.8*2C
$GPRMC,115345.40,A,4443.7934,N,03956.2866,E,000.00000,156.1,230522,,,A*57
$GPGGA,115345.60,4443.7934,N,03956.2866,E,1,24,0.5,00148.7,M,0017.3,M,,*6C
$GLGSA,A,3,069,070,071,075,076,084,085,086,,,,,1.0,0.5,0.9*21
$GPGSA,A,3,010,013,015,016,018,023,026,027,029,,,,1.0,0.5,0.9*0D
$GAGSA,A,3,107,108,113,121,126,131,133,,,,,,1.0,0.5,0.9*17
$GPRMC,115345.60,A,4443.7934,N,03956.2866,E,000.00000,156.1,230522,,,A*55
$GPGGA,115345.80,4443.7934,N,03956.2866,E,1,25,0.5,00148.7,M,0017.3,M,,*63
$GLGSA,A,3,069,070,071,075,076,077,084,085,086,,,,1.0,0.5,0.8*10
$GPGSA,A,3,010,013,015,016,018,023,026,027,029,,,,1.0,0.5,0.8*0C
$GAGSA,A,3,107,108,113,121,126,131,133,,,,,,1.0,0.5,0.8*16
$GPRMC,115345.80,A,4443.7934,N,03956.2866,E,000.00000,156.1,230522,,,A*5B
$GPGGA,115346.00,4443.7934,N,03956.2866,E,1,26,0.5,00148.7,M,0017.3,M,,*6B
$GLGSA,A,3,069,070,071,075,076,077,084,085,086,,,,1.0,0.5,0.8*10
$GPGSA,A,3,005,010,013,015,016,018,023,026,027,029,,,1.0,0.5,0.8*39
$GAGSA,A,3,107,108,113,121,126,131,133,,,,,,1.0,0.5,0.8*16
$GPGSV,8,1,29,005,16,043,23,010,25,198,49,013,12,064,28,015,23,099,43*7F
$GPGSV,8,2,29,016,42,295,44,018,72,030,49,023,54,179,51,026,47,249,49*7B
$GPGSV,8,3,29,027,17,304,42,029,39,113,48,069,34,047,49,070,39,130,36*79
$GPGSV,8,4,29,071,05,168,23,075,24,234,39,076,32,298,48,077,08,342,26*7E
$GPGSV,8,5,29,084,24,076,23,085,62,359,51,086,31,296,38,101,46,265,46*7C
$GPGSV,8,6,29,103,11,038,22,107,14,140,39,108,25,089,36,113,52,058,46*78
$GPGSV,8,7,29,115,04,075,,121,31,202,46,126,61,288,48,131,16,321,44*74
$GPGSV,8,8,29,133,15,265,30*75
$GPRMC,115346.00,A,4443.7934,N,03956.2866,E,000.00000,156.1,230522,,,A*50
$GPZDA,115346.00,23,05,2022,+00,00*4F
$GPGGA,115346.20,4443.7934,N,03956.2866,E,1,27,0.5,00148.7,M,0017.3,M,,*68
$GLGSA,A,3,069,070,071,075,076,077,084,085,086,,,,0.9,0.5,0.8*18
$GPGSA,A,3,005,010,013,015,016,018,023,026,027,029,,,0.9,0.5,0.8*31
$GAGSA,A,3,103,107,108,113,121,126,131,133,,,,,0.9,0.5,0.8*2C
$GPRMC,115346.20,A,4443.7934,N,03956.2866,E,000.00000,156.1,230522,,,A*52
$GPGGA,115346.40,4443.7934,N,03956.2866,E,1,27,0.5,00148.7,M,0017.3,M,,*6E
$GLGSA,A,3,069,070,071,075,076,077,084,085,086,,,,0.9,0.5,0.8*18
