$GPGGA,121324.40,4445.1709,N,03954.9107,E,1,23,0.5,00135.1,M,0017.1,M,,*60
$GLGSA,A,3,069,070,075,076,077,084,085,086,,,,,1.1,0.5,1.0*2E
$GPGSA,A,3,010,015,016,018,023,026,027,029,,,,,1.1,0.5,1.0*36
$GAGSA,A,3,107,108,113,121,126,131,133,,,,,,1.1,0.5,1.0*1E
$GPRMC,121324.40,A,4445.1709,N,03954.9107,E,000.00000,170.7,230522,,,A*52
$GPGGA,121324.60,4445.1709,N,03954.9107,E,1,23,0.5,00135.1,M,0017.1,M,,*62
$GLGSA,A,3,069,070,075,076,077,084,085,086,,,,,1.1,0.5,1.0*2E
$GPGSA,A,3,010,015,016,018,023,026,027,029,,,,,1.1,0.5,1.0*36
$GAGSA,A,3,107,108,113,121,126,131,133,,,,,,1.1,0.5,1.0*1E
$GPRMC,121324.60,A,4445.1709,N,03954.9107,E,000.00000,170.5,230522,,,A*52
$GPGGA,121324.80,4445.1709,N,03954.9107,E,1,23,0.5,00135.1,M,0017.1,M,,*6C
$GLGSA,A,3,069,070,075,076,077,084,085,086,,,,,1.1,0.5,1.0*2E
$GPGSA,A,3,010,015,016,018,023,026,027,029,,,,,1.1,0.5,1.0*36
$GAGSA,A,3,107,108,113,121,126,131,133,,,,,,1.1,0.5,1.0*1E
$GPRMC,121324.80,A,4445.1709,N,03954.9107,E,000.00000,175.1,230522,,,A*5D
$GPGGA,121325.00,4445.1709,N,03954.9107,E,1,23,0.5,00135.1,M,0017.1,M,,*65
$GLGSA,A,3,069,070,075,076,077,084,085,086,,,,,1.1,0.5,1.0*2E
$GPGSA,A,3,010,015,016,018,023,026,027,029,,,,,1.1,0.5,1.0*36
$GAGSA,A,3,107,108,113,121,126,131,133,,,,,,1.1,0.5,1.0*1E
$GPGSV,7,1,28,005,08,042,15,010,34,200,49,013,13,055,18,015,27,090,48*7E
$GPGSV,7,2,28,016,45,283,45,018,65,046,48,023,64,175,49,026,42,238,47*79
$GPGSV,7,3,28,027,25,306,45,029,31,120,47,069,29,037,48,070,48,120,37*78
$GPGSV,7,4,28,071,15,166,43,075,16,228,46,076,30,286,49,077,13,335,25*78
$GPGSV,7,5,28,084,17,085,30,085,62,023,52,086,38,306,35,101,43,255,44*79
$GPGSV,7,6,28,103,09,032,,107,20,137,41,108,29,081,44,113,47,065,45*75
$GPGSV,7,7,28,121,24,200,44,126,66,301,47,131,21,316,44,133,20,271,38*79
$GPRMC,121325.00,A,4445.1709,N,03954.9107,E,000.00000,181.2,230522,,,A*5C
$GPZDA,121325.00,23,05,2022,+00,00*4D
$GPGGA,121325.20,4445.1709,N,03954.9107,E,1,23,0.5,00135.1,M,0017.1,M,,*67
$GLGSA,A,3,069,070,075,076,077,084,085,086,,,,,1.1,0.5,1.0*2E
$GPGSA,A,3,010,015,016,018,023,026,027,029,,,,,1.1,0.5,1.0*36
$GAGSA,A,3,107,108,113,121,126,131,133,,,,,,1.1,0.5,1.0*1E
$GPRMC,121325.20,A,4445.1709,N,03954.9107,E,000.00000,188.6,230522,,,A*53
$GPGGA,121325.40,4445.1709,N,03954.9107,E,1,23,0.5,00135.1,M,0017.1,M,,*61
$GLGSA,A,3,069,070,075,076,077,084,085,086,,,,,1.1,0.5,1.0*2E
$GPGSA,A,3,010,015,016,018,023,026,027,029,,,,,1.1,0.5,1.0*36
$GAGSA,A,3,107,108,113,121,126,131,133,,,,,,1.1,0.5,1.0*1E
$GPRMC,121325.40,A,4445.1709,N,03954.9107,E,000.00000,211.7,230522,,,A*57
$GPGGA,121325.60,4445.1709,N,03954.9107,E,1,23,0.5,00135.1,M,0017.1,M,,*63
$GLGSA,A,3,069,070,075,076,077,084,085,086,,,,,1.1,0.5,1.0*2E
$GPGSA,A,3,010,015,016,018,023,026,027,029,,,,,1.1,0.5,1.0*36
$GAGSA,A,3,107,108,113,121,126,131,133,,,,,,1.1,0.5,1.0*1E
$GPRMC,121325.60,A,4445.1709,N,03954.9107,E,000.00000,216.2,230522,,,A*57
$GPGGA,121325.80,4445.1709,N,03954.9107,E,1,23,0.5,00135.1,M,0017.1,M,,*6D
$GLGSA,A,3,069,070,075,076,077,084,085,086,,,,,1.1,0.5,1.0*2E
$GPGSA,A,3,010,015,016,018,023,026,027,029,,,,,1.1,0.5,1.0*36
$GAGSA,A,3,107,108,113,121,126,131,133,,,,,,1.1,0.5,1.0*1E
$GPRMC,121325.80,A,4445.1709,N,03954.9107,E,000.00000,247.0,230522,,,A*5F
$GPGGA,121326.00,4445.1709,N,03954.9107,E,1,23,0.5,00135.1,M,0017.1,M,,*66
$GLGSA,A,3,069,070,075,076,077,084,085,086,,,,,1.1,0.5,1.0*2E
$GPGSA,A,3,010,015,016,018,023,026,027,029,,,,,1.1,0.5,1.0*36
$GAGSA,A,3,107,108,113,121,126,131,133,,,,,,1.1,0.5,1.0*1E
$GPGSV,7,1,28,005,08,042,17,010,34,200,49,013,13,055,17,015,27,090,48*73
$GPGSV,7,2,28,016,45,283,45,018,65,046,48,023,64,175,49,026,42,238,47*79
$GPGSV,7,3,28,027,25,306,46,029,31,120,47,069,29,037,47,070,48,120,37*74
$GPGSV,7,4,28,071,15,166,43,075,16,228,47,076,30,286,49,077,13,335,27*7B
$GPGSV,7,5,28,084,17,085,31,085,62,023,52,086,38,306,35,101,43,255,44*78
$GPGSV,7,6,28,103,09,032,,107,20,137,41,108,29,081,44,113,47,065,45*75
$GPGSV,7,7,28,121,24,200,44,126,66,301,48,131,21,316,44,133,20,271,37*79
$GPRMC,121326.00,A,4445.1709,N,03954.9107,E,000.00000,242.7,230522,,,A*56
$GPZDA,121326.00,23,05,2022,+00,00*4E
$GPGGA,121326.20,4445.1709,N,03954.9107,E,1,23,0.5,00135.1,M,0017.1,M,,*64
$GLGSA,A,3,069,070,075,076,077,084,085,086,,,,,1.1,0.5,1.0*2E
$GPGSA,A,3,010,015,016,018,023,026,027,029,,,,,1.1,0.5,1.0*36
$GAGSA,A,3,107,108,113,121,126,131,133,,,,,,1.1,0.5,1.0*1E
$GPRMC,121326.20,A,4445.1709,N,03954.9107,E,000.00000,233.2,230522,,,A*57
$GPGGA,121326.40,4445.1709,N,03954.9107,E,1,23,0.5,00135.1,M,0017.1,M,,*62
$GLGSA,A,3,069,070,075,076,077,084,085,086,,,,,1.1,0.5,1.0*2E
$GPGSA,A,3,010,015,016,018,023,026,027,029,,,,,1.1,0.5,1.0*36
$GAGSA,A,3,107,108,113,121,126,131,133,,,,,,1.1,0.5,1.0*1E
$GPRMC,121326.40,A,4445.1709,N,03954.9107,E,000.00000,240.3,230522,,,A*54
$GPGGA,121326.60,4445.1709,N,03954.9107,E,1,23,0.5,00135.1,M,0017.1,M,,*60
$GLGSA,A,3,069,070,075,076,077,084,085,086,,,,,1.1,0.5,1.0*2E
$GPGSA,A,3,010,015,016,018,023,026,027,029,,,,,1.1,0.5,1.0*36
$GAGSA,A,3,107,108,113,121,126,131,133,,,,,,1.1,0.5,1.0*1E
$GPRMC,121326.60,A,4445.1709,N,03954.9107,E,000.00000,019.2,230522,,,A*59
$GPGGA,121326.80,4445.1709,N,03954.9107,E,1,23,0.5,00135.1,M,0017.1,M,,*6E
$GLGSA,A,3,069,070,075,076,077,084,085,086,,,,,1.1,0.5,1.0*2E
$GPGSA,A,3,010,015,016,018,023,026,027,029,,,,,1.1,0.5,1.0*36
$GAGSA,A,3,107,108,113,121,126,131,133,,,,,,1.1,0.5,1.0*1E
$GPRMC,121326.80,A,4445.1709,N,03954.9107,E,000.00000,017.0,230522,,,A*5B
$GPGGA,121327.00,4445.1709,N,03954.9107,E,1,23,0.5,00135.1,M,0017.1,M,,*67
$GLGSA,A,3,069,070,075,076,077,084,085,086,,,,,1.1,0.5,1.0*2E
$GPGSA,A,3,010,015,016,018,023,026,027,029,,,,,1.1,0.5,1.0*36
$GAGSA,A,3,107,108,113,121,126,131,133,,,,,,1.1,0.5,1.0*1E
$GPGSV,7,1,28,005,08,042,17,010,34,200,50,013,13,055,15,015,27,090,48*79
$GPGSV,7,2,28,016,45,283,45,018,65,046,48,023,64,175,49,026,42,238,47*79
$GPGSV,7,3,28,027,25,306,45,029,31,120,47,069,29,037,47,070,48,120,36*76
$GPGSV,7,4,28,071,15,166,43,075,15,228,47,076,30,286,49,077,13,335,32*7C
$GPGSV,7,5,28,084,17,085,30,085,62,023,52,086,38,306,35,101,43,255,44*79
$GPGSV,7,6,28,103,09,032,,107,20,137,40,108,29,081,44,113,47,065,45*74
$GPGSV,7,7,28,121,24,200,44,126,66,301,48,131,21,316,44,133,20,271,37*79
$GPRMC,121327.00,A,4445.1709,N,03954.9107,E,000.00000,054.4,230522,,,A*51
$GPZDA,121327.00,23,05,2022,+00,00*4F
$GPGGA,121327.20,4445.1709,N,03954.9107,E,1,23,0.5,00135.1,M,0017.1,M,,*65
$GLGSA,A,3,069,070,075,076,077,084,085,086,,,,,1.1,0.5,1.0*2E
$GPGSA,A,3,010,015,016,018,023,026,027,029,,,,,1.1,0.5,1.0*36
$GAGSA,A,3,107,108,113,121,126,131,133,,,,,,1.1,0.5,1.0*1E
$GPRMC,121327.20,A,4445.1709,N,03954.9107,E,000.00000,086.0,230522,,,A*58
$GPGGA,121327.40,4445.1709,N,03954.9107,E,1,23,0.5,00135.1,M,0017.1,M,,*63
$GLGSA,A,3,069,070,075,076,077,084,085,086,,,,,1.1,0.5,1.0*2E
$GPGSA,A,3,010,015,016,018,023,026,027,029,,,,,1.1,0.5,1.0*36
$GAGSA,A,3,107,108,113,121,126,131,133,,,,,,1.1,0.5,1.0*1E
$GPRMC,121327.40,A,4445.1709,N,03954.9107,E,000.00000,108.4,230522,,,A*5D
$GPGGA,121327.60,4445.1709,N,03954.9107,E,1,23,0.5,00135.1,M,0017.1,M,,*61
$GLGSA,A,3,069,070,075,076,077,084,085,086,,,,,1.1,0.5,1.0*2E
$GPGSA,A,3,010,015,016,018,023,026,027,029,,,,,1.1,0.5,1.0*36
$GAGSA,A,3,107,108,113,121,126,131,133,,,,,,1.1,0.5,1.0*1E
$GPRMC,121327.60,A,4445.1709,N,03954.9107,E,000.00000,107.1,230522,,,A*55
$GPGGA,121327.80,4445.1709,N,03954.9107,E,1,23,0.5,00135.1,M,0017.1,M,,*6F
$GLGSA,A,3,069,070,075,076,077,084,085,086,,,,,1.1,0.5,1.0*2E
$GPGSA,A,3,010,015,016,018,023,026,027,029,,,,,1.1,0.5,1.0*36
$GAGSA,A,3,107,108,113,121,126,131,133,,,,,,1.1,0.5,1.0*1E
$GPRMC,121327.80,A,4445.1709,N,03954.9107,E,000.00000,098.2,230522,,,A*5F
$GPGGA,121328.00,4445.1709,N,03954.9107,E,1,23,0.5,00135.1,M,0017.1,M,,*68
$GLGSA,A,3,069,070,075,076,077,084,085,086,,,,,1.1,0.5,1.0*2E
$GPGSA,A,3,010,015,016,018,023,026,027,029,,,,,1.1,0.5,1.0*36
$GAGSA,A,3,107,108,113,121,126,131,133,,,,,,1.1,0.5,1.0*1E
$GPGSV,7,1,28,005,08,042,18,010,34,200,50,013,13,055,18,015,27,090,48*7B
$GPGSV,7,2,28,016,45,283,45,018,65,046,48,023,64,175,49,026,42,238,47*79
$GPGSV,7,3,28,027,25,306,45,029,31,120,47,069,29,037,47,070,48,120,36*76
$GPGSV,7,4,28,071,15,166,43,075,15,228,47,076,30,286,49,077,13,335,35*7B
$GPGSV,7,5,28,084,17,085,31,085,62,023,52,086,38,306,36,101,43,255,44*7B
$GPGSV,7,6,28,103,09,032,,107,20,137,40,108,29,081,44,113,47,065,45*74
$GPGSV,7,7,28,121,24,200,44,126,66,301,48,131,21,316,44,133,20,271,36*78
$GPRMC,121328.00,A,4445.1709,N,03954.9107,E,000.00000,104.1,230522,,,A*5F
$GPZDA,121328.00,23,05,2022,+00,00*40
$GPGGA,121328.20,4445.1709,N,03954.9107,E,1,23,0.5,00135.1,M,0017.1,M,,*6A
$GLGSA,A,3,069,070,075,076,077,084,085,086,,,,,1.1,0.5,1.0*2E
$GPGSA,A,3,010,015,016,018,023,026,027,029,,,,,1.1,0.5,1.0*36
$GAGSA,A,3,107,108,113,121,126,131,133,,,,,,1.1,0.5,1.0*1E
$GPRMC,121328.20,A,4445.1709,N,03954.9107,E,000.00000,141.1,230522,,,A*5C
$GPGGA,121328.40,4445.1709,N,03954.9107,E,1,23,0.5,00135.2,M,0017.1,M,,*6F
$GLGSA,A,3,069,070,075,076,077,084,085,086,,,,,1.1,0.5,1.0*2E
$GPGSA,A,3,010,015,016,018,023,026,027,029,,,,,1.1,0.5,1.0*36
$GAGSA,A,3,107,108,113,121,126,131,133,,,,,,1.1,0.5,1.0*1E
$GPRMC,121328.40,A,4445.1709,N,03954.9107,E,000.00000,159.9,230522,,,A*5B
$GPGGA,121328.60,4445.1709,N,03954.9107,E,1,23,0.5,00135.2,M,0017.1,M,,*6D
$GLGSA,A,3,069,070,075,076,077,084,085,086,,,,,1.1,0.5,1.0*2E
$GPGSA,A,3,010,015,016,018,023,026,027,029,,,,,1.1,0.5,1.0*36
$GAGSA,A,3,107,108,113,121,126,131,133,,,,,,1.1,0.5,1.0*1E
$GPRMC,121328.60,A,4445.1709,N,03954.9107,E,000.00000,162.8,230522,,,A*50
$GPGGA,121328.80,4445.1709,N,03954.9107,E,1,23,0.5,00135.2,M,0017.1,M,,*63
$GLGSA,A,3,069,070,075,076,077,084,085,086,,,,,1.1,0.5,1.0*2E
$GPGSA,A,3,010,015,016,018,023,026,027,029,,,,,1.1,0.5,1.0*36
$GAGSA,A,3,107,108,113,121,126,131,133,,,,,,1.1,0.5,1.0*1E
$GPRMC,121328.80,A,4445.1709,N,03954.9107,E,000.00000,168.2,230522,,,A*5E
$GPGGA,121329.00,4445.1709,N,03954.9107,E,1,23,0.5,00135.2,M,0017.1,M,,*6A
$GLGSA,A,3,069,070,075,076,077,084,085,086,,,,,1.1,0.5,1.0*2E
$GPGSA,A,3,010,015,016,018,023,026,027,029,,,,,1.1,0.5,1.0*36
$GAGSA,A,3,107,108,113,121,126,131,133,,,,,,1.1,0.5,1.0*1E
$GPGSV,7,1,28,005,08,042,17,010,34,200,50,013,13,055,18,015,27,090,48*74
$GPGSV,7,2,28,016,45,283,45,018,65,046,48,023,64,175,49,026,42,238,47*79
$GPGSV,7,3,28,027,25,306,44,029,31,120,47,069,29,037,47,070,48,120,37*76
$GPGSV,7,4,28,071,15,166,43,075,15,228,47,076,30,286,49,077,13,335,31*7F
$GPGSV,7,5,28,084,17,085,31,085,62,023,52,086,38,306,36,101,43,255,45*7A
$GPGSV,7,6,28,103,09,032,,107,20,137,40,108,29,081,43,113,47,065,45*73
$GPGSV,7,7,28,121,24,200,43,126,66,301,48,131,21,316,45,133,20,271,36*7E
$GPRMC,121329.00,A,4445.1709,N,03954.9107,E,000.00000,170.2,230522,,,A*5E
$GPZDA,121329.00,23,05,2022,+00,00*41
$GPGGA,121329.20,4445.1709,N,03954.9107,E,1,23,0.5,00135.2,M,0017.1,M,,*68
$GLGSA,A,3,069,070,075,076,077,084,085,086,,,,,1.1,0.5,1.0*2E
$GPGSA,A,3,010,015,016,018,023,026,027,029,,,,,1.1,0.5,1.0*36
$GAGSA,A,3,107,108,113,121,126,131,133,,,,,,1.1,0.5,1.0*1E
$GPRMC,121329.20,A,4445.1709,N,03954.9107,E,000.00000,170.8,230522,,,A*56
$GPGGA,121329.40,4445.1709,N,03954.9107,E,1,23,0.5,00135.2,M,0017.1,M,,*6E
$GLGSA,A,3,069,070,075,076,077,084,085,086,,,,,1.1,0.5,1.0*2E
$GPGSA,A,3,010,015,016,018,023,026,027,029,,,,,1.1,0.5,1.0*36
$GAGSA,A,3,107,108,113,121,126,131,133,,,,,,1.1,0.5,1.0*1E
$GPRMC,121329.40,A,4445.1709,N,03954.9107,E,000.00000,168.4,230522,,,A*55
$GPGGA,121329.60,4445.1709,N,03954.9107,E,1,23,0.5,00135.2,M,0017.1,M,,*6C
$GLGSA,A,3,069,070,075,076,077,084,085,086,,,,,1.1,0.5,1.0*2E
$GPGSA,A,3,010,015,016,018,023,026,027,029,,,,,1.1,0.5,1.0*36
$GAGSA,A,3,107,108,113,121,126,131,133,,,,,,1.1,0.5,1.0*1E
$GPRMC,121329.60,A,4445.1709,N,03954.9107,E,000.00000,165.3,230522,,,A*5D
$GPGGA,121329.80,4445.1709,N,03954.9107,E,1,23,0.5,00135.2,M,0017.1,M,,*62
$GLGSA,A,3,069,070,075,076,077,084,085,086,,,,,1.1,0.5,1.0*2E
$GPGSA,A,3,010,015,016,018,023,026,027,029,,,,,1.1,0.5,1.0*36
$GAGSA,A,3,107,108,113,121,126,131,133,,,,,,1.1,0.5,1.0*1E
$GPRMC,121329.80,A,4445.1709,N,03954.9107,E,000.00000,106.8,230522,,,A*5D
$GPGGA,121330.00,4445.1709,N,03954.9107,E,1,23,0.5,00135.2,M,0017.1,M,,*62
$GLGSA,A,3,069,070,075,076,077,084,085,086,,,,,1.1,0.5,1.0*2E
$GPGSA,A,3,010,015,016,018,023,026,027,029,,,,,1.1,0.5,1.0*36
$GAGSA,A,3,107,108,113,121,126,131,133,,,,,,1.1,0.5,1.0*1E
$GPGSV,7,1,28,005,08,042,17,010,34,200,50,013,13,055,17,015,27,090,48*7B
$GPGSV,7,2,28,016,45,283,45,018,65,046,48,023,64,175,49,026,42,238,47*79
$GPGSV,7,3,28,027,25,306,44,029,31,120,47,069,29,037,47,070,48,120,37*76
$GPGSV,7,4,28,071,15,166,42,075,15,228,47,076,30,286,49,077,13,335,27*79
$GPGSV,7,5,28,084,17,085,31,085,62,023,52,086,38,306,36,101,43,255,45*7A
$GPGSV,7,6,28,103,09,032,,107,20,137,41,108,29,081,43,113,47,065,45*72
$GPGSV,7,7,28,121,23,200,43,126,66,301,48,131,21,316,44,133,20,271,36*78
$GPRMC,121330.00,A,4445.1709,N,03954.9107,E,000.00000,082.0,230522,,,A*58
$GPZDA,121330.00,23,05,2022,+00,00*49
$GPGGA,121330.20,4445.1709,N,03954.9107,E,1,23,0.5,00135.2,M,0017.1,M,,*60
$GLGSA,A,3,069,070,075,076,077,084,085,086,,,,,1.1,0.5,1.0*2E
$GPGSA,A,3,010,015,016,018,023,026,027,029,,,,,1.1,0.5,1.0*36
$GAGSA,A,3,107,108,113,121,126,131,133,,,,,,1.1,0.5,1.0*1E
$GPRMC,121330.20,A,4445.1709,N,03954.9107,E,000.00000,073.1,230522,,,A*55
$GPGGA,121330.40,4445.1709,N,03954.9106,E,1,22,0.6,00135.2,M,0017.1,M,,*65
$GLGSA,A,3,069,070,075,076,084,085,086,,,,,,1.2,0.6,1.1*1F
$GPGSA,A,3,010,015,016,018,023,026,027,029,,,,,1.2,0.6,1.1*37
$GAGSA,A,3,107,108,113,121,126,131,133,,,,,,1.2,0.6,1.1*1F
$GPRMC,121330.40,A,4445.1709,N,03954.9106,E,000.00000,075.1,230522,,,A*54
$GPGGA,121330.60,4445.1709,N,03954.9106,E,1,23,0.5,00135.2,M,0017.1,M,,*65
$GLGSA,A,3,069,070,075,076,077,084,085,086,,,,,1.1,0.5,1.0*2E
$GPGSA,A,3,010,015,016,018,023,026,027,029,,,,,1.1,0.5,1.0*36
$GAGSA,A,3,107,108,113,121,126,131,133,,,,,,1.1,0.5,1.0*1E
$GPRMC,121330.60,A,4445.1709,N,03954.9106,E,000.00000,076.5,230522,,,A*51
$GPGGA,121330.80,4445.1709,N,03954.9106,E,1,23,0.5,00135.2,M,0017.1,M,,*6B
$GLGSA,A,3,069,070,075,076,077,084,085,086,,,,,1.1,0.5,1.0*2E
$GPGSA,A,3,010,015,016,018,023,026,027,029,,,,,1.1,0.5,1.0*36
$GAGSA,A,3,107,108,113,121,126,131,133,,,,,,1.1,0.5,1.0*1E
$GPRMC,121330.80,A,4445.1709,N,03954.9106,E,000.00000,079.9,230522,,,A*5C
$GPGGA,121331.00,4445.1709,N,03954.9106,E,1,23,0.5,00135.2,M,0017.1,M,,*62
$GLGSA,A,3,069,070,075,076,077,084,085,086,,,,,1.1,0.5,1.0*2E
$GPGSA,A,3,010,015,016,018,023,026,027,029,,,,,1.1,0.5,1.0*36
$GAGSA,A,3,107,108,113,121,126,131,133,,,,,,1.1,0.5,1.0*1E
$GPGSV,7,1,28,005,08,042,20,010,34,200,50,013,13,055,16,015,27,090,48*7E
$GPGSV,7,2,28,016,45,283,46,018,65,046,48,023,64,175,49,026,42,238,47*7A
$GPGSV,7,3,28,027,25,306,44,029,31,120,48,069,29,037,47,070,48,120,37*79
$GPGSV,7,4,28,071,15,166,41,075,15,228,47,076,30,286,49,077,13,335,26*7B
$GPGSV,7,5,28,084,17,085,32,085,62,023,52,086,38,306,36,101,43,255,45*79
$GPGSV,7,6,28,103,09,032,,107,20,137,41,108,29,081,43,113,47,065,45*72
$GPGSV,7,7,28,121,23,200,43,126,66,301,48,131,21,316,44,133,20,271,37*79
$GPRMC,121331.00,A,4445.1709,N,03954.9106,E,000.00000,079.7,230522,,,A*5B
$GPZDA,121331.00,23,05,2022,+00,00*48
$GPGGA,121331.20,4445.1709,N,03954.9106,E,1,23,0.5,00135.2,M,0017.1,M,,*60
$GLGSA,A,3,069,070,075,076,077,084,085,086,,,,,1.1,0.5,1.0*2E
$GPGSA,A,3,010,015,016,018,023,026,027,029,,,,,1.1,0.5,1.0*36
$GAGSA,A,3,107,108,113,121,126,131,133,,,,,,1.1,0.5,1.0*1E
$GPRMC,121331.20,A,4445.1709,N,03954.9106,E,000.00000,083.7,230522,,,A*5C
$GPGGA,121331.40,4445.1709,N,03954.9106,E,1,23,0.5,00135.2,M,0017.1,M,,*66
$GLGSA,A,3,069,070,075,076,077,084,085,086,,,,,1.1,0.5,1.0*2E
$GPGSA,A,3,010,015,016,018,023,026,027,029,,,,,1.1,0.5,1.0*36
$GAGSA,A,3,107,108,113,121,126,131,133,,,,,,1.1,0.5,1.0*1E
$GPRMC,121331.40,A,4445.1709,N,03954.9106,E,000.00000,140.7,230522,,,A*54
$GPGGA,121331.60,4445.1709,N,03954.9106,E,1,23,0.5,00135.2,M,0017.1,M,,*64
$GLGSA,A,3,069,070,075,076,077,084,085,086,,,,,1.1,0.5,1.0*2E
$GPGSA,A,3,010,015,016,018,023,026,027,029,,,,,1.1,0.5,1.0*36
$GAGSA,A,3,107,108,113,121,126,131,133,,,,,,1.1,0.5,1.0*1E
$GPRMC,121331.60,A,4445.1709,N,03954.9106,E,000.00000,147.5,230522,,,A*53
$GPGGA,121331.80,4445.1709,N,03954.9106,E,1,23,0.5,00135.2,M,0017.1,M,,*6A
$GLGSA,A,3,069,070,075,076,077,084,085,086,,,,,1.1,0.5,1.0*2E
$GPGSA,A,3,010,015,016,018,023,026,027,029,,,,,1.1,0.5,1.0*36
$GAGSA,A,3,107,108,113,121,126,131,133,,,,,,1.1,0.5,1.0*1E
$GPRMC,121331.80,A,4445.1709,N,03954.9106,E,000.00000,151.3,230522,,,A*5C
$GPGGA,121332.00,4445.1709,N,03954.9106,E,1,23,0.5,00135.2,M,0017.1,M,,*61
$GLGSA,A,3,069,070,075,076,077,084,085,086,,,,,1.1,0.5,1.0*2E
$GPGSA,A,3,010,015,016,018,023,026,027,029,,,,,1.1,0.5,1.0*36
$GAGSA,A,3,107,108,113,121,126,131,133,,,,,,1.1,0.5,1.0*1E
$GPGSV,7,1,28,005,08,042,18,010,34,200,49,013,13,055,13,015,27,090,48*78
$GPGSV,7,2,28,016,45,283,46,018,65,046,47,023,64,175,49,026,42,238,47*75
$GPGSV,7,3,28,027,25,306,45,029,31,120,48,069,29,037,47,070,48,120,37*78
$GPGSV,7,4,28,071,15,166,41,075,15,228,47,076,30,286,48,077,13,335,27*7B
$GPGSV,7,5,28,084,17,085,31,085,62,023,52,086,38,306,36,101,43,255,45*7A
$GPGSV,7,6,28,103,09,032,,107,20,137,40,108,29,081,43,113,47,065,45*73
$GPGSV,7,7,28,121,23,200,43,126,66,301,47,131,21,316,44,133,20,271,36*77
$GPRMC,121332.00,A,4445.1709,N,03954.9106,E,000.00000,153.4,230522,,,A*52
$GPZDA,121332.00,23,05,2022,+00,00*4B
$GPGGA,121332.20,4445.1709,N,03954.9106,E,1,23,0.5,00135.2,M,0017.1,M,,*63
$GLGSA,A,3,069,070,075,076,077,084,085,086,,,,,1.1,0.5,1.0*2E
$GPGSA,A,3,010,015,016,018,023,026,027,029,,,,,1.1,0.5,1.0*36
$GAGSA,A,3,107,108,113,121,126,131,133,,,,,,1.1,0.5,1.0*1E
$GPRMC,121332.20,A,4445.1709,N,03954.9106,E,000.00000,154.5,230522,,,A*56
$GPGGA,121332.40,4445.1709,N,03954.9106,E,1,23,0.5,00135.2,M,0017.1,M,,*65
$GLGSA,A,3,069,070,075,076,077,084,085,086,,,,,1.1,0.5,1.0*2E
$GPGSA,A,3,010,015,016,018,023,026,027,029,,,,,1.1,0.5,1.0*36
$GAGSA,A,3,107,108,113,121,126,131,133,,,,,,1.1,0.5,1.0*1E
$GPRMC,121332.40,A,4445.1709,N,03954.9106,E,000.00000,155.2,230522,,,A*56
$GPGGA,121332.60,4445.1709,N,03954.9106,E,1,23,0.5,00135.2,M,0017.1,M,,*67
$GLGSA,A,3,069,070,075,076,077,084,085,086,,,,,1.1,0.5,1.0*2E
$GPGSA,A,3,010,015,016,018,023,026,027,029,,,,,1.1,0.5,1.0*36
$GAGSA,A,3,107,108,113,121,126,131,133,,,,,,1.1,0.5,1.0*1E
$GPRMC,121332.60,A,4445.1709,N,03954.9106,E,000.00000,155.5,230522,,,A*53
$GPGGA,121332.80,4445.1709,N,03954.9106,E,1,23,0.5,00135.2,M,0017.1,M,,*69
$GLGSA,A,3,069,070,075,076,077,084,085,086,,,,,1.1,0.5,1.0*2E
$GPGSA,A,3,010,015,016,018,023,026,027,029,,,,,1.1,0.5,1.0*36
$GAGSA,A,3,107,108,113,121,126,131,133,,,,,,1.1,0.5,1.0*1E
$GPRMC,121332.80,A,4445.1709,N,03954.9106,E,000.00000,155.7,230522,,,A*5F
$GPGGA,121333.00,4445.1709,N,03954.9106,E,1,23,0.5,00135.2,M,0017.1,M,,*60
$GLGSA,A,3,069,070,075,076,077,084,085,086,,,,,1.1,0.5,1.0*2E
$GPGSA,A,3,010,015,016,018,023,026,027,029,,,,,1.1,0.5,1.0*36
$GAGSA,A,3,107,108,113,121,126,131,133,,,,,,1.1,0.5,1.0*1E
$GPGSV,7,1,28,005,08,042,16,010,34,200,49,013,13,055,14,015,27,090,48*71
$GPGSV,7,2,28,016,45,283,46,018,65,046,47,023,64,175,49,026,42,238,47*75
$GPGSV,7,3,28,027,25,306,44,029,31,120,48,069,29,037,47,070,48,120,37*79
$GPGSV,7,4,28,071,15,166,41,075,15,228,47,076,30,286,49,077,13,335,28*75
$GPGSV,7,5,28,084,17,085,30,085,62,023,52,086,38,306,36,101,43,255,45*7B
$GPGSV,7,6,28,103,09,032,,107,20,137,40,108,29,081,43,113,47,065,45*73
$GPGSV,7,7,28,121,23,200,43,126,66,301,47,131,21,316,44,133,20,271,36*77
$GPRMC,121333.00,A,4445.1709,N,03954.9106,E,000.00000,155.9,230522,,,A*58
$GPZDA,121333.00,23,05,2022,+00,00*4A
$GPGGA,121333.20,4445.1709,N,03954.9106,E,1,23,0.5,00135.2,M,0017.1,M,,*62
$GLGSA,A,3,069,070,075,076,077,084,085,086,,,,,1.1,0.5,1.0*2E
$GPGSA,A,3,010,015,016,018,023,026,027,029,,,,,1.1,0.5,1.0*36
$GAGSA,A,3,107,108,113,121,126,131,133,,,,,,1.1,0.5,1.0*1E
$GPRMC,121333.20,A,4445.1709,N,03954.9106,E,000.00000,155.9,230522,,,A*5A
$GPGGA,121333.40,4445.1709,N,03954.9106,E,1,23,0.5,00135.2,M,0017.1,M,,*64
$GLGSA,A,3,069,070,075,076,077,084,085,086,,,,,1.1,0.5,1.0*2E
$GPGSA,A,3,010,015,016,018,023,026,027,029,,,,,1.1,0.5,1.0*36
$GAGSA,A,3,107,108,113,121,126,131,133,,,,,,1.1,0.5,1.0*1E
$GPRMC,121333.40,A,4445.1709,N,03954.9106,E,000.00000,156.0,230522,,,A*56
$GPGGA,121333.60,4445.1709,N,03954.9106,E,1,23,0.5,00135.2,M,0017.1,M,,*66
$GLGSA,A,3,069,070,075,076,077,084,085,086,,,,,1.1,0.5,1.0*2E
$GPGSA,A,3,010,015,016,018,023,026,027,029,,,,,1.1,0.5,1.0*36
$GAGSA,A,3,107,108,113,121,126,131,133,,,,,,1.1,0.5,1.0*1E
$GPRMC,121333.60,A,4445.1709,N,03954.9106,E,000.00000,143.1,230522,,,A*51
$GPGGA,121333.80,4445.1709,N,03954.9106,E,1,23,0.5,00135.2,M,0017.1,M,,*68
$GLGSA,A,3,069,070,075,076,077,084,085,086,,,,,1.1,0.5,1.0*2E
$GPGSA,A,3,010,015,016,018,023,026,027,029,,,,,1.1,0.5,1.0*36
$GAGSA,A,3,107,108,113,121,126,131,133,,,,,,1.1,0.5,1.0*1E
$GPRMC,121333.80,A,4445.1709,N,03954.9106,E,000.00000,095.6,230522,,,A*52
$GPGGA,121334.00,4445.1709,N,03954.9106,E,1,23,0.5,00135.2,M,0017.1,M,,*67
$GLGSA,A,3,069,070,075,076,077,084,085,086,,,,,1.1,0.5,1.0*2E
$GPGSA,A,3,010,015,016,018,023,026,027,029,,,,,1.1,0.5,1.0*36
$GAGSA,A,3,107,108,113,121,126,131,133,,,,,,1.1,0.5,1.0*1E
$GPGSV,7,1,28,005,08,042,16,010,34,200,49,013,13,055,16,015,27,090,48*73
$GPGSV,7,2,28,016,45,283,46,018,65,046,48,023,64,175,49,026,42,238,46*7B
$GPGSV,7,3,28,027,25,306,44,029,31,120,48,069,29,037,47,070,48,120,36*78
$GPGSV,7,4,28,071,15,166,41,075,15,228,47,076,30,286,49,077,13,335,28*75
$GPGSV,7,5,28,084,17,085,29,085,62,023,52,086,38,306,36,101,43,255,45*73
$GPGSV,7,6,28,103,09,032,,107,20,137,40,108,29,081,43,113,47,065,45*73
$GPGSV,7,7,28,121,23,200,43,126,66,301,47,131,21,316,44,133,20,271,36*77
$GPRMC,121334.00,A,4445.1709,N,03954.9106,E,000.00000,088.3,230522,,,A*54
$GPZDA,121334.00,23,05,2022,+00,00*4D
$GPGGA,121334.20,4445.1709,N,03954.9106,E,1,23,0.5,00135.2,M,0017.1,M,,*65
$GLGSA,A,3,069,070,075,076,077,084,085,086,,,,,1.1,0.5,1.0*2E
$GPGSA,A,3,010,015,016,018,023,026,027,029,,,,,1.1,0.5,1.0*36
$GAGSA,A,3,107,108,113,121,126,131,133,,,,,,1.1,0.5,1.0*1E
$GPRMC,121334.20,A,4445.1709,N,03954.9106,E,000.00000,079.5,230522,,,A*5E
$GPGGA,121334.40,4445.1709,N,03954.9107,E,1,23,0.5,00135.2,M,0017.1,M,,*62
$GLGSA,A,3,069,070,075,076,077,084,085,086,,,,,1.1,0.5,1.0*2E
$GPGSA,A,3,010,015,016,018,023,026,027,029,,,,,1.1,0.5,1.0*36
$GAGSA,A,3,107,108,113,121,126,131,133,,,,,,1.1,0.5,1.0*1E
$GPRMC,121334.40,A,4445.1709,N,03954.9107,E,000.00000,065.5,230522,,,A*54
$GPGGA,121334.60,4445.1709,N,03954.9107,E,1,23,0.5,00135.2,M,0017.1,M,,*60
$GLGSA,A,3,069,070,075,076,077,084,085,086,,,,,1.1,0.5,1.0*2E
$GPGSA,A,3,010,015,016,018,023,026,027,029,,,,,1.1,0.5,1.0*36
$GAGSA,A,3,107,108,113,121,126,131,133,,,,,,1.1,0.5,1.0*1E
$GPRMC,121334.60,A,4445.1709,N,03954.9107,E,000.00000,065.7,230522,,,A*54
$GPGGA,121334.80,4445.1709,N,03954.9107,E,1,23,0.5,00135.2,M,0017.1,M,,*6E
$GLGSA,A,3,069,070,075,076,077,084,085,086,,,,,1.1,0.5,1.0*2E
$GPGSA,A,3,010,015,016,018,023,026,027,029,,,,,1.1,0.5,1.0*36
$GAGSA,A,3,107,108,113,121,126,131,133,,,,,,1.1,0.5,1.0*1E
$GPRMC,121334.80,A,4445.1709,N,03954.9107,E,000.00000,069.1,230522,,,A*50
$GPGGA,121335.00,4445.1709,N,03954.9107,E,1,23,0.5,00135.2,M,0017.1,M,,*67
$GLGSA,A,3,069,070,075,076,077,084,085,086,,,,,1.1,0.5,1.0*2E
$GPGSA,A,3,010,015,016,018,023,026,027,029,,,,,1.1,0.5,1.0*36
$GAGSA,A,3,107,108,113,121,126,131,133,,,,,,1.1,0.5,1.0*1E
$GPGSV,7,1,28,005,08,042,14,010,34,200,49,013,13,055,14,015,27,090,48*73
$GPGSV,7,2,28,016,45,283,46,018,65,046,48,023,64,175,49,026,42,238,47*7A
$GPGSV,7,3,28,027,25,306,44,029,31,120,48,069,29,037,47,070,48,120,37*79
$GPGSV,7,4,28,071,15,166,41,075,15,228,47,076,30,286,49,077,13,335,29*74
$GPGSV,7,5,28,084,17,085,29,085,62,023,52,086,38,306,36,101,43,255,45*73
$GPGSV,7,6,28,103,09,032,,107,20,137,40,108,29,081,42,113,47,065,45*72
$GPGSV,7,7,28,121,23,200,43,126,66,301,48,131,21,316,44,133,20,271,36*78
$GPRMC,121335.00,A,4445.1709,N,03954.9107,E,000.00000,074.4,230522,,,A*50
$GPZDA,121335.00,23,05,2022,+00,00*4C
$GPGGA,121335.20,4445.1709,N,03954.9107,E,1,23,0.5,00135.2,M,0017.1,M,,*65
$GLGSA,A,3,069,070,075,076,077,084,085,086,,,,,1.1,0.5,1.0*2E
$GPGSA,A,3,010,015,016,018,023,026,027,029,,,,,1.1,0.5,1.0*36
$GAGSA,A,3,107,108,113,121,126,131,133,,,,,,1.1,0.5,1.0*1E
$GPRMC,121335.20,A,4445.1709,N,03954.9107,E,000.00000,078.6,230522,,,A*5C
$GPGGA,121335.40,4445.1709,N,03954.9107,E,1,23,0.5,00135.2,M,0017.1,M,,*63
$GLGSA,A,3,069,070,075,076,077,084,085,086,,,,,1.1,0.5,1.0*2E
$GPGSA,A,3,010,015,016,018,023,026,027,029,,,,,1.1,0.5,1.0*36
$GAGSA,A,3,107,108,113,121,126,131,133,,,,,,1.1,0.5,1.0*1E
$GPRMC,121335.40,A,4445.1709,N,03954.9107,E,000.00000,082.7,230522,,,A*5E
$GPGGA,121335.60,4445.1709,N,03954.9107,E,1,23,0.5,00135.2,M,0017.1,M,,*61
$GLGSA,A,3,069,070,075,076,077,084,085,086,,,,,1.1,0.5,1.0*2E
$GPGSA,A,3,010,015,016,018,023,026,027,029,,,,,1.1,0.5,1.0*36
$GAGSA,A,3,107,108,113,121,126,131,133,,,,,,1.1,0.5,1.0*1E
$GPRMC,121335.60,A,4445.1709,N,03954.9107,E,000.00000,086.0,230522,,,A*5F
$GPGGA,121335.80,4445.1709,N,03954.9107,E,1,23,0.5,00135.2,M,0017.1,M,,*6F
$GLGSA,A,3,069,070,075,076,077,084,085,086,,,,,1.1,0.5,1.0*2E
$GPGSA,A,3,010,015,016,018,023,026,027,029,,,,,1.1,0.5,1.0*36
$GAGSA,A,3,107,108,113,121,126,131,133,,,,,,1.1,0.5,1.0*1E
$GPRMC,121335.80,A,4445.1709,N,03954.9107,E,000.00000,080.5,230522,,,A*52
$GPGGA,121336.00,4445.1709,N,03954.9107,E,1,23,0.5,00135.2,M,0017.1,M,,*64
$GLGSA,A,3,069,070,075,076,077,084,085,086,,,,,1.1,0.5,1.0*2E
$GPGSA,A,3,010,015,016,018,023,026,027,029,,,,,1.1,0.5,1.0*36
$GAGSA,A,3,107,108,113,121,126,131,133,,,,,,1.1,0.5,1.0*1E
$GPGSV,7,1,28,005,08,042,15,010,34,200,49,013,13,055,14,015,27,090,48*72
$GPGSV,7,2,28,016,45,283,46,018,65,046,48,023,64,175,49,026,42,238,47*7A
$GPGSV,7,3,28,027,25,306,44,029,31,120,48,069,28,037,47,070,48,120,37*78
$GPGSV,7,4,28,071,15,166,40,075,15,228,47,076,30,286,49,077,13,335,29*75
$GPGSV,7,5,28,084,17,085,29,085,62,023,52,086,38,306,36,101,43,255,45*73
$GPGSV,7,6,28,103,09,032,,107,20,137,40,108,29,081,42,113,47,065,46*71
$GPGSV,7,7,28,121,23,200,43,126,66,301,48,131,21,316,44,133,20,271,36*78
$GPRMC,121336.00,A,4445.1709,N,03954.9107,E,000.00000,077.7,230522,,,A*53
$GPZDA,121336.00,23,05,2022,+00,00*4F
$GPGGA,121336.20,4445.1709,N,03954.9107,E,1,23,0.5,00135.2,M,0017.1,M,,*66
$GLGSA,A,3,069,070,075,076,077,084,085,086,,,,,1.1,0.5,1.0*2E
$GPGSA,A,3,010,015,016,018,023,026,027,029,,,,,1.1,0.5,1.0*36
$GAGSA,A,3,107,108,113,121,126,131,133,,,,,,1.1,0.5,1.0*1E
$GPRMC,121336.20,A,4445.1709,N,03954.9107,E,000.00000,076.8,230522,,,A*5F
$GPGGA,121336.40,4445.1709,N,03954.9107,E,1,23,0.5,00135.2,M,0017.1,M,,*60
$GLGSA,A,3,069,070,075,076,077,084,085,086,,,,,1.1,0.5,1.0*2E
$GPGSA,A,3,010,015,016,018,023,026,027,029,,,,,1.1,0.5,1.0*36
$GAGSA,A,3,107,108,113,121,126,131,133,,,,,,1.1,0.5,1.0*1E
$GPRMC,121336.40,A,4445.1709,N,03954.9107,E,000.00000,099.0,230522,,,A*50
$GPGGA,121336.60,4445.1709,N,03954.9107,E,1,23,0.5,00135.2,M,0017.1,M,,*62
$GLGSA,A,3,069,070,075,076,077,084,085,086,,,,,1.1,0.5,1.0*2E
$GPGSA,A,3,010,015,016,018,023,026,027,029,,,,,1.1,0.5,1.0*36
$GAGSA,A,3,107,108,113,121,126,131,133,,,,,,1.1,0.5,1.0*1E
$GPRMC,121336.60,A,4445.1709,N,03954.9107,E,000.00000,118.4,230522,,,A*5E
$GPGGA,121336.80,4445.1709,N,03954.9107,E,1,23,0.5,00135.2,M,0017.1,M,,*6C
$GLGSA,A,3,069,070,075,076,077,084,085,086,,,,,1.1,0.5,1.0*2E
$GPGSA,A,3,010,015,016,018,023,026,027,029,,,,,1.1,0.5,1.0*36
$GAGSA,A,3,107,108,113,121,126,131,133,,,,,,1.1,0.5,1.0*1E
$GPRMC,121336.80,A,4445.1709,N,03954.9107,E,000.00000,134.4,230522,,,A*5E
$GPGGA,121337.00,4445.1709,N,03954.9107,E,1,23,0.5,00135.2,M,0017.1,M,,*65
$GLGSA,A,3,069,070,075,076,077,084,085,086,,,,,1.1,0.5,1.0*2E
$GPGSA,A,3,010,015,016,018,023,026,027,029,,,,,1.1,0.5,1.0*36
$GAGSA,A,3,107,108,113,121,126,131,133,,,,,,1.1,0.5,1.0*1E
$GPGSV,7,1,28,005,08,042,17,010,34,200,49,013,13,055,,015,27,090,48*75
$GPGSV,7,2,28,016,45,283,46,018,65,046,48,023,64,175,49,026,42,238,46*7B
$GPGSV,7,3,28,027,25,306,44,029,31,120,48,069,28,037,47,070,48,120,37*78
$GPGSV,7,4,28,071,15,166,40,075,15,228,47,076,30,286,49,077,13,335,29*75
$GPGSV,7,5,28,084,17,085,30,085,62,023,52,086,38,306,36,101,43,255,45*7B
$GPGSV,7,6,28,103,09,032,,107,20,137,40,108,29,081,43,113,47,065,46*70
$GPGSV,7,7,28,121,23,200,43,126,66,301,48,131,21,316,44,133,20,271,37*79
$GPRMC,121337.00,A,4445.1709,N,03954.9107,E,000.00000,144.0,230522,,,A*54
$GPZDA,121337.00,23,05,2022,+00,00*4E
$GPGGA,121337.20,4445.1709,N,03954.9107,E,1,23,0.5,00135.2,M,0017.1,M,,*67
$GLGSA,A,3,069,070,075,076,077,084,085,086,,,,,1.1,0.5,1.0*2E
$GPGSA,A,3,010,015,016,018,023,026,027,029,,,,,1.1,0.5,1.0*36
$GAGSA,A,3,107,108,113,121,126,131,133,,,,,,1.1,0.5,1.0*1E
$GPRMC,121337.20,A,4445.1709,N,03954.9107,E,000.00000,149.3,230522,,,A*58
$GPGGA,121337.40,4445.1709,N,03954.9107,E,1,23,0.5,00135.2,M,0017.1,M,,*61
$GLGSA,A,3,069,070,075,076,077,084,085,086,,,,,1.1,0.5,1.0*2E
$GPGSA,A,3,010,015,016,018,023,026,027,029,,,,,1.1,0.5,1.0*36
$GAGSA,A,3,107,108,113,121,126,131,133,,,,,,1.1,0.5,1.0*1E
$GPRMC,121337.40,A,4445.1709,N,03954.9107,E,000.00000,118.8,230522,,,A*51
$GPGGA,121337.60,4445.1709,N,03954.9107,E,1,23,0.5,00135.2,M,0017.1,M,,*63
$GLGSA,A,3,069,070,075,076,077,084,085,086,,,,,1.1,0.5,1.0*2E
$GPGSA,A,3,010,015,016,018,023,026,027,029,,,,,1.1,0.5,1.0*36
$GAGSA,A,3,107,108,113,121,126,131,133,,,,,,1.1,0.5,1.0*1E
$GPRMC,121337.60,A,4445.1709,N,03954.9107,E,000.00000,087.3,230522,,,A*5F
$GPGGA,121337.80,4445.1709,N,03954.9107,E,1,23,0.5,00135.2,M,0017.1,M,,*6D
$GLGSA,A,3,069,070,075,076,077,084,085,086,,,,,1.1,0.5,1.0*2E
$GPGSA,A,3,010,015,016,018,023,026,027,029,,,,,1.1,0.5,1.0*36
$GAGSA,A,3,107,108,113,121,126,131,133,,,,,,1.1,0.5,1.0*1E
$GPRMC,121337.80,A,4445.1709,N,03954.9107,E,000.00000,078.6,230522,,,A*54
$GPGGA,121338.00,4445.1709,N,03954.9107,E,1,23,0.5,00135.2,M,0017.1,M,,*6A
$GLGSA,A,3,069,070,075,076,077,084,085,086,,,,,1.1,0.5,1.0*2E
$GPGSA,A,3,010,015,016,018,023,026,027,029,,,,,1.1,0.5,1.0*36
$GAGSA,A,3,107,108,113,121,126,131,133,,,,,,1.1,0.5,1.0*1E
$GPGSV,7,1,28,005,08,042,17,010,34,200,49,013,13,055,,015,27,090,48*75
$GPGSV,7,2,28,016,45,283,46,018,65,046,48,023,64,175,48,026,42,238,47*7B
$GPGSV,7,3,28,027,25,306,44,029,31,120,48,069,28,037,47,070,48,120,37*78
$GPGSV,7,4,28,071,15,166,40,075,15,228,47,076,30,286,49,077,13,335,29*75
$GPGSV,7,5,28,084,17,085,30,085,62,023,52,086,38,306,36,101,43,255,45*7B
$GPGSV,7,6,28,103,09,032,,107,20,137,40,108,29,081,43,113,47,065,45*73
$GPGSV,7,7,28,121,23,200,43,126,66,301,48,131,21,316,44,133,20,271,37*79
$GPRMC,121338.00,A,4445.1709,N,03954.9107,E,000.00000,083.3,230522,,,A*52
$GPZDA,121338.00,23,05,2022,+00,00*41
$GPGGA,121338.20,4445.1709,N,03954.9107,E,1,23,0.5,00135.2,M,0017.1,M,,*68
$GLGSA,A,3,069,070,075,076,077,084,085,086,,,,,1.1,0.5,1.0*2E
$GPGSA,A,3,010,015,016,018,023,026,027,029,,,,,1.1,0.5,1.0*36
$GAGSA,A,3,107,108,113,121,126,131,133,,,,,,1.1,0.5,1.0*1E
$GPRMC,121338.20,A,4445.1709,N,03954.9107,E,000.00000,080.2,230522,,,A*52
$GPGGA,121338.40,4445.1709,N,03954.9107,E,1,23,0.5,00135.2,M,0017.1,M,,*6E
$GLGSA,A,3,069,070,075,076,077,084,085,086,,,,,1.1,0.5,1.0*2E
$GPGSA,A,3,010,015,016,018,023,026,027,029,,,,,1.1,0.5,1.0*36
$GAGSA,A,3,107,108,113,121,126,131,133,,,,,,1.1,0.5,1.0*1E
$GPRMC,121338.40,A,4445.1709,N,03954.9107,E,000.00000,072.5,230522,,,A*5E
$GPGGA,121338.60,4445.1709,N,03954.9107,E,1,23,0.5,00135.2,M,0017.1,M,,*6C
$GLGSA,A,3,069,070,075,076,077,084,085,086,,,,,1.1,0.5,1.0*2E
$GPGSA,A,3,010,015,016,018,023,026,027,029,,,,,1.1,0.5,1.0*36
$GAGSA,A,3,107,108,113,121,126,131,133,,,,,,1.1,0.5,1.0*1E
$GPRMC,121338.60,A,4445.1709,N,03954.9107,E,000.00000,067.6,230522,,,A*5B
$GPGGA,121338.80,4445.1709,N,03954.9107,E,1,23,0.5,00135.2,M,0017.1,M,,*62
$GLGSA,A,3,069,070,075,076,077,084,085,086,,,,,1.1,0.5,1.0*2E
$GPGSA,A,3,010,015,016,018,023,026,027,029,,,,,1.1,0.5,1.0*36
$GAGSA,A,3,107,108,113,121,126,131,133,,,,,,1.1,0.5,1.0*1E
$GPRMC,121338.80,A,4445.1709,N,03954.9107,E,000.00000,064.4,230522,,,A*54
$GPGGA,121339.00,4445.1709,N,03954.9107,E,1,23,0.5,00135.2,M,0017.1,M,,*6B
$GLGSA,A,3,069,070,075,076,077,084,085,086,,,,,1.1,0.5,1.0*2E
$GPGSA,A,3,010,015,016,018,023,026,027,029,,,,,1.1,0.5,1.0*36
$GAGSA,A,3,107,108,113,121,126,131,133,,,,,,1.1,0.5,1.0*1E
$GPGSV,7,1,28,005,08,042,19,010,35,200,50,013,13,055,,015,27,090,48*72
$GPGSV,7,2,28,016,45,283,46,018,65,046,48,023,64,175,48,026,42,238,47*7B
$GPGSV,7,3,28,027,25,306,45,029,31,120,48,069,28,037,47,070,48,120,37*79
$GPGSV,7,4,28,071,15,166,42,075,15,228,47,076,30,286,49,077,13,335,29*77
$GPGSV,7,5,28,084,17,085,30,085,62,023,51,086,38,306,36,101,43,255,45*78
$GPGSV,7,6,28,103,09,032,,107,20,137,40,108,29,081,43,113,47,065,45*73
$GPGSV,7,7,28,121,23,200,43,126,66,301,48,131,21,316,44,133,20,271,36*78
$GPRMC,121339.00,A,4445.1709,N,03954.9107,E,000.00000,063.6,230522,,,A*58
$GPZDA,121339.00,23,05,2022,+00,00*40
$GPGGA,121339.20,4445.1709,N,03954.9107,E,1,23,0.5,00135.2,M,0017.1,M,,*69
$GLGSA,A,3,069,070,075,076,077,084,085,086,,,,,1.1,0.5,1.0*2E
$GPGSA,A,3,010,015,016,018,023,026,027,029,,,,,1.1,0.5,1.0*36
$GAGSA,A,3,107,108,113,121,126,131,133,,,,,,1.1,0.5,1.0*1E
$GPRMC,121339.20,A,4445.1709,N,03954.9107,E,000.00000,069.0,230522,,,A*56
$GPGGA,121339.40,4445.1709,N,03954.9107,E,1,23,0.5,00135.1,M,0017.1,M,,*6C
$GLGSA,A,3,069,070,075,076,077,084,085,086,,,,,1.1,0.5,1.0*2E
$GPGSA,A,3,010,015,016,018,023,026,027,029,,,,,1.1,0.5,1.0*36
$GAGSA,A,3,107,108,113,121,126,131,133,,,,,,1.1,0.5,1.0*1E
$GPRMC,121339.40,A,4445.1709,N,03954.9107,E,000.00000,078.4,230522,,,A*54
$GPGGA,121339.60,4445.1709,N,03954.9107,E,1,23,0.5,00135.1,M,0017.1,M,,*6E
$GLGSA,A,3,069,070,075,076,077,084,085,086,,,,,1.1,0.5,1.0*2E
$GPGSA,A,3,010,015,016,018,023,026,027,029,,,,,1.1,0.5,1.0*36
$GAGSA,A,3,107,108,113,121,126,131,133,,,,,,1.1,0.5,1.0*1E
$GPRMC,121339.60,A,4445.1709,N,03954.9107,E,000.00000,081.8,230522,,,A*5C
$GPGGA,121339.80,4445.1709,N,03954.9107,E,1,23,0.5,00135.1,M,0017.1,M,,*60
$GLGSA,A,3,069,070,075,076,077,084,085,086,,,,,1.1,0.5,1.0*2E
$GPGSA,A,3,010,015,016,018,023,026,027,029,,,,,1.1,0.5,1.0*36
$GAGSA,A,3,107,108,113,121,126,131,133,,,,,,1.1,0.5,1.0*1E
$GPRMC,121339.80,A,4445.1709,N,03954.9107,E,000.00000,067.0,230522,,,A*52
$GPGGA,121340.00,4445.1709,N,03954.9107,E,1,23,0.5,00135.1,M,0017.1,M,,*66
$GLGSA,A,3,069,070,075,076,077,084,085,086,,,,,1.1,0.5,1.0*2E
$GPGSA,A,3,010,015,016,018,023,026,027,029,,,,,1.1,0.5,1.0*36
$GAGSA,A,3,107,108,113,121,126,131,133,,,,,,1.1,0.5,1.0*1E
$GPGSV,7,1,28,005,08,042,18,010,35,200,49,013,13,055,,015,27,090,48*7B
$GPGSV,7,2,28,016,45,283,46,018,65,046,48,023,64,175,48,026,42,238,47*7B
$GPGSV,7,3,28,027,25,306,45,029,31,120,48,069,28,037,47,070,48,120,37*79
$GPGSV,7,4,28,071,15,166,42,075,15,228,47,076,30,286,49,077,13,335,29*77
$GPGSV,7,5,28,084,17,085,30,085,62,023,51,086,38,306,36,101,43,255,45*78
$GPGSV,7,6,28,103,09,032,,107,20,137,40,108,29,081,43,113,47,065,45*73
$GPGSV,7,7,28,121,23,200,43,126,66,301,48,131,21,316,44,133,20,271,37*79
$GPRMC,121340.00,A,4445.1709,N,03954.9107,E,000.00000,065.3,230522,,,A*55
$GPZDA,121340.00,23,05,2022,+00,00*4E
$GPGGA,121340.20,4445.1709,N,03954.9107,E,1,23,0.5,00135.1,M,0017.1,M,,*64
$GLGSA,A,3,069,070,075,076,077,084,085,086,,,,,1.1,0.5,1.0*2E
$GPGSA,A,3,010,015,016,018,023,026,027,029,,,,,1.1,0.5,1.0*36
$GAGSA,A,3,107,108,113,121,126,131,133,,,,,,1.1,0.5,1.0*1E
$GPRMC,121340.20,A,4445.1709,N,03954.9107,E,000.00000,063.4,230522,,,A*56
$GPGGA,121340.40,4445.1709,N,03954.9107,E,1,23,0.5,00135.1,M,0017.1,M,,*62
$GLGSA,A,3,069,070,075,076,077,084,085,086,,,,,1.1,0.5,1.0*2E
$GPGSA,A,3,010,015,016,018,023,026,027,029,,,,,1.1,0.5,1.0*36
$GAGSA,A,3,107,108,113,121,126,131,133,,,,,,1.1,0.5,1.0*1E
$GPRMC,121340.40,A,4445.1709,N,03954.9107,E,000.00000,061.2,230522,,,A*54
$GPGGA,121340.60,4445.1709,N,03954.9107,E,1,23,0.5,00135.1,M,0017.1,M,,*60
$GLGSA,A,3,069,070,075,076,077,084,085,086,,,,,1.1,0.5,1.0*2E
$GPGSA,A,3,010,015,016,018,023,026,027,029,,,,,1.1,0.5,1.0*36
$GAGSA,A,3,107,108,113,121,126,131,133,,,,,,1.1,0.5,1.0*1E
$GPRMC,121340.60,A,4445.1709,N,03954.9107,E,000.00000,070.1,230522,,,A*55
$GPGGA,121340.80,4445.1709,N,03954.9107,E,1,23,0.5,00135.1,M,0017.1,M,,*6E
$GLGSA,A,3,069,070,075,076,077,084,085,086,,,,,1.1,0.5,1.0*2E
$GPGSA,A,3,010,015,016,018,023,026,027,029,,,,,1.1,0.5,1.0*36
$GAGSA,A,3,107,108,113,121,126,131,133,,,,,,1.1,0.5,1.0*1E
$GPRMC,121340.80,A,4445.1709,N,03954.9107,E,000.00000,069.1,230522,,,A*53
$GPGGA,121341.00,4445.1709,N,03954.9107,E,1,23,0.5,00135.1,M,0017.1,M,,*67
$GLGSA,A,3,069,070,075,076,077,084,085,086,,,,,1.1,0.5,1.0*2E
$GPGSA,A,3,010,015,016,018,023,026,027,029,,,,,1.1,0.5,1.0*36
$GAGSA,A,3,107,108,113,121,126,131,133,,,,,,1.1,0.5,1.0*1E
$GPGSV,7,1,28,005,08,042,20,010,35,200,50,013,13,055,,015,27,090,47*77
$GPGSV,7,2,28,016,45,283,46,018,65,046,48,023,64,175,48,026,42,238,47*7B
$GPGSV,7,3,28,027,25,306,45,029,31,120,48,069,28,037,47,070,48,120,37*79
$GPGSV,7,4,28,071,15,166,42,075,15,228,47,076,30,286,49,077,13,335,28*76
$GPGSV,7,5,28,084,17,085,30,085,62,023,52,086,38,306,36,101,43,255,45*7B
$GPGSV,7,6,28,103,09,032,,107,20,137,40,108,29,081,43,113,47,065,45*73
$GPGSV,7,7,28,121,23,200,43,126,66,301,48,131,21,316,44,133,20,271,37*79
$GPRMC,121341.00,A,4445.1709,N,03954.9107,E,000.00000,067.1,230522,,,A*54
$GPZDA,121341.00,23,05,2022,+00,00*4F
$GPGGA,121341.20,4445.1709,N,03954.9107,E,1,23,0.5,00135.1,M,0017.1,M,,*65
$GLGSA,A,3,069,070,075,076,077,084,085,086,,,,,1.1,0.5,1.0*2E
$GPGSA,A,3,010,015,016,018,023,026,027,029,,,,,1.1,0.5,1.0*36
$GAGSA,A,3,107,108,113,121,126,131,133,,,,,,1.1,0.5,1.0*1E
$GPRMC,121341.20,A,4445.1709,N,03954.9107,E,000.00000,064.3,230522,,,A*57
$GPGGA,121341.40,4445.1709,N,03954.9107,E,1,23,0.5,00135.1,M,0017.1,M,,*63
$GLGSA,A,3,069,070,075,076,077,084,085,086,,,,,1.1,0.5,1.0*2E
$GPGSA,A,3,010,015,016,018,023,026,027,029,,,,,1.1,0.5,1.0*36
$GAGSA,A,3,107,108,113,121,126,131,133,,,,,,1.1,0.5,1.0*1E
$GPRMC,121341.40,A,4445.1709,N,03954.9107,E,000.00000,065.9,230522,,,A*5A
$GPGGA,121341.60,4445.1709,N,03954.9107,E,1,23,0.5,00135.1,M,0017.1,M,,*61
$GLGSA,A,3,069,070,075,076,077,084,085,086,,,,,1.1,0.5,1.0*2E
$GPGSA,A,3,010,015,016,018,023,026,027,029,,,,,1.1,0.5,1.0*36
$GAGSA,A,3,107,108,113,121,126,131,133,,,,,,1.1,0.5,1.0*1E
$GPRMC,121341.60,A,4445.1709,N,03954.9107,E,000.00000,068.9,230522,,,A*55
$GPGGA,121341.80,4445.1709,N,03954.9107,E,1,23,0.5,00135.1,M,0017.1,M,,*6F
$GLGSA,A,3,069,070,075,076,077,084,085,086,,,,,1.1,0.5,1.0*2E
$GPGSA,A,3,010,015,016,018,023,026,027,029,,,,,1.1,0.5,1.0*36
$GAGSA,A,3,107,108,113,121,126,131,133,,,,,,1.1,0.5,1.0*1E
$GPRMC,121341.80,A,4445.1709,N,03954.9107,E,000.00000,070.3,230522,,,A*58
$GPGGA,121342.00,4445.1709,N,03954.9107,E,1,23,0.5,00135.1,M,0017.1,M,,*64
$GLGSA,A,3,069,070,075,076,077,084,085,086,,,,,1.1,0.5,1.0*2E
$GPGSA,A,3,010,015,016,018,023,026,027,029,,,,,1.1,0.5,1.0*36
$GAGSA,A,3,107,108,113,121,126,131,133,,,,,,1.1,0.5,1.0*1E
$GPGSV,7,1,28,005,08,042,20,010,35,200,50,013,13,055,,015,27,090,47*77
$GPGSV,7,2,28,016,45,283,46,018,65,046,48,023,64,175,48,026,42,238,46*7A
$GPGSV,7,3,28,027,25,306,45,029,31,120,47,069,28,037,48,070,48,120,37*79
$GPGSV,7,4,28,071,15,166,42,075,15,228,46,076,30,286,49,077,13,335,28*77
$GPGSV,7,5,28,084,17,085,29,085,62,024,52,086,38,306,35,101,43,255,45*77
$GPGSV,7,6,28,103,09,032,,107,20,137,40,108,29,081,43,113,47,065,45*73
$GPGSV,7,7,28,121,23,200,43,126,66,301,48,131,21,316,44,133,20,271,37*79
$GPRMC,121342.00,A,4445.1709,N,03954.9107,E,000.00000,072.9,230522,,,A*5B
$GPZDA,121342.00,23,05,2022,+00,00*4C
$GPGGA,121342.20,4445.1709,N,03954.9107,E,1,23,0.5,00135.1,M,0017.1,M,,*66
$GLGSA,A,3,069,070,075,076,077,084,085,086,,,,,1.1,0.5,1.0*2E
$GPGSA,A,3,010,015,016,018,023,026,027,029,,,,,1.1,0.5,1.0*36
$GAGSA,A,3,107,108,113,121,126,131,133,,,,,,1.1,0.5,1.0*1E
$GPRMC,121342.20,A,4445.1709,N,03954.9107,E,000.00000,070.9,230522,,,A*5B
$GPGGA,121342.40,4445.1709,N,03954.9107,E,1,23,0.5,00135.0,M,0017.1,M,,*61
$GLGSA,A,3,069,070,075,076,077,084,085,086,,,,,1.1,0.5,1.0*2E
$GPGSA,A,3,010,015,016,018,023,026,027,029,,,,,1.1,0.5,1.0*36
$GAGSA,A,3,107,108,113,121,126,131,133,,,,,,1.1,0.5,1.0*1E
$GPRMC,121342.40,A,4445.1709,N,03954.9107,E,000.00000,063.2,230522,,,A*54
$GPGGA,121342.60,4445.1709,N,03954.9107,E,1,23,0.5,00135.0,M,0017.1,M,,*63
$GLGSA,A,3,069,070,075,076,077,084,085,086,,,,,1.1,0.5,1.0*2E
$GPGSA,A,3,010,015,016,018,023,026,027,029,,,,,1.1,0.5,1.0*36
$GAGSA,A,3,107,108,113,121,126,131,133,,,,,,1.1,0.5,1.0*1E
$GPRMC,121342.60,A,4445.1709,N,03954.9107,E,000.00000,071.3,230522,,,A*54
$GPGGA,121342.80,4445.1709,N,03954.9107,E,1,23,0.5,00135.0,M,0017.1,M,,*6D
$GLGSA,A,3,069,070,075,076,077,084,085,086,,,,,1.1,0.5,1.0*2E
$GPGSA,A,3,010,015,016,018,023,026,027,029,,,,,1.1,0.5,1.0*36
$GAGSA,A,3,107,108,113,121,126,131,133,,,,,,1.1,0.5,1.0*1E
$GPRMC,121342.80,A,4445.1709,N,03954.9107,E,000.00000,076.2,230522,,,A*5C
$GPGGA,121343.00,4445.1709,N,03954.9107,E,1,23,0.5,00135.0,M,0017.1,M,,*64
$GLGSA,A,3,069,070,075,076,077,084,085,086,,,,,1.1,0.5,1.0*2E
$GPGSA,A,3,010,015,016,018,023,026,027,029,,,,,1.1,0.5,1.0*36
$GAGSA,A,3,107,108,113,121,126,131,133,,,,,,1.1,0.5,1.0*1E
$GPGSV,7,1,28,005,08,042,18,010,35,200,50,013,13,055,,015,27,090,47*7C
$GPGSV,7,2,28,016,45,283,46,018,65,046,48,023,64,175,48,026,42,238,47*7B
$GPGSV,7,3,28,027,25,306,44,029,31,120,47,069,28,037,48,070,48,120,37*78
$GPGSV,7,4,28,071,15,166,41,075,15,228,46,076,30,286,49,077,13,335,27*7B
$GPGSV,7,5,28,084,17,085,30,085,62,024,52,086,38,306,35,101,43,255,45*7F
$GPGSV,7,6,28,103,09,032,,107,20,137,40,108,29,081,43,113,47,065,45*73
$GPGSV,7,7,28,121,23,200,43,126,66,301,48,131,21,316,44,133,20,271,36*78
$GPRMC,121343.00,A,4445.1709,N,03954.9107,E,000.00000,087.0,230522,,,A*59
$GPZDA,121343.00,23,05,2022,+00,00*4D
$GPGGA,121343.20,4445.1709,N,03954.9107,E,1,23,0.5,00135.0,M,0017.1,M,,*66
$GLGSA,A,3,069,070,075,076,077,084,085,086,,,,,1.1,0.5,1.0*2E
$GPGSA,A,3,010,015,016,018,023,026,027,029,,,,,1.1,0.5,1.0*36
$GAGSA,A,3,107,108,113,121,126,131,133,,,,,,1.1,0.5,1.0*1E
$GPRMC,121343.20,A,4445.1709,N,03954.9107,E,000.00000,084.0,230522,,,A*58
$GPGGA,121343.40,4445.1709,N,03954.9107,E,1,23,0.5,00135.0,M,0017.1,M,,*60
$GLGSA,A,3,069,070,075,076,077,084,085,086,,,,,1.1,0.5,1.0*2E
$GPGSA,A,3,010,015,016,018,023,026,027,029,,,,,1.1,0.5,1.0*36
$GAGSA,A,3,107,108,113,121,126,131,133,,,,,,1.1,0.5,1.0*1E
$GPRMC,121343.40,A,4445.1709,N,03954.9107,E,000.00000,072.1,230522,,,A*56
$GPGGA,121343.60,4445.1709,N,03954.9107,E,1,23,0.5,00135.0,M,0017.1,M,,*62
$GLGSA,A,3,069,070,075,076,077,084,085,086,,,,,1.1,0.5,1.0*2E
$GPGSA,A,3,010,015,016,018,023,026,027,029,,,,,1.1,0.5,1.0*36
$GAGSA,A,3,107,108,113,121,126,131,133,,,,,,1.1,0.5,1.0*1E
$GPRMC,121343.60,A,4445.1709,N,03954.9107,E,000.00000,083.2,230522,,,A*59
$GPGGA,121343.80,4445.1709,N,03954.9107,E,1,23,0.5,00135.0,M,0017.1,M,,*6C
$GLGSA,A,3,069,070,075,076,077,084,085,086,,,,,1.1,0.5,1.0*2E
$GPGSA,A,3,010,015,016,018,023,026,027,029,,,,,1.1,0.5,1.0*36
$GAGSA,A,3,107,108,113,121,126,131,133,,,,,,1.1,0.5,1.0*1E
$GPRMC,121343.80,A,4445.1709,N,03954.9107,E,000.00000,093.4,230522,,,A*50
$GPGGA,121344.00,4445.1709,N,03954.9107,E,1,23,0.5,00135.0,M,0017.1,M,,*63
$GLGSA,A,3,069,070,075,076,077,084,085,086,,,,,1.1,0.5,1.0*2E
$GPGSA,A,3,010,015,016,018,023,026,027,029,,,,,1.1,0.5,1.0*36
$GAGSA,A,3,107,108,113,121,126,131,133,,,,,,1.1,0.5,1.0*1E
$GPGSV,7,1,28,005,08,042,20,010,35,200,50,013,13,055,,015,27,090,47*77
$GPGSV,7,2,28,016,45,283,46,018,65,046,48,023,64,175,48,026,42,238,47*7B
$GPGSV,7,3,28,027,25,306,44,029,31,120,47,069,28,037,48,070,48,120,37*78
$GPGSV,7,4,28,071,15,166,42,075,15,228,47,076,30,286,49,077,13,335,28*76
$GPGSV,7,5,28,084,17,085,29,085,62,024,52,086,38,306,35,101,43,255,45*77
$GPGSV,7,6,28,103,09,032,,107,20,137,40,108,29,081,43,113,47,065,45*73
$GPGSV,7,7,28,121,23,200,43,126,66,301,48,131,21,316,44,133,20,271,37*79
$GPRMC,121344.00,A,4445.1709,N,03954.9107,E,000.00000,095.6,230522,,,A*5B
$GPZDA,121344.00,23,05,2022,+00,00*4A
$GPGGA,121344.20,4445.1709,N,03954.9107,E,1,23,0.5,00135.0,M,0017.1,M,,*61
$GLGSA,A,3,069,070,075,076,077,084,085,086,,,,,1.1,0.5,1.0*2E
$GPGSA,A,3,010,015,016,018,023,026,027,029,,,,,1.1,0.5,1.0*36
$GAGSA,A,3,107,108,113,121,126,131,133,,,,,,1.1,0.5,1.0*1E
$GPRMC,121344.20,A,4445.1709,N,03954.9107,E,000.00000,097.4,230522,,,A*59
$GPGGA,121344.40,4445.1709,N,03954.9107,E,1,23,0.5,00135.0,M,0017.1,M,,*67
$GLGSA,A,3,069,070,075,076,077,084,085,086,,,,,1.1,0.5,1.0*2E
$GPGSA,A,3,010,015,016,018,023,026,027,029,,,,,1.1,0.5,1.0*36
$GAGSA,A,3,107,108,113,121,126,131,133,,,,,,1.1,0.5,1.0*1E
$GPRMC,121344.40,A,4445.1709,N,03954.9107,E,000.00000,097.2,230522,,,A*59
$GPGGA,121344.60,4445.1709,N,03954.9107,E,1,23,0.5,00135.0,M,0017.1,M,,*65
$GLGSA,A,3,069,070,075,076,077,084,085,086,,,,,1.1,0.5,1.0*2E
$GPGSA,A,3,010,015,016,018,023,026,027,029,,,,,1.1,0.5,1.0*36
$GAGSA,A,3,107,108,113,121,126,131,133,,,,,,1.1,0.5,1.0*1E
$GPRMC,121344.60,A,4445.1709,N,03954.9107,E,000.00000,090.6,230522,,,A*58
$GPGGA,121344.80,4445.1709,N,03954.9107,E,1,23,0.5,00135.0,M,0017.1,M,,*6B
$GLGSA,A,3,069,070,075,076,077,084,085,086,,,,,1.1,0.5,1.0*2E
$GPGSA,A,3,010,015,016,018,023,026,027,029,,,,,1.1,0.5,1.0*36
$GAGSA,A,3,107,108,113,121,126,131,133,,,,,,1.1,0.5,1.0*1E
$GPRMC,121344.80,A,4445.1709,N,03954.9107,E,000.00000,092.9,230522,,,A*5B
$GPGGA,121345.00,4445.1709,N,03954.9107,E,1,23,0.5,00135.0,M,0017.1,M,,*62
$GLGSA,A,3,069,070,075,076,077,084,085,086,,,,,1.1,0.5,1.0*2E
$GPGSA,A,3,010,015,016,018,023,026,027,029,,,,,1.1,0.5,1.0*36
$GAGSA,A,3,107,108,113,121,126,131,133,,,,,,1.1,0.5,1.0*1E
$GPGSV,7,1,28,005,08,042,19,010,35,200,50,013,13,055,,015,27,090,47*7D
$GPGSV,7,2,28,016,45,283,46,018,65,046,48,023,64,175,48,026,42,238,47*7B
$GPGSV,7,3,28,027,25,306,44,029,31,120,47,069,28,037,48,070,48,120,36*79
$GPGSV,7,4,28,071,15,166,42,075,15,228,47,076,30,286,49,077,13,335,28*76
$GPGSV,7,5,28,084,17,085,29,085,62,024,52,086,38,306,35,101,43,255,45*77
$GPGSV,7,6,28,103,09,032,,107,20,137,40,108,29,081,42,113,47,065,45*72
$GPGSV,7,7,28,121,23,200,43,126,66,301,48,131,21,316,44,133,20,271,37*79
$GPRMC,121345.00,A,4445.1709,N,03954.9107,E,000.00000,099.3,230522,,,A*53
$GPZDA,121345.00,23,05,2022,+00,00*4B
$GPGGA,121345.20,4445.1709,N,03954.9107,E,1,23,0.5,00135.0,M,0017.1,M,,*60
$GLGSA,A,3,069,070,075,076,077,084,085,086,,,,,1.1,0.5,1.0*2E
$GPGSA,A,3,010,015,016,018,023,026,027,029,,,,,1.1,0.5,1.0*36
$GAGSA,A,3,107,108,113,121,126,131,133,,,,,,1.1,0.5,1.0*1E
$GPRMC,121345.20,A,4445.1709,N,03954.9107,E,000.00000,103.9,230522,,,A*59
$GPGGA,121345.40,4445.1709,N,03954.9107,E,1,23,0.5,00135.0,M,0017.1,M,,*66
$GLGSA,A,3,069,070,075,076,077,084,085,086,,,,,1.1,0.5,1.0*2E
$GPGSA,A,3,010,015,016,018,023,026,027,029,,,,,1.1,0.5,1.0*36
$GAGSA,A,3,107,108,113,121,126,131,133,,,,,,1.1,0.5,1.0*1E
$GPRMC,121345.40,A,4445.1709,N,03954.9107,E,000.00000,110.6,230522,,,A*52
$GPGGA,121345.60,4445.1709,N,03954.9107,E,1,23,0.5,00135.0,M,0017.1,M,,*64
$GLGSA,A,3,069,070,075,076,077,084,085,086,,,,,1.1,0.5,1.0*2E
$GPGSA,A,3,010,015,016,018,023,026,027,029,,,,,1.1,0.5,1.0*36
$GAGSA,A,3,107,108,113,121,126,131,133,,,,,,1.1,0.5,1.0*1E
$GPRMC,121345.60,A,4445.1709,N,03954.9107,E,000.00000,101.5,230522,,,A*53
$GPGGA,121345.80,4445.1709,N,03954.9107,E,1,23,0.5,00135.0,M,0017.1,M,,*6A
$GLGSA,A,3,069,070,075,076,077,084,085,086,,,,,1.1,0.5,1.0*2E
$GPGSA,A,3,010,015,016,018,023,026,027,029,,,,,1.1,0.5,1.0*36
$GAGSA,A,3,107,108,113,121,126,131,133,,,,,,1.1,0.5,1.0*1E
$GPRMC,121345.80,A,4445.1709,N,03954.9107,E,000.00000,089.3,230522,,,A*5A
$GPGGA,121346.00,4445.1709,N,03954.9107,E,1,23,0.5,00135.0,M,0017.1,M,,*61
$GLGSA,A,3,069,070,075,076,077,084,085,086,,,,,1.1,0.5,1.0*2E
$GPGSA,A,3,010,015,016,018,023,026,027,029,,,,,1.1,0.5,1.0*36
$GAGSA,A,3,107,108,113,121,126,131,133,,,,,,1.1,0.5,1.0*1E
$GPGSV,7,1,28,005,08,042,18,010,35,200,51,013,13,055,,015,27,090,47*7D
$GPGSV,7,2,28,016,45,283,46,018,65,046,48,023,64,175,48,026,42,238,47*7B
$GPGSV,7,3,28,027,25,306,44,029,31,120,47,069,28,037,48,070,48,120,37*78
$GPGSV,7,4,28,071,15,166,43,075,15,228,47,076,30,286,49,077,13,335,28*77
$GPGSV,7,5,28,084,17,085,30,085,62,024,52,086,38,306,36,101,43,255,45*7C
$GPGSV,7,6,28,103,09,032,,107,20,137,40,108,29,081,42,113,47,065,45*72
$GPGSV,7,7,28,121,23,200,43,126,66,301,48,131,21,316,44,133,20,271,37*79
$GPRMC,121346.00,A,4445.1709,N,03954.9107,E,000.00000,089.2,230522,,,A*50
$GPZDA,121346.00,23,05,2022,+00,00*48
$GPGGA,121346.20,4445.1709,N,03954.9107,E,1,23,0.5,00135.0,M,0017.1,M,,*63
$GLGSA,A,3,069,070,075,076,077,084,085,086,,,,,1.1,0.5,1.0*2E
$GPGSA,A,3,010,015,016,018,023,026,027,029,,,,,1.1,0.5,1.0*36
$GAGSA,A,3,107,108,113,121,126,131,133,,,,,,1.1,0.5,1.0*1E
$GPRMC,121346.20,A,4445.1709,N,03954.9107,E,000.00000,094.4,230522,,,A*58
$GPGGA,121346.40,4445.1709,N,03954.9107,E,1,23,0.5,00135.1,M,0017.1,M,,*64
$GLGSA,A,3,069,070,075,076,077,084,085,086,,,,,1.1,0.5,1.0*2E
$GPGSA,A,3,010,015,016,018,023,026,027,029,,,,,1.1,0.5,1.0*36
$GAGSA,A,3,107,108,113,121,126,131,133,,,,,,1.1,0.5,1.0*1E
$GPRMC,121346.40,A,4445.1709,N,03954.9107,E,000.00000,108.8,230522,,,A*56
$GPGGA,121346.60,4445.1709,N,03954.9107,E,1,23,0.5,00135.1,M,0017.1,M,,*66
$GLGSA,A,3,069,070,075,076,077,084,085,086,,,,,1.1,0.5,1.0*2E
$GPGSA,A,3,010,015,016,018,023,026,027,029,,,,,1.1,0.5,1.0*36
$GAGSA,A,3,107,108,113,121,126,131,133,,,,,,1.1,0.5,1.0*1E
$GPRMC,121346.60,A,4445.1709,N,03954.9107,E,000.00000,105.6,230522,,,A*57
$GPGGA,121346.80,4445.1709,N,03954.9107,E,1,23,0.5,00135.1,M,0017.1,M,,*68
$GLGSA,A,3,069,070,075,076,077,084,085,086,,,,,1.1,0.5,1.0*2E
$GPGSA,A,3,010,015,016,018,023,026,027,029,,,,,1.1,0.5,1.0*36
$GAGSA,A,3,107,108,113,121,126,131,133,,,,,,1.1,0.5,1.0*1E
$GPRMC,121346.80,A,4445.1709,N,03954.9107,E,000.00000,103.3,230522,,,A*5A
$GPGGA,121347.00,4445.1709,N,03954.9107,E,1,23,0.5,00135.1,M,0017.1,M,,*61
$GLGSA,A,3,069,070,075,076,077,084,085,086,,,,,1.1,0.5,1.0*2E
$GPGSA,A,3,010,015,016,018,023,026,027,029,,,,,1.1,0.5,1.0*36
$GAGSA,A,3,107,108,113,121,126,131,133,,,,,,1.1,0.5,1.0*1E
$GPGSV,7,1,28,005,08,042,18,010,35,200,51,013,13,055,,015,27,090,47*7D
$GPGSV,7,2,28,016,45,283,46,018,65,046,48,023,64,175,48,026,42,238,47*7B
$GPGSV,7,3,28,027,25,306,43,029,31,120,47,069,28,037,47,070,48,120,37*70
$GPGSV,7,4,28,071,15,166,43,075,15,228,47,076,30,286,49,077,13,335,28*77
$GPGSV,7,5,28,084,17,085,29,085,62,024,52,086,38,306,36,101,43,255,45*74
$GPGSV,7,6,28,103,09,032,,107,20,137,40,108,29,081,42,113,47,065,45*72
$GPGSV,7,7,28,121,23,200,43,126,66,301,48,131,21,316,44,133,20,271,37*79
$GPRMC,121347.00,A,4445.1709,N,03954.9107,E,000.00000,095.7,230522,,,A*59
$GPZDA,121347.00,23,05,2022,+00,00*49
$GPGGA,121347.20,4445.1709,N,03954.9107,E,1,23,0.5,00135.1,M,0017.1,M,,*63
$GLGSA,A,3,069,070,075,076,077,084,085,086,,,,,1.1,0.5,1.0*2E
$GPGSA,A,3,010,015,016,018,023,026,027,029,,,,,1.1,0.5,1.0*36
$GAGSA,A,3,107,108,113,121,126,131,133,,,,,,1.1,0.5,1.0*1E
$GPRMC,121347.20,A,4445.1709,N,03954.9107,E,000.00000,083.9,230522,,,A*52
$GPGGA,121347.40,4445.1709,N,03954.9107,E,1,23,0.5,00135.1,M,0017.1,M,,*65
$GLGSA,A,3,069,070,075,076,077,084,085,086,,,,,1.1,0.5,1.0*2E
$GPGSA,A,3,010,015,016,018,023,026,027,029,,,,,1.1,0.5,1.0*36
$GAGSA,A,3,107,108,113,121,126,131,133,,,,,,1.1,0.5,1.0*1E
$GPRMC,121347.40,A,4445.1709,N,03954.9107,E,000.00000,065.6,230522,,,A*53
$GPGGA,121347.60,4445.1709,N,03954.9107,E,1,23,0.5,00135.1,M,0017.1,M,,*67
$GLGSA,A,3,069,070,075,076,077,084,085,086,,,,,1.1,0.5,1.0*2E
$GPGSA,A,3,010,015,016,018,023,026,027,029,,,,,1.1,0.5,1.0*36
$GAGSA,A,3,107,108,113,121,126,131,133,,,,,,1.1,0.5,1.0*1E
$GPRMC,121347.60,A,4445.1709,N,03954.9107,E,000.00000,040.3,230522,,,A*53
$GPGGA,121347.80,4445.1709,N,03954.9107,E,1,23,0.5,00135.1,M,0017.1,M,,*69
$GLGSA,A,3,069,070,075,076,077,084,085,086,,,,,1.1,0.5,1.0*2E
$GPGSA,A,3,010,015,016,018,023,026,027,029,,,,,1.1,0.5,1.0*36
$GAGSA,A,3,107,108,113,121,126,131,133,,,,,,1.1,0.5,1.0*1E
$GPRMC,121347.80,A,4445.1709,N,03954.9107,E,000.00000,011.2,230522,,,A*58
$GPGGA,121348.00,4445.1709,N,03954.9107,E,1,23,0.5,00135.1,M,0017.1,M,,*6E
$GLGSA,A,3,069,070,075,076,077,084,085,086,,,,,1.1,0.5,1.0*2E
$GPGSA,A,3,010,015,016,018,023,026,027,029,,,,,1.1,0.5,1.0*36
$GAGSA,A,3,107,108,113,121,126,131,133,,,,,,1.1,0.5,1.0*1E
$GPGSV,7,1,28,005,08,042,19,010,35,200,52,013,13,055,,015,27,090,47*7F
$GPGSV,7,2,28,016,45,283,46,018,65,046,48,023,64,175,48,026,42,238,47*7B
$GPGSV,7,3,28,027,25,306,43,029,31,120,47,069,28,037,47,070,48,120,37*70
$GPGSV,7,4,28,071,15,166,43,075,15,228,47,076,30,286,49,077,13,335,29*76
$GPGSV,7,5,28,084,17,085,28,085,62,024,52,086,38,306,36,101,43,255,45*75
$GPGSV,7,6,28,103,09,032,,107,20,137,40,108,29,081,42,113,47,065,45*72
$GPGSV,7,7,28,121,23,200,43,126,66,301,48,131,21,316,43,133,20,271,36*7F
$GPRMC,121348.00,A,4445.1709,N,03954.9107,E,000.00000,000.9,230522,,,A*54
$GPZDA,121348.00,23,05,2022,+00,00*46
$GPGGA,121348.20,4445.1709,N,03954.9107,E,1,23,0.5,00135.1,M,0017.1,M,,*6C
$GLGSA,A,3,069,070,075,076,077,084,085,086,,,,,1.1,0.5,1.0*2E
$GPGSA,A,3,010,015,016,018,023,026,027,029,,,,,1.1,0.5,1.0*36
$GAGSA,A,3,107,108,113,121,126,131,133,,,,,,1.1,0.5,1.0*1E
$GPRMC,121348.20,A,4445.1709,N,03954.9107,E,000.00000,357.4,230522,,,A*5A
$GPGGA,121348.40,4445.1709,N,03954.9107,E,1,23,0.5,00135.1,M,0017.1,M,,*6A
$GLGSA,A,3,069,070,075,076,077,084,085,086,,,,,1.1,0.5,1.0*2E
$GPGSA,A,3,010,015,016,018,023,026,027,029,,,,,1.1,0.5,1.0*36
$GAGSA,A,3,107,108,113,121,126,131,133,,,,,,1.1,0.5,1.0*1E
$GPRMC,121348.40,A,4445.1709,N,03954.9107,E,000.00000,355.1,230522,,,A*5B
$GPGGA,121348.60,4445.1709,N,03954.9107,E,1,23,0.5,00135.1,M,0017.1,M,,*68
$GLGSA,A,3,069,070,075,076,077,084,085,086,,,,,1.1,0.5,1.0*2E
$GPGSA,A,3,010,015,016,018,023,026,027,029,,,,,1.1,0.5,1.0*36
$GAGSA,A,3,107,108,113,121,126,131,133,,,,,,1.1,0.5,1.0*1E
$GPRMC,121348.60,A,4445.1709,N,03954.9107,E,000.00000,355.6,230522,,,A*5E
$GPGGA,121348.80,4445.1709,N,03954.9107,E,1,23,0.5,00135.1,M,0017.1,M,,*66
$GLGSA,A,3,069,070,075,076,077,084,085,086,,,,,1.1,0.5,1.0*2E
$GPGSA,A,3,010,015,016,018,023,026,027,029,,,,,1.1,0.5,1.0*36
$GAGSA,A,3,107,108,113,121,126,131,133,,,,,,1.1,0.5,1.0*1E
$GPRMC,121348.80,A,4445.1709,N,03954.9107,E,000.00000,003.8,230522,,,A*5E
$GPGGA,121349.00,4445.1709,N,03954.9107,E,1,23,0.5,00135.1,M,0017.1,M,,*6F
$GLGSA,A,3,069,070,075,076,077,084,085,086,,,,,1.1,0.5,1.0*2E
$GPGSA,A,3,010,015,016,018,023,026,027,029,,,,,1.1,0.5,1.0*36
$GAGSA,A,3,107,108,113,121,126,131,133,,,,,,1.1,0.5,1.0*1E
$GPGSV,7,1,28,005,08,042,18,010,35,200,52,013,13,055,,015,27,090,47*7E
$GPGSV,7,2,28,016,45,283,46,018,65,046,48,023,64,175,48,026,42,238,47*7B
$GPGSV,7,3,28,027,25,306,44,029,30,120,47,069,28,037,47,070,48,120,37*76
$GPGSV,7,4,28,071,15,166,43,075,15,228,47,076,30,286,49,077,13,335,29*76
$GPGSV,7,5,28,084,17,085,28,085,62,024,52,086,38,306,36,101,43,255,45*75
$GPGSV,7,6,28,103,09,032,,107,20,137,40,108,29,081,42,113,47,065,45*72
$GPGSV,7,7,28,121,23,200,43,126,66,301,48,131,21,316,43,133,20,271,36*7F
$GPRMC,121349.00,A,4445.1709,N,03954.9107,E,000.00000,022.1,230522,,,A*5D
$GPZDA,121349.00,23,05,2022,+00,00*47
$GPGGA,121349.20,4445.1709,N,03954.9107,E,1,23,0.5,00135.1,M,0017.1,M,,*6D
$GLGSA,A,3,069,070,075,076,077,084,085,086,,,,,1.1,0.5,1.0*2E
$GPGSA,A,3,010,015,016,018,023,026,027,029,,,,,1.1,0.5,1.0*36
$GAGSA,A,3,107,108,113,121,126,131,133,,,,,,1.1,0.5,1.0*1E
$GPRMC,121349.20,A,4445.1709,N,03954.9107,E,000.00000,055.0,230522,,,A*5E
$GPGGA,121349.40,4445.1709,N,03954.9107,E,1,23,0.5,00135.2,M,0017.1,M,,*68
$GLGSA,A,3,069,070,075,076,077,084,085,086,,,,,1.1,0.5,1.0*2E
$GPGSA,A,3,010,015,016,018,023,026,027,029,,,,,1.1,0.5,1.0*36
$GAGSA,A,3,107,108,113,121,126,131,133,,,,,,1.1,0.5,1.0*1E
$GPRMC,121349.40,A,4445.1709,N,03954.9107,E,000.00000,087.7,230522,,,A*50
$GPGGA,121349.60,4445.1709,N,03954.9107,E,1,23,0.5,00135.2,M,0017.1,M,,*6A
$GLGSA,A,3,069,070,075,076,077,084,085,086,,,,,1.1,0.5,1.0*2E
$GPGSA,A,3,010,015,016,018,023,026,027,029,,,,,1.1,0.5,1.0*36
$GAGSA,A,3,107,108,113,121,126,131,133,,,,,,1.1,0.5,1.0*1E
$GPRMC,121349.60,A,4445.1709,N,03954.9107,E,000.00000,096.9,230522,,,A*5C
$GPGGA,121349.80,4445.1709,N,03954.9107,E,1,23,0.5,00135.2,M,0017.1,M,,*64
$GLGSA,A,3,069,070,075,076,077,084,085,086,,,,,1.1,0.5,1.0*2E
$GPGSA,A,3,010,015,016,018,023,026,027,029,,,,,1.1,0.5,1.0*36
$GAGSA,A,3,107,108,113,121,126,131,133,,,,,,1.1,0.5,1.0*1E
$GPRMC,121349.80,A,4445.1709,N,03954.9107,E,000.00000,105.0,230522,,,A*50
$GPGGA,121350.00,4445.1709,N,03954.9107,E,1,23,0.5,00135.2,M,0017.1,M,,*64
$GLGSA,A,3,069,070,075,076,077,084,085,086,,,,,1.1,0.5,1.0*2E
$GPGSA,A,3,010,015,016,018,023,026,027,029,,,,,1.1,0.5,1.0*36
$GAGSA,A,3,107,108,113,121,126,131,133,,,,,,1.1,0.5,1.0*1E
$GPGSV,7,1,28,005,08,042,19,010,35,200,52,013,13,055,,015,27,090,47*7F
$GPGSV,7,2,28,016,45,283,46,018,65,046,48,023,64,175,48,026,42,238,46*7A
$GPGSV,7,3,28,027,25,306,44,029,30,120,47,069,28,037,46,070,48,120,37*77
$GPGSV,7,4,28,071,15,166,45,075,15,228,47,076,30,286,50,077,13,335,28*79
$GPGSV,7,5,28,084,17,085,26,085,62,024,52,086,38,306,36,101,43,255,46*78
$GPGSV,7,6,28,103,09,032,,107,20,137,40,108,29,081,42,113,47,065,45*72
$GPGSV,7,7,28,121,23,200,43,126,66,301,48,131,21,316,43,133,20,271,36*7F
$GPRMC,121350.00,A,4445.1709,N,03954.9107,E,000.00000,109.4,230522,,,A*58
$GPZDA,121350.00,23,05,2022,+00,00*4F
$GPGGA,121350.20,4445.1709,N,03954.9107,E,1,23,0.5,00135.2,M,0017.1,M,,*66
$GLGSA,A,3,069,070,075,076,077,084,085,086,,,,,1.1,0.5,1.0*2E
$GPGSA,A,3,010,015,016,018,023,026,027,029,,,,,1.1,0.5,1.0*36
$GAGSA,A,3,107,108,113,121,126,131,133,,,,,,1.1,0.5,1.0*1E
$GPRMC,121350.20,A,4445.1709,N,03954.9107,E,000.00000,111.3,230522,,,A*54
$GPGGA,121350.40,4445.1709,N,03954.9107,E,1,23,0.5,00135.2,M,0017.1,M,,*60
$GLGSA,A,3,069,070,075,076,077,084,085,086,,,,,1.1,0.5,1.0*2E
$GPGSA,A,3,010,015,016,018,023,026,027,029,,,,,1.1,0.5,1.0*36
$GAGSA,A,3,107,108,113,121,126,131,133,,,,,,1.1,0.5,1.0*1E
$GPRMC,121350.40,A,4445.1709,N,03954.9107,E,000.00000,112.5,230522,,,A*57
$GPGGA,121350.60,4445.1709,N,03954.9107,E,1,23,0.5,00135.2,M,0017.1,M,,*62
$GLGSA,A,3,069,070,075,076,077,084,085,086,,,,,1.1,0.5,1.0*2E
$GPGSA,A,3,010,015,016,018,023,026,027,029,,,,,1.1,0.5,1.0*36
$GAGSA,A,3,107,108,113,121,126,131,133,,,,,,1.1,0.5,1.0*1E
$GPRMC,121350.60,A,4445.1709,N,03954.9107,E,000.00000,113.1,230522,,,A*50
$GPGGA,121350.80,4445.1709,N,03954.9107,E,1,23,0.5,00135.2,M,0017.1,M,,*6C
$GLGSA,A,3,069,070,075,076,077,084,085,086,,,,,1.1,0.5,1.0*2E
$GPGSA,A,3,010,015,016,018,023,026,027,029,,,,,1.1,0.5,1.0*36
