$GLGSA,A,3,066,067,068,076,077,081,082,083,,,,,1.1,0.6,0.9*27
$GPGSA,A,3,001,003,004,006,009,017,019,021,022,031,,,1.1,0.6,0.9*3B
$GAGSA,A,3,103,105,113,115,,,,,,,,,1.1,0.6,0.9*2C
$GPRMC,070104.80,A,4443.5775,N,03956.5027,E,050.13707,325.1,301121,,,A*58
$GPGGA,070105.00,4443.5798,N,03956.5004,E,1,20,0.6,00150.7,M,0017.3,M,,*61
$GLGSA,A,3,066,067,068,076,077,081,082,083,,,,,1.1,0.6,0.9*27
$GPGSA,A,3,001,003,004,006,017,019,021,022,031,,,,1.1,0.6,0.9*02
$GAGSA,A,3,103,113,115,,,,,,,,,,1.1,0.6,0.9*18
$GPGSV,8,1,29,001,50,196,49,003,74,327,48,004,49,251,49,006,07,324,41*75
$GPGSV,8,2,29,009,13,248,35,017,15,277,35,019,15,300,39,021,31,182,48*7E
$GPGSV,8,3,29,022,77,099,41,025,02,028,,026,08,109,,031,41,062,36*71
$GPGSV,8,4,29,032,03,063,16,066,44,054,38,067,57,317,47,068,15,277,37*7D
$GPGSV,8,5,29,076,36,078,40,077,22,136,37,081,16,202,46,082,44,251,53*76
$GPGSV,8,6,29,083,34,314,35,103,73,035,43,105,22,066,22,108,45,262,48*71
$GPGSV,8,7,29,113,43,296,47,115,48,213,46,124,15,054,,125,16,108,*76
$GPGSV,8,8,29,126,01,331,*77
$GPRMC,070105.00,A,4443.5798,N,03956.5004,E,050.19416,325.0,301121,,,A*5B
$GPZDA,070105.00,30,11,2021,+00,00*4C
$GPGGA,070105.20,4443.5821,N,03956.4981,E,1,21,0.6,00150.6,M,0017.3,M,,*6B
$GLGSA,A,3,066,067,076,077,081,082,083,,,,,,1.1,0.6,0.9*19
$GPGSA,A,3,001,003,004,006,009,017,019,021,022,031,,,1.1,0.6,0.9*3B
$GAGSA,A,3,103,105,113,115,,,,,,,,,1.1,0.6,0.9*2C
$GPRMC,070105.20,A,4443.5821,N,03956.4981,E,050.48274,324.8,301121,,,A*5E
$GPGGA,070105.40,4443.5844,N,03956.4958,E,1,21,0.6,00150.6,M,0017.3,M,,*6A
$GLGSA,A,3,066,067,076,077,081,082,083,,,,,,1.1,0.6,0.9*19
$GPGSA,A,3,001,003,004,006,009,017,019,021,022,031,,,1.1,0.6,0.9*3B
$GAGSA,A,3,103,105,113,115,,,,,,,,,1.1,0.6,0.9*2C
$GPRMC,070105.40,A,4443.5844,N,03956.4958,E,050.59566,325.2,301121,,,A*50
$GPGGA,070105.60,4443.5867,N,03956.4935,E,1,22,0.6,00150.5,M,0017.3,M,,*62
$GLGSA,A,3,066,067,068,076,077,081,082,083,,,,,1.1,0.6,0.9*27
$GPGSA,A,3,001,003,004,006,009,017,019,021,022,031,,,1.1,0.6,0.9*3B
$GAGSA,A,3,103,105,113,115,,,,,,,,,1.1,0.6,0.9*2C
$GPRMC,070105.60,A,4443.5867,N,03956.4935,E,050.64697,324.6,301121,,,A*5E
$GPGGA,070105.80,4443.5891,N,03956.4912,E,1,22,0.6,00150.4,M,0017.3,M,,*61
$GLGSA,A,3,066,067,068,076,077,081,082,083,,,,,1.1,0.6,0.9*27
$GPGSA,A,3,001,003,004,006,009,017,019,021,022,031,,,1.1,0.6,0.9*3B
$GAGSA,A,3,103,105,113,115,,,,,,,,,1.1,0.6,0.9*2C
$GPRMC,070105.80,A,4443.5891,N,03956.4912,E,050.79384,325.2,301121,,,A*52
$GPGGA,070106.00,4443.5914,N,03956.4890,E,1,20,0.6,00150.3,M,0017.3,M,,*68
$GLGSA,A,3,066,067,068,077,082,083,,,,,,,1.1,0.6,0.9*2F
$GPGSA,A,3,001,003,004,006,009,017,019,021,022,031,,,1.1,0.6,0.9*3B
$GAGSA,A,3,103,105,113,115,,,,,,,,,1.1,0.6,0.9*2C
$GPGSV,8,1,29,001,50,196,48,003,74,327,49,004,49,251,47,006,07,324,42*78
$GPGSV,8,2,29,009,13,248,37,017,15,277,35,019,15,300,40,021,31,182,48*72
$GPGSV,8,3,29,022,77,099,41,025,02,028,,026,08,109,,031,41,062,36*71
$GPGSV,8,4,29,032,03,063,17,066,44,054,37,067,57,317,47,068,15,277,35*71
$GPGSV,8,5,29,076,36,078,39,077,22,136,37,081,16,202,41,082,44,251,51*7D
$GPGSV,8,6,29,083,34,314,35,103,73,035,43,105,22,066,23,108,45,262,46*7E
$GPGSV,8,7,29,113,43,296,47,115,48,213,46,124,15,054,,125,16,108,*76
$GPGSV,8,8,29,126,01,331,*77
$GPRMC,070106.00,A,4443.5914,N,03956.4890,E,051.28670,324.9,301121,,,A*5F
$GPZDA,070106.00,30,11,2021,+00,00*4F
$GPGGA,070106.20,4443.5937,N,03956.4866,E,1,21,0.6,00150.3,M,0017.3,M,,*63
$GLGSA,A,3,066,067,068,076,077,081,082,083,,,,,1.1,0.6,0.9*27
$GPGSA,A,3,001,003,004,006,009,017,019,021,022,031,,,1.1,0.6,0.9*3B
$GAGSA,A,3,103,113,115,,,,,,,,,,1.1,0.6,0.9*18
$GPRMC,070106.20,A,4443.5937,N,03956.4866,E,051.10132,324.5,301121,,,A*53
$GPGGA,070106.40,4443.5960,N,03956.4843,E,1,21,0.6,00150.2,M,0017.3,M,,*61
$GLGSA,A,3,066,067,068,076,077,081,082,083,,,,,1.1,0.6,0.9*27
$GPGSA,A,3,001,003,004,006,009,017,019,021,022,031,,,1.1,0.6,0.9*3B
$GAGSA,A,3,103,113,115,,,,,,,,,,1.1,0.6,0.9*18
$GPRMC,070106.40,A,4443.5960,N,03956.4843,E,050.92502,324.4,301121,,,A*5D
$GPGGA,070106.60,4443.5984,N,03956.4820,E,1,21,0.6,00150.2,M,0017.3,M,,*6C
$GLGSA,A,3,066,067,068,076,077,082,083,,,,,,1.1,0.6,0.9*1E
$GPGSA,A,3,001,003,004,006,009,017,019,021,022,031,,,1.1,0.6,0.9*3B
$GAGSA,A,3,103,105,113,115,,,,,,,,,1.1,0.6,0.9*2C
$GPRMC,070106.60,A,4443.5984,N,03956.4820,E,051.23154,325.5,301121,,,A*5C
$GPGGA,070106.80,4443.6007,N,03956.4797,E,1,22,0.6,00150.2,M,0017.3,M,,*63
$GLGSA,A,3,066,067,068,076,077,081,082,083,,,,,1.1,0.6,0.9*27
$GPGSA,A,3,001,003,004,006,009,017,019,021,022,031,,,1.1,0.6,0.9*3B
$GAGSA,A,3,103,105,113,115,,,,,,,,,1.1,0.6,0.9*2C
$GPRMC,070106.80,A,4443.6007,N,03956.4797,E,050.93579,324.3,301121,,,A*56
$GPGGA,070107.00,4443.6030,N,03956.4774,E,1,22,0.6,00150.1,M,0017.3,M,,*60
$GLGSA,A,3,066,067,068,076,077,081,082,083,,,,,1.1,0.6,0.9*27
$GPGSA,A,3,001,003,004,006,009,017,019,021,022,031,,,1.1,0.6,0.9*3B
$GAGSA,A,3,103,105,113,115,,,,,,,,,1.1,0.6,0.9*2C
$GPGSV,8,1,29,001,50,196,48,003,74,327,49,004,49,251,47,006,07,324,43*79
$GPGSV,8,2,29,009,13,248,36,017,15,277,36,019,15,300,39,021,31,182,44*72
$GPGSV,8,3,29,022,77,099,41,025,02,028,,026,08,109,,031,41,062,37*70
$GPGSV,8,4,29,032,03,063,15,066,44,054,39,067,58,318,48,068,15,277,36*71
$GPGSV,8,5,29,076,36,078,40,077,22,136,37,081,16,202,39,082,44,251,52*7F
$GPGSV,8,6,29,083,34,314,35,103,73,035,43,105,22,066,23,108,45,262,46*7E
$GPGSV,8,7,29,113,43,296,47,115,48,213,44,124,15,054,,125,16,108,*74
$GPGSV,8,8,29,126,01,331,*77
$GPRMC,070107.00,A,4443.6030,N,03956.4774,E,050.70860,324.1,301121,,,A*5C
$GPZDA,070107.00,30,11,2021,+00,00*4E
$GPGGA,070107.20,4443.6053,N,03956.4751,E,1,22,0.6,00150.0,M,0017.3,M,,*61
$GLGSA,A,3,066,067,068,076,077,081,082,083,,,,,1.1,0.6,0.9*27
$GPGSA,A,3,001,003,004,006,009,017,019,021,022,031,,,1.1,0.6,0.9*3B
$GAGSA,A,3,103,105,113,115,,,,,,,,,1.1,0.6,0.9*2C
$GPRMC,070107.20,A,4443.6053,N,03956.4751,E,050.51063,324.7,301121,,,A*52
$GPGGA,070107.40,4443.6076,N,03956.4728,E,1,22,0.6,00149.9,M,0017.3,M,,*6F
$GLGSA,A,3,066,067,068,076,077,081,082,083,,,,,1.1,0.6,0.9*27
$GPGSA,A,3,001,003,004,006,009,017,019,021,022,031,,,1.1,0.6,0.9*3B
$GAGSA,A,3,103,105,113,115,,,,,,,,,1.1,0.6,0.9*2C
$GPRMC,070107.40,A,4443.6076,N,03956.4728,E,050.74280,324.6,301121,,,A*54
$GPGGA,070107.60,4443.6099,N,03956.4705,E,1,22,0.6,00149.8,M,0017.3,M,,*62
$GLGSA,A,3,066,067,068,076,077,081,082,083,,,,,1.1,0.6,0.9*27
$GPGSA,A,3,001,003,004,006,009,017,019,021,022,031,,,1.1,0.6,0.9*3B
$GAGSA,A,3,103,105,113,115,,,,,,,,,1.1,0.6,0.9*2C
$GPRMC,070107.60,A,4443.6099,N,03956.4705,E,050.94773,324.9,301121,,,A*50
$GPGGA,070107.80,4443.6122,N,03956.4682,E,1,22,0.6,00149.8,M,0017.3,M,,*63
$GLGSA,A,3,066,067,068,076,077,081,082,083,,,,,1.1,0.6,0.9*27
$GPGSA,A,3,001,003,004,006,009,017,019,021,022,031,,,1.1,0.6,0.9*3B
$GAGSA,A,3,103,105,113,115,,,,,,,,,1.1,0.6,0.9*2C
$GPRMC,070107.80,A,4443.6122,N,03956.4682,E,050.96023,325.3,301121,,,A*5A
$GPGGA,070108.00,4443.6146,N,03956.4659,E,1,22,0.6,00149.8,M,0017.3,M,,*60
$GLGSA,A,3,066,067,068,076,077,081,082,083,,,,,1.1,0.6,0.9*27
$GPGSA,A,3,001,003,004,006,009,017,019,021,022,031,,,1.1,0.6,0.9*3B
$GAGSA,A,3,103,105,113,115,,,,,,,,,1.1,0.6,0.9*2C
$GPGSV,8,1,29,001,50,196,48,003,74,327,49,004,49,251,48,006,07,324,44*71
$GPGSV,8,2,29,009,13,248,35,017,15,277,33,019,15,300,40,021,31,182,46*78
$GPGSV,8,3,29,022,77,099,40,025,02,028,,026,08,109,,031,41,062,38*7E
$GPGSV,8,4,29,032,03,063,15,066,44,054,39,067,58,318,48,068,15,277,35*72
$GPGSV,8,5,29,076,36,078,40,077,22,136,37,081,16,202,36,082,44,251,53*71
$GPGSV,8,6,29,083,34,314,33,103,73,035,43,105,22,066,22,108,45,262,47*78
$GPGSV,8,7,29,113,43,296,46,115,48,213,46,124,15,054,,125,16,108,*77
$GPGSV,8,8,29,126,01,331,*77
$GPRMC,070108.00,A,4443.6146,N,03956.4659,E,050.80806,324.9,301121,,,A*5A
$GPZDA,070108.00,30,11,2021,+00,00*41
$GPGGA,070108.20,4443.6169,N,03956.4636,E,1,22,0.6,00149.7,M,0017.3,M,,*69
$GLGSA,A,3,066,067,068,076,077,081,082,083,,,,,1.1,0.6,0.9*27
$GPGSA,A,3,001,003,004,006,009,017,019,021,022,031,,,1.1,0.6,0.9*3B
$GAGSA,A,3,103,105,113,115,,,,,,,,,1.1,0.6,0.9*2C
$GPRMC,070108.20,A,4443.6169,N,03956.4636,E,051.03835,324.6,301121,,,A*59
$GPGGA,070108.40,4443.6192,N,03956.4612,E,1,22,0.6,00149.7,M,0017.3,M,,*6D
$GLGSA,A,3,066,067,068,076,077,081,082,083,,,,,1.1,0.6,0.9*27
$GPGSA,A,3,001,003,004,006,009,017,019,021,022,031,,,1.1,0.6,0.9*3B
$GAGSA,A,3,103,105,113,115,,,,,,,,,1.1,0.6,0.9*2C
$GPRMC,070108.40,A,4443.6192,N,03956.4612,E,051.03815,324.7,301121,,,A*5E
$GPGGA,070108.60,4443.6216,N,03956.4589,E,1,22,0.6,00149.6,M,0017.3,M,,*60
$GLGSA,A,3,066,067,068,076,077,081,082,083,,,,,1.1,0.6,0.9*27
$GPGSA,A,3,001,003,004,006,009,017,019,021,022,031,,,1.1,0.6,0.9*3B
$GAGSA,A,3,103,105,113,115,,,,,,,,,1.1,0.6,0.9*2C
$GPRMC,070108.60,A,4443.6216,N,03956.4589,E,050.90848,325.2,301121,,,A*55
$GPGGA,070108.80,4443.6239,N,03956.4566,E,1,21,0.6,00149.5,M,0017.3,M,,*62
$GLGSA,A,3,066,067,068,076,077,081,082,083,,,,,1.1,0.6,0.9*27
$GPGSA,A,3,001,003,004,006,009,017,019,021,022,031,,,1.1,0.6,0.9*3B
$GAGSA,A,3,103,113,115,,,,,,,,,,1.1,0.6,0.9*18
$GPRMC,070108.80,A,4443.6239,N,03956.4566,E,051.06901,324.8,301121,,,A*5E
$GPGGA,070109.00,4443.6262,N,03956.4543,E,1,21,0.6,00149.5,M,0017.3,M,,*62
$GLGSA,A,3,066,067,068,076,077,081,082,083,,,,,1.1,0.6,0.9*27
$GPGSA,A,3,001,003,004,006,009,017,019,021,022,031,,,1.1,0.6,0.9*3B
$GAGSA,A,3,103,113,115,,,,,,,,,,1.1,0.6,0.9*18
$GPGSV,8,1,29,001,50,196,48,003,74,327,48,004,49,251,48,006,07,324,42*76
$GPGSV,8,2,29,009,13,248,36,017,15,277,36,019,15,300,44,021,31,182,47*7B
$GPGSV,8,3,29,022,77,099,41,025,02,028,,026,08,109,,031,41,062,37*70
$GPGSV,8,4,29,032,03,063,16,066,44,054,40,067,58,318,48,068,15,277,37*7D
$GPGSV,8,5,29,076,36,078,40,077,22,136,37,081,16,202,36,082,44,251,54*76
$GPGSV,8,6,29,083,34,314,32,103,73,035,42,105,22,066,23,108,45,262,47*79
$GPGSV,8,7,29,113,43,296,46,115,48,213,46,124,15,054,,125,16,108,*77
$GPGSV,8,8,29,126,01,331,*77
$GPRMC,070109.00,A,4443.6262,N,03956.4543,E,050.96383,324.7,301121,,,A*59
$GPZDA,070109.00,30,11,2021,+00,00*40
$GPGGA,070109.20,4443.6285,N,03956.4520,E,1,22,0.6,00149.4,M,0017.3,M,,*6E
$GLGSA,A,3,066,067,068,076,077,081,082,083,,,,,1.1,0.6,0.9*27
$GPGSA,A,3,001,003,004,006,009,017,019,021,022,031,,,1.1,0.6,0.9*3B
$GAGSA,A,3,103,105,113,115,,,,,,,,,1.1,0.6,0.9*2C
$GPRMC,070109.20,A,4443.6285,N,03956.4520,E,050.94450,324.6,301121,,,A*5D
$GPGGA,070109.40,4443.6309,N,03956.4497,E,1,22,0.6,00149.4,M,0017.3,M,,*60
$GLGSA,A,3,066,067,068,076,077,081,082,083,,,,,1.1,0.6,0.9*27
$GPGSA,A,3,001,003,004,006,009,017,019,021,022,031,,,1.1,0.6,0.9*3B
$GAGSA,A,3,103,105,113,115,,,,,,,,,1.1,0.6,0.9*2C
$GPRMC,070109.40,A,4443.6309,N,03956.4497,E,051.27591,324.6,301121,,,A*56
$GPGGA,070109.60,4443.6332,N,03956.4474,E,1,21,0.6,00149.4,M,0017.3,M,,*64
$GLGSA,A,3,066,067,068,076,077,081,082,083,,,,,1.1,0.6,0.9*27
$GPGSA,A,3,001,003,004,006,009,017,019,021,022,031,,,1.1,0.6,0.9*3B
$GAGSA,A,3,103,113,115,,,,,,,,,,1.1,0.6,0.9*18
$GPRMC,070109.60,A,4443.6332,N,03956.4474,E,050.97965,324.8,301121,,,A*52
$GPGGA,070109.80,4443.6355,N,03956.4451,E,1,22,0.6,00149.3,M,0017.3,M,,*68
$GLGSA,A,3,066,067,068,076,077,081,082,083,,,,,1.1,0.6,0.9*27
$GPGSA,A,3,001,003,004,006,009,017,019,021,022,031,,,1.1,0.6,0.9*3B
$GAGSA,A,3,103,105,113,115,,,,,,,,,1.1,0.6,0.9*2C
$GPRMC,070109.80,A,4443.6355,N,03956.4451,E,051.20535,324.4,301121,,,A*52
$GPGGA,070110.00,4443.6378,N,03956.4428,E,1,22,0.6,00149.3,M,0017.3,M,,*69
$GLGSA,A,3,066,067,068,076,077,081,082,083,,,,,1.1,0.6,0.9*27
$GPGSA,A,3,001,003,004,006,009,017,019,021,022,031,,,1.1,0.6,0.9*3B
$GAGSA,A,3,103,105,113,115,,,,,,,,,1.1,0.6,0.9*2C
$GPGSV,8,1,29,001,50,196,49,003,74,327,48,004,49,251,49,006,07,324,41*75
$GPGSV,8,2,29,009,13,248,37,017,15,277,41,019,15,300,46,021,31,182,48*77
$GPGSV,8,3,29,022,77,099,41,025,02,028,,026,08,109,,031,41,062,36*71
$GPGSV,8,4,29,032,03,063,18,066,44,054,40,067,58,318,48,068,15,277,43*70
$GPGSV,8,5,29,076,36,078,40,077,22,136,37,081,16,202,36,082,44,251,54*76
$GPGSV,8,6,29,083,34,314,33,103,73,035,42,105,22,066,23,108,45,262,47*78
$GPGSV,8,7,29,113,43,296,46,115,48,213,46,124,15,054,,125,16,108,*77
$GPGSV,8,8,29,126,01,331,*77
$GPRMC,070110.00,A,4443.6378,N,03956.4428,E,051.08081,324.5,301121,,,A*52
$GPZDA,070110.00,30,11,2021,+00,00*48
$GPGGA,070110.20,4443.6401,N,03956.4404,E,1,22,0.6,00149.3,M,0017.3,M,,*6C
$GLGSA,A,3,066,067,068,076,077,081,082,083,,,,,1.1,0.6,0.9*27
$GPGSA,A,3,001,003,004,006,009,017,019,021,022,031,,,1.1,0.6,0.9*3B
$GAGSA,A,3,103,105,113,115,,,,,,,,,1.1,0.6,0.9*2C
$GPRMC,070110.20,A,4443.6401,N,03956.4404,E,051.00958,324.7,301121,,,A*50
$GPGGA,070110.40,4443.6425,N,03956.4381,E,1,22,0.6,00149.2,M,0017.3,M,,*67
$GLGSA,A,3,066,067,068,076,077,081,082,083,,,,,1.1,0.6,0.9*27
$GPGSA,A,3,001,003,004,006,009,017,019,021,022,031,,,1.1,0.6,0.9*3B
$GAGSA,A,3,103,105,113,115,,,,,,,,,1.1,0.6,0.9*2C
$GPRMC,070110.40,A,4443.6425,N,03956.4381,E,051.18622,324.7,301121,,,A*51
$GPGGA,070110.60,4443.6448,N,03956.4358,E,1,22,0.6,00149.2,M,0017.3,M,,*6A
$GLGSA,A,3,066,067,068,076,077,081,082,083,,,,,1.1,0.6,0.9*27
$GPGSA,A,3,001,003,004,006,009,017,019,021,022,031,,,1.1,0.6,0.9*3B
$GAGSA,A,3,103,105,113,115,,,,,,,,,1.1,0.6,0.9*2C
$GPRMC,070110.60,A,4443.6448,N,03956.4358,E,051.18704,325.3,301121,,,A*5C
$GPGGA,070110.80,4443.6471,N,03956.4335,E,1,22,0.6,00149.2,M,0017.3,M,,*65
$GLGSA,A,3,066,067,068,076,077,081,082,083,,,,,1.1,0.6,0.9*27
$GPGSA,A,3,001,003,004,006,009,017,019,021,022,031,,,1.1,0.6,0.9*3B
$GAGSA,A,3,103,105,113,115,,,,,,,,,1.1,0.6,0.9*2C
$GPRMC,070110.80,A,4443.6471,N,03956.4335,E,051.26627,324.4,301121,,,A*58
$GPGGA,070111.00,4443.6494,N,03956.4311,E,1,21,0.6,00149.2,M,0017.3,M,,*62
$GLGSA,A,3,066,067,068,076,077,081,082,083,,,,,1.1,0.6,0.9*27
$GPGSA,A,3,001,003,004,006,009,017,019,021,022,031,,,1.1,0.6,0.9*3B
$GAGSA,A,3,103,113,115,,,,,,,,,,1.1,0.6,0.9*18
$GPGSV,8,1,29,001,50,196,49,003,74,327,48,004,49,251,49,006,07,324,42*76
$GPGSV,8,2,29,009,13,248,40,017,15,277,45,019,15,300,47,021,31,182,46*7C
$GPGSV,8,3,29,022,77,099,40,025,02,028,,026,08,109,,031,41,062,37*71
$GPGSV,8,4,29,032,03,063,18,066,44,054,40,067,58,318,48,068,15,277,47*74
$GPGSV,8,5,29,076,36,078,40,077,22,136,37,081,16,202,38,082,44,251,53*7F
$GPGSV,8,6,29,083,34,314,34,103,73,035,42,105,22,066,22,108,45,262,48*71
$GPGSV,8,7,29,113,43,296,47,115,48,213,46,124,15,054,,125,16,108,*76
$GPGSV,8,8,29,126,01,331,*77
$GPRMC,070111.00,A,4443.6494,N,03956.4311,E,051.17122,324.7,301121,,,A*5F
$GPZDA,070111.00,30,11,2021,+00,00*49
$GPGGA,070111.20,4443.6518,N,03956.4288,E,1,22,0.6,00149.2,M,0017.3,M,,*67
$GLGSA,A,3,066,067,068,076,077,081,082,083,,,,,1.1,0.6,0.9*27
$GPGSA,A,3,001,003,004,006,009,017,019,021,022,031,,,1.1,0.6,0.9*3B
$GAGSA,A,3,103,105,113,115,,,,,,,,,1.1,0.6,0.9*2C
$GPRMC,070111.20,A,4443.6518,N,03956.4288,E,051.32071,324.5,301121,,,A*5B
$GPGGA,070111.40,4443.6541,N,03956.4265,E,1,22,0.6,00149.3,M,0017.3,M,,*6F
$GLGSA,A,3,066,067,068,076,077,081,082,083,,,,,1.1,0.6,0.9*27
$GPGSA,A,3,001,003,004,006,009,017,019,021,022,031,,,1.1,0.6,0.9*3B
$GAGSA,A,3,103,105,113,115,,,,,,,,,1.1,0.6,0.9*2C
$GPRMC,070111.40,A,4443.6541,N,03956.4265,E,051.18962,324.5,301121,,,A*51
$GPGGA,070111.60,4443.6564,N,03956.4242,E,1,22,0.6,00149.2,M,0017.3,M,,*6E
$GLGSA,A,3,066,067,068,076,077,081,082,083,,,,,1.1,0.6,0.9*27
$GPGSA,A,3,001,003,004,006,009,017,019,021,022,031,,,1.1,0.6,0.9*3B
$GAGSA,A,3,103,105,113,115,,,,,,,,,1.1,0.6,0.9*2C
$GPRMC,070111.60,A,4443.6564,N,03956.4242,E,051.14209,324.5,301121,,,A*5B
$GPGGA,070111.80,4443.6587,N,03956.4218,E,1,22,0.6,00149.2,M,0017.3,M,,*62
$GLGSA,A,3,066,067,068,076,077,081,082,083,,,,,1.1,0.6,0.9*27
$GPGSA,A,3,001,003,004,006,009,017,019,021,022,031,,,1.1,0.6,0.9*3B
$GAGSA,A,3,103,105,113,115,,,,,,,,,1.1,0.6,0.9*2C
$GPRMC,070111.80,A,4443.6587,N,03956.4218,E,051.11107,324.6,301121,,,A*5C
$GPGGA,070112.00,4443.6610,N,03956.4195,E,1,22,0.6,00149.2,M,0017.3,M,,*62
$GLGSA,A,3,066,067,068,076,077,081,082,083,,,,,1.1,0.6,0.9*27
$GPGSA,A,3,001,003,004,006,009,017,019,021,022,031,,,1.1,0.6,0.9*3B
$GAGSA,A,3,103,105,113,115,,,,,,,,,1.1,0.6,0.9*2C
$GPGSV,8,1,29,001,50,196,48,003,74,327,48,004,49,251,50,006,07,324,43*7E
$GPGSV,8,2,29,009,13,248,44,017,15,277,44,019,15,300,47,021,31,182,47*78
$GPGSV,8,3,29,022,77,099,40,025,02,028,,026,08,109,,031,41,062,37*71
$GPGSV,8,4,29,032,03,063,18,066,44,054,40,067,58,318,48,068,15,277,46*75
$GPGSV,8,5,29,076,36,078,41,077,22,136,37,081,16,202,44,082,44,251,53*75
$GPGSV,8,6,29,083,34,314,34,103,73,035,42,105,22,066,21,108,45,262,49*73
$GPGSV,8,7,29,113,43,296,47,115,48,213,45,124,15,054,,125,16,108,*75
$GPGSV,8,8,29,126,01,331,*77
$GPRMC,070112.00,A,4443.6610,N,03956.4195,E,051.11758,324.9,301121,,,A*5F
$GPZDA,070112.00,30,11,2021,+00,00*4A
$GPGGA,070112.20,4443.6633,N,03956.4172,E,1,22,0.6,00149.2,M,0017.3,M,,*68
$GLGSA,A,3,066,067,068,076,077,081,082,083,,,,,1.1,0.6,0.9*27
$GPGSA,A,3,001,003,004,006,009,017,019,021,022,031,,,1.1,0.6,0.9*3B
$GAGSA,A,3,103,105,113,115,,,,,,,,,1.1,0.6,0.9*2C
$GPRMC,070112.20,A,4443.6633,N,03956.4172,E,051.23283,324.5,301121,,,A*5B
$GPGGA,070112.40,4443.6656,N,03956.4149,E,1,22,0.6,00149.2,M,0017.3,M,,*65
$GLGSA,A,3,066,067,068,076,077,081,082,083,,,,,1.1,0.6,0.9*27
$GPGSA,A,3,001,003,004,006,009,017,019,021,022,031,,,1.1,0.6,0.9*3B
$GAGSA,A,3,103,105,113,115,,,,,,,,,1.1,0.6,0.9*2C
$GPRMC,070112.40,A,4443.6656,N,03956.4149,E,051.26497,324.6,301121,,,A*53
$GPGGA,070112.60,4443.6679,N,03956.4125,E,1,22,0.6,00149.2,M,0017.3,M,,*60
$GLGSA,A,3,066,067,068,076,077,081,082,083,,,,,1.1,0.6,0.9*27
$GPGSA,A,3,001,003,004,006,009,017,019,021,022,031,,,1.1,0.6,0.9*3B
$GAGSA,A,3,103,105,113,115,,,,,,,,,1.1,0.6,0.9*2C
$GPRMC,070112.60,A,4443.6679,N,03956.4125,E,051.14351,324.5,301121,,,A*59
$GPGGA,070112.80,4443.6702,N,03956.4102,E,1,21,0.6,00149.2,M,0017.3,M,,*65
$GLGSA,A,3,066,067,068,076,077,081,082,083,,,,,1.1,0.6,0.9*27
$GPGSA,A,3,001,003,004,006,009,017,019,021,022,031,,,1.1,0.6,0.9*3B
$GAGSA,A,3,103,113,115,,,,,,,,,,1.1,0.6,0.9*18
$GPRMC,070112.80,A,4443.6702,N,03956.4102,E,050.99344,325.3,301121,,,A*58
$GPGGA,070113.00,4443.6726,N,03956.4079,E,1,22,0.6,00149.2,M,0017.3,M,,*64
$GLGSA,A,3,066,067,068,076,077,081,082,083,,,,,1.1,0.6,0.9*27
$GPGSA,A,3,001,003,004,006,009,017,019,021,022,031,,,1.1,0.6,0.9*3B
$GAGSA,A,3,103,105,113,115,,,,,,,,,1.1,0.6,0.9*2C
$GPGSV,8,1,29,001,50,196,47,003,74,327,49,004,49,251,48,006,07,324,42*78
$GPGSV,8,2,29,009,13,248,42,017,15,277,45,019,15,300,47,021,31,182,49*71
$GPGSV,8,3,29,022,77,099,40,025,02,028,,026,08,109,,031,41,062,38*7E
$GPGSV,8,4,29,032,03,063,20,066,44,054,40,067,58,318,48,068,15,277,47*7F
$GPGSV,8,5,29,076,36,078,41,077,22,136,37,081,16,202,48,082,44,251,53*79
$GPGSV,8,6,29,083,34,314,35,103,73,035,43,105,22,066,19,108,45,262,48*79
$GPGSV,8,7,29,113,43,296,47,115,48,213,46,124,15,054,,125,16,108,*76
$GPGSV,8,8,29,126,01,331,*77
$GPRMC,070113.00,A,4443.6726,N,03956.4079,E,051.25063,324.6,301121,,,A*5E
$GPZDA,070113.00,30,11,2021,+00,00*4B
$GPGGA,070113.20,4443.6749,N,03956.4056,E,1,22,0.6,00149.2,M,0017.3,M,,*62
$GLGSA,A,3,066,067,068,076,077,081,082,083,,,,,1.1,0.6,0.9*27
$GPGSA,A,3,001,003,004,006,009,017,019,021,022,031,,,1.1,0.6,0.9*3B
$GAGSA,A,3,103,105,113,115,,,,,,,,,1.1,0.6,0.9*2C
$GPRMC,070113.20,A,4443.6749,N,03956.4056,E,051.14253,324.8,301121,,,A*55
$GPGGA,070113.40,4443.6772,N,03956.4033,E,1,22,0.6,00149.2,M,0017.3,M,,*6F
$GLGSA,A,3,066,067,068,076,077,081,082,083,,,,,1.1,0.6,0.9*27
$GPGSA,A,3,001,003,004,006,009,017,019,021,022,031,,,1.1,0.6,0.9*3B
$GAGSA,A,3,103,105,113,115,,,,,,,,,1.1,0.6,0.9*2C
$GPRMC,070113.40,A,4443.6772,N,03956.4033,E,050.90217,325.3,301121,,,A*5F
$GPGGA,070113.60,4443.6795,N,03956.4010,E,1,22,0.6,00149.2,M,0017.3,M,,*65
$GLGSA,A,3,066,067,068,076,077,081,082,083,,,,,1.1,0.6,0.9*27
$GPGSA,A,3,001,003,004,006,009,017,019,021,022,031,,,1.1,0.6,0.9*3B
$GAGSA,A,3,103,105,113,115,,,,,,,,,1.1,0.6,0.9*2C
$GPRMC,070113.60,A,4443.6795,N,03956.4010,E,050.95992,325.2,301121,,,A*57
$GPGGA,070113.80,4443.6818,N,03956.3987,E,1,22,0.6,00149.1,M,0017.3,M,,*62
$GLGSA,A,3,066,067,068,076,077,081,082,083,,,,,1.1,0.6,0.9*27
$GPGSA,A,3,001,003,004,006,009,017,019,021,022,031,,,1.1,0.6,0.9*3B
$GAGSA,A,3,103,105,113,115,,,,,,,,,1.1,0.6,0.9*2C
$GPRMC,070113.80,A,4443.6818,N,03956.3987,E,050.90024,324.9,301121,,,A*58
$GPGGA,070114.00,4443.6841,N,03956.3963,E,1,22,0.6,00149.2,M,0017.3,M,,*68
$GLGSA,A,3,066,067,068,076,077,081,082,083,,,,,1.1,0.6,0.9*27
$GPGSA,A,3,001,003,004,006,009,017,019,021,022,031,,,1.1,0.6,0.9*3B
$GAGSA,A,3,103,105,113,115,,,,,,,,,1.1,0.6,0.9*2C
$GPGSV,8,1,29,001,50,196,48,003,74,327,49,004,49,251,48,006,07,324,43*76
$GPGSV,8,2,29,009,13,248,40,017,15,277,44,019,15,300,47,021,31,182,48*73
$GPGSV,8,3,29,022,77,099,39,025,02,028,,026,08,109,,031,41,062,38*70
$GPGSV,8,4,29,032,03,063,20,066,44,054,39,067,58,318,48,068,15,277,46*70
$GPGSV,8,5,29,076,36,078,39,077,22,136,37,081,16,202,47,082,44,251,54*7E
$GPGSV,8,6,29,083,34,314,35,103,73,035,42,105,22,066,22,108,45,262,48*70
$GPGSV,8,7,29,113,43,296,47,115,48,213,46,124,15,054,,125,16,108,*76
$GPGSV,8,8,29,126,01,331,*77
$GPRMC,070114.00,A,4443.6841,N,03956.3963,E,051.06029,324.6,301121,,,A*5D
$GPZDA,070114.00,30,11,2021,+00,00*4C
$GPGGA,070114.20,4443.6864,N,03956.3940,E,1,21,0.6,00149.1,M,0017.3,M,,*6C
$GLGSA,A,3,066,067,068,077,081,082,083,,,,,,1.1,0.6,0.9*16
$GPGSA,A,3,001,003,004,006,009,017,019,021,022,031,,,1.1,0.6,0.9*3B
$GAGSA,A,3,103,105,113,115,,,,,,,,,1.1,0.6,0.9*2C
$GPRMC,070114.20,A,4443.6864,N,03956.3940,E,050.76182,324.8,301121,,,A*51
$GPGGA,070114.40,4443.6887,N,03956.3917,E,1,22,0.6,00149.2,M,0017.3,M,,*65
$GLGSA,A,3,066,067,068,076,077,081,082,083,,,,,1.1,0.6,0.9*27
$GPGSA,A,3,001,003,004,006,009,017,019,021,022,031,,,1.1,0.6,0.9*3B
$GAGSA,A,3,103,105,113,115,,,,,,,,,1.1,0.6,0.9*2C
$GPRMC,070114.40,A,4443.6887,N,03956.3917,E,050.74385,324.9,301121,,,A*5E
$GPGGA,070114.60,4443.6910,N,03956.3894,E,1,22,0.6,00149.1,M,0017.3,M,,*61
$GLGSA,A,3,066,067,068,076,077,081,082,083,,,,,1.1,0.6,0.9*27
$GPGSA,A,3,001,003,004,006,009,017,019,021,022,031,,,1.1,0.6,0.9*3B
$GAGSA,A,3,103,105,113,115,,,,,,,,,1.1,0.6,0.9*2C
$GPRMC,070114.60,A,4443.6910,N,03956.3894,E,050.70393,324.8,301121,,,A*5B
$GPGGA,070114.80,4443.6933,N,03956.3871,E,1,22,0.6,00149.1,M,0017.3,M,,*65
$GLGSA,A,3,066,067,068,076,077,081,082,083,,,,,1.1,0.6,0.9*27
$GPGSA,A,3,001,003,004,006,009,017,019,021,022,031,,,1.1,0.6,0.9*3B
$GAGSA,A,3,103,105,113,115,,,,,,,,,1.1,0.6,0.9*2C
$GPRMC,070114.80,A,4443.6933,N,03956.3871,E,050.52928,324.6,301121,,,A*5B
$GPGGA,070115.00,4443.6956,N,03956.3848,E,1,22,0.6,00149.1,M,0017.3,M,,*65
$GLGSA,A,3,066,067,068,076,077,081,082,083,,,,,1.1,0.6,0.9*27
$GPGSA,A,3,001,003,004,006,009,017,019,021,022,031,,,1.1,0.6,0.9*3B
$GAGSA,A,3,103,105,113,115,,,,,,,,,1.1,0.6,0.9*2C
$GPGSV,8,1,29,001,50,196,49,003,74,327,48,004,49,251,48,006,08,324,44*7E
$GPGSV,8,2,29,009,13,248,37,017,15,277,41,019,15,300,47,021,31,182,48*76
$GPGSV,8,3,29,022,77,099,40,025,02,028,,026,08,109,,031,41,062,38*7E
$GPGSV,8,4,29,032,03,063,20,066,44,054,40,067,58,318,48,068,16,277,43*78
$GPGSV,8,5,29,076,36,078,39,077,22,136,37,081,16,202,47,082,44,251,54*7E
$GPGSV,8,6,29,083,34,314,34,103,73,036,43,105,22,066,21,108,45,262,47*7F
$GPGSV,8,7,29,113,43,296,47,115,48,213,47,124,15,054,,125,16,108,*77
$GPGSV,8,8,29,126,01,331,*77
$GPRMC,070115.00,A,4443.6956,N,03956.3848,E,050.34718,325.5,301121,,,A*54
$GPZDA,070115.00,30,11,2021,+00,00*4D
$GPGGA,070115.20,4443.6979,N,03956.3826,E,1,22,0.6,00149.2,M,0017.3,M,,*61
$GLGSA,A,3,066,067,068,076,077,081,082,083,,,,,1.1,0.6,0.9*27
$GPGSA,A,3,001,003,004,006,009,017,019,021,022,031,,,1.1,0.6,0.9*3B
$GAGSA,A,3,103,105,113,115,,,,,,,,,1.1,0.6,0.9*2C
$GPRMC,070115.20,A,4443.6979,N,03956.3826,E,050.39136,325.1,301121,,,A*50
$GPGGA,070115.40,4443.7002,N,03956.3803,E,1,22,0.6,00149.1,M,0017.3,M,,*67
$GLGSA,A,3,066,067,068,076,077,081,082,083,,,,,1.1,0.6,0.9*27
$GPGSA,A,3,001,003,004,006,009,017,019,021,022,031,,,1.1,0.6,0.9*3B
$GAGSA,A,3,103,105,113,115,,,,,,,,,1.1,0.6,0.9*2C
$GPRMC,070115.40,A,4443.7002,N,03956.3803,E,050.39357,324.7,301121,,,A*57
$GPGGA,070115.60,4443.7025,N,03956.3780,E,1,22,0.6,00149.1,M,0017.3,M,,*64
$GLGSA,A,3,066,067,068,076,077,081,082,083,,,,,1.1,0.6,0.9*27
$GPGSA,A,3,001,003,004,006,009,017,019,021,022,031,,,1.1,0.6,0.9*3B
$GAGSA,A,3,103,105,113,115,,,,,,,,,1.1,0.6,0.9*2C
$GPRMC,070115.60,A,4443.7025,N,03956.3780,E,050.32118,324.3,301121,,,A*52
$GPGGA,070115.80,4443.7048,N,03956.3758,E,1,22,0.6,00149.1,M,0017.3,M,,*64
$GLGSA,A,3,066,067,068,076,077,081,082,083,,,,,1.1,0.6,0.9*27
$GPGSA,A,3,001,003,004,006,009,017,019,021,022,031,,,1.1,0.6,0.9*3B
$GAGSA,A,3,103,105,113,115,,,,,,,,,1.1,0.6,0.9*2C
$GPRMC,070115.80,A,4443.7048,N,03956.3758,E,050.08715,325.3,301121,,,A*51
$GPGGA,070116.00,4443.7071,N,03956.3735,E,1,21,0.6,00149.2,M,0017.3,M,,*6E
$GLGSA,A,3,066,067,068,076,077,081,082,083,,,,,1.1,0.6,0.9*27
$GPGSA,A,3,001,003,004,006,009,017,019,021,022,031,,,1.1,0.6,0.9*3B
$GAGSA,A,3,103,113,115,,,,,,,,,,1.1,0.6,0.9*18
$GPGSV,8,1,29,001,50,196,50,003,74,327,48,004,49,251,48,006,08,324,42*70
$GPGSV,8,2,29,009,13,248,37,017,15,277,40,019,15,300,47,021,31,182,48*77
$GPGSV,8,3,29,022,77,099,40,025,02,028,,026,08,109,,031,41,062,36*70
$GPGSV,8,4,29,032,03,063,,066,44,054,38,067,58,318,48,068,16,277,42*74
$GPGSV,8,5,29,076,36,078,37,077,22,136,37,081,16,202,44,082,44,251,55*72
$GPGSV,8,6,29,083,34,314,34,103,73,036,43,105,22,066,23,108,45,262,47*7D
$GPGSV,8,7,29,113,43,296,47,115,48,213,47,124,15,054,,125,16,108,*77
$GPGSV,8,8,29,126,01,331,*77
$GPRMC,070116.00,A,4443.7071,N,03956.3735,E,049.80564,324.5,301121,,,A*50
$GPZDA,070116.00,30,11,2021,+00,00*4E
$GPGGA,070116.20,4443.7093,N,03956.3712,E,1,22,0.6,00149.0,M,0017.3,M,,*64
$GLGSA,A,3,066,067,068,076,077,081,082,083,,,,,1.1,0.6,0.9*27
$GPGSA,A,3,001,003,004,006,009,017,019,021,022,031,,,1.1,0.6,0.9*3B
$GAGSA,A,3,103,105,113,115,,,,,,,,,1.1,0.6,0.9*2C
$GPRMC,070116.20,A,4443.7093,N,03956.3712,E,049.69296,324.7,301121,,,A*54
$GPGGA,070116.40,4443.7116,N,03956.3690,E,1,22,0.6,00149.0,M,0017.3,M,,*65
$GLGSA,A,3,066,067,068,076,077,081,082,083,,,,,1.1,0.6,0.9*27
$GPGSA,A,3,001,003,004,006,009,017,019,021,022,031,,,1.1,0.6,0.9*3B
$GAGSA,A,3,103,105,113,115,,,,,,,,,1.1,0.6,0.9*2C
$GPRMC,070116.40,A,4443.7116,N,03956.3690,E,049.43336,324.5,301121,,,A*54
$GPGGA,070116.60,4443.7138,N,03956.3667,E,1,21,0.6,00149.0,M,0017.3,M,,*60
$GLGSA,A,3,066,067,068,076,077,081,082,083,,,,,1.1,0.6,0.9*27
$GPGSA,A,3,001,003,004,006,009,017,019,021,022,031,,,1.1,0.6,0.9*3B
$GAGSA,A,3,103,113,115,,,,,,,,,,1.1,0.6,0.9*18
$GPRMC,070116.60,A,4443.7138,N,03956.3667,E,049.42450,325.0,301121,,,A*50
$GPGGA,070116.80,4443.7161,N,03956.3645,E,1,21,0.6,00149.0,M,0017.3,M,,*62
$GLGSA,A,3,066,067,068,076,077,081,082,083,,,,,1.1,0.6,0.9*27
$GPGSA,A,3,001,003,004,006,009,017,019,021,022,031,,,1.1,0.6,0.9*3B
$GAGSA,A,3,103,113,115,,,,,,,,,,1.1,0.6,0.9*18
$GPRMC,070116.80,A,4443.7161,N,03956.3645,E,049.42870,324.7,301121,,,A*5A
$GPGGA,070117.00,4443.7183,N,03956.3623,E,1,22,0.6,00149.0,M,0017.3,M,,*64
$GLGSA,A,3,066,067,068,076,077,081,082,083,,,,,1.1,0.6,0.9*27
$GPGSA,A,3,001,003,004,006,009,017,019,021,022,031,,,1.1,0.6,0.9*3B
$GAGSA,A,3,103,105,113,115,,,,,,,,,1.1,0.6,0.9*2C
$GPGSV,8,1,29,001,50,196,51,003,74,327,49,004,49,251,48,006,08,324,41*73
$GPGSV,8,2,29,009,13,248,37,017,15,277,38,019,15,300,47,021,31,182,47*77
$GPGSV,8,3,29,022,77,099,40,025,02,028,,026,08,109,,031,41,062,37*71
$GPGSV,8,4,29,032,03,063,,066,44,054,40,067,58,318,48,068,16,277,40*79
$GPGSV,8,5,29,076,36,078,39,077,22,136,37,081,16,202,42,082,44,251,54*7B
$GPGSV,8,6,29,083,34,314,34,103,73,036,42,105,22,066,22,108,45,262,47*7D
$GPGSV,8,7,29,113,43,296,47,115,48,213,48,124,15,054,,125,16,108,*78
$GPGSV,8,8,29,126,01,331,*77
$GPRMC,070117.00,A,4443.7183,N,03956.3623,E,049.17378,324.6,301121,,,A*5D
$GPZDA,070117.00,30,11,2021,+00,00*4F
$GPGGA,070117.20,4443.7206,N,03956.3600,E,1,22,0.6,00149.0,M,0017.3,M,,*69
$GLGSA,A,3,066,067,068,076,077,081,082,083,,,,,1.1,0.6,0.9*27
$GPGSA,A,3,001,003,004,006,009,017,019,021,022,031,,,1.1,0.6,0.9*3B
$GAGSA,A,3,103,105,113,115,,,,,,,,,1.1,0.6,0.9*2C
$GPRMC,070117.20,A,4443.7206,N,03956.3600,E,048.86540,324.9,301121,,,A*5B
$GPGGA,070117.40,4443.7228,N,03956.3578,E,1,22,0.6,00149.0,M,0017.3,M,,*6F
$GLGSA,A,3,066,067,068,076,077,081,082,083,,,,,1.1,0.6,0.9*27
$GPGSA,A,3,001,003,004,006,009,017,019,021,022,031,,,1.1,0.6,0.9*3B
$GAGSA,A,3,103,105,113,115,,,,,,,,,1.1,0.6,0.9*2C
$GPRMC,070117.40,A,4443.7228,N,03956.3578,E,048.49717,324.3,301121,,,A*54
$GPGGA,070117.60,4443.7250,N,03956.3556,E,1,22,0.6,00148.9,M,0017.2,M,,*67
$GLGSA,A,3,066,067,068,076,077,081,082,083,,,,,1.1,0.6,0.9*27
$GPGSA,A,3,001,003,004,006,009,017,019,021,022,031,,,1.1,0.6,0.9*3B
$GAGSA,A,3,103,105,113,115,,,,,,,,,1.1,0.6,0.9*2C
$GPRMC,070117.60,A,4443.7250,N,03956.3556,E,048.53978,324.5,301121,,,A*5F
$GPGGA,070117.80,4443.7272,N,03956.3534,E,1,22,0.6,00148.9,M,0017.3,M,,*6C
$GLGSA,A,3,066,067,068,076,077,081,082,083,,,,,1.1,0.6,0.9*27
$GPGSA,A,3,001,003,004,006,009,017,019,021,022,031,,,1.1,0.6,0.9*3B
$GAGSA,A,3,103,105,113,115,,,,,,,,,1.1,0.6,0.9*2C
$GPRMC,070117.80,A,4443.7272,N,03956.3534,E,048.06666,325.0,301121,,,A*51
$GPGGA,070118.00,4443.7294,N,03956.3513,E,1,22,0.6,00148.9,M,0017.3,M,,*66
$GLGSA,A,3,066,067,068,076,077,081,082,083,,,,,1.1,0.6,0.9*27
$GPGSA,A,3,001,003,004,006,009,017,019,021,022,031,,,1.1,0.6,0.9*3B
$GAGSA,A,3,103,105,113,115,,,,,,,,,1.1,0.6,0.9*2C
$GPGSV,8,1,29,001,50,196,49,003,74,327,49,004,49,251,49,006,08,324,41*7B
$GPGSV,8,2,29,009,13,248,36,017,15,277,38,019,15,300,46,021,31,182,45*75
$GPGSV,8,3,29,022,77,099,40,025,02,028,,026,08,109,,031,41,062,36*70
$GPGSV,8,4,29,032,03,063,,066,44,054,41,067,58,318,48,068,16,277,41*79
$GPGSV,8,5,29,076,36,078,41,077,22,136,37,081,16,202,39,082,44,251,53*7F
$GPGSV,8,6,29,083,34,314,34,103,73,036,42,105,22,066,20,108,45,262,47*7F
$GPGSV,8,7,29,113,43,296,47,115,48,213,47,124,15,054,,125,16,108,*77
$GPGSV,8,8,29,126,01,331,*77
$GPRMC,070118.00,A,4443.7294,N,03956.3513,E,047.95729,324.5,301121,,,A*50
$GPZDA,070118.00,30,11,2021,+00,00*40
$GPGGA,070118.20,4443.7316,N,03956.3491,E,1,22,0.6,00148.8,M,0017.3,M,,*65
$GLGSA,A,3,066,067,068,076,077,081,082,083,,,,,1.1,0.6,0.9*27
$GPGSA,A,3,001,003,004,006,009,017,019,021,022,031,,,1.1,0.6,0.9*3B
$GAGSA,A,3,103,105,113,115,,,,,,,,,1.1,0.6,0.9*2C
$GPRMC,070118.20,A,4443.7316,N,03956.3491,E,047.65134,324.4,301121,,,A*56
$GPGGA,070118.40,4443.7337,N,03956.3469,E,1,20,0.6,00148.8,M,0017.3,M,,*65
$GLGSA,A,3,066,067,076,077,081,082,083,,,,,,1.1,0.6,0.9*19
$GPGSA,A,3,001,003,004,006,009,017,019,021,022,031,,,1.1,0.6,0.9*3B
$GAGSA,A,3,103,113,115,,,,,,,,,,1.1,0.6,0.9*18
$GPRMC,070118.40,A,4443.7337,N,03956.3469,E,047.25177,324.7,301121,,,A*54
$GPGGA,070118.60,4443.7359,N,03956.3448,E,1,21,0.6,00148.7,M,0017.3,M,,*62
$GLGSA,A,3,066,067,068,076,077,081,082,083,,,,,1.1,0.6,0.9*27
$GPGSA,A,3,001,003,004,006,009,017,019,021,022,031,,,1.1,0.6,0.9*3B
$GAGSA,A,3,103,113,115,,,,,,,,,,1.1,0.6,0.9*18
$GPRMC,070118.60,A,4443.7359,N,03956.3448,E,047.13014,324.4,301121,,,A*5F
$GPGGA,070118.80,4443.7380,N,03956.3426,E,1,22,0.6,00148.7,M,0017.3,M,,*63
$GLGSA,A,3,066,067,068,076,077,081,082,083,,,,,1.1,0.6,0.9*27
$GPGSA,A,3,001,003,004,006,009,017,019,021,022,031,,,1.1,0.6,0.9*3B
$GAGSA,A,3,103,105,113,115,,,,,,,,,1.1,0.6,0.9*2C
$GPRMC,070118.80,A,4443.7380,N,03956.3426,E,046.92604,324.7,301121,,,A*51
$GPGGA,070119.00,4443.7402,N,03956.3405,E,1,22,0.6,00148.7,M,0017.3,M,,*66
$GLGSA,A,3,066,067,068,076,077,081,082,083,,,,,1.1,0.6,0.9*27
$GPGSA,A,3,001,003,004,006,009,017,019,021,022,031,,,1.1,0.6,0.9*3B
$GAGSA,A,3,103,105,113,115,,,,,,,,,1.1,0.6,0.9*2C
$GPGSV,8,1,29,001,50,196,50,003,74,327,49,004,49,251,49,006,08,324,41*73
$GPGSV,8,2,29,009,13,248,36,017,15,277,38,019,15,300,46,021,31,182,46*76
$GPGSV,8,3,29,022,77,099,40,025,02,028,,026,08,109,,031,41,062,37*71
$GPGSV,8,4,29,032,03,063,19,066,44,054,42,067,58,318,48,068,16,277,38*7C
$GPGSV,8,5,29,076,36,078,41,077,22,136,37,081,16,202,41,082,44,251,53*70
$GPGSV,8,6,29,083,34,314,35,103,73,036,42,105,22,066,22,108,45,262,47*7C
$GPGSV,8,7,29,113,43,296,47,115,48,213,48,124,15,054,,125,16,108,*78
$GPGSV,8,8,29,126,01,331,*77
$GPRMC,070119.00,A,4443.7402,N,03956.3405,E,046.59904,324.8,301121,,,A*53
$GPZDA,070119.00,30,11,2021,+00,00*41
$GPGGA,070119.20,4443.7423,N,03956.3384,E,1,22,0.6,00148.6,M,0017.3,M,,*68
$GLGSA,A,3,066,067,068,076,077,081,082,083,,,,,1.1,0.6,0.9*27
$GPGSA,A,3,001,003,004,006,009,017,019,021,022,031,,,1.1,0.6,0.9*3B
$GAGSA,A,3,103,105,113,115,,,,,,,,,1.1,0.6,0.9*2C
$GPRMC,070119.20,A,4443.7423,N,03956.3384,E,045.96266,324.5,301121,,,A*5E
$GPGGA,070119.40,4443.7443,N,03956.3364,E,1,22,0.6,00148.6,M,0017.3,M,,*66
$GLGSA,A,3,066,067,068,076,077,081,082,083,,,,,1.1,0.6,0.9*27
$GPGSA,A,3,001,003,004,006,009,017,019,021,022,031,,,1.1,0.6,0.9*3B
$GAGSA,A,3,103,105,113,115,,,,,,,,,1.1,0.6,0.9*2C
$GPRMC,070119.40,A,4443.7443,N,03956.3364,E,046.04932,324.4,301121,,,A*53
$GPGGA,070119.60,4443.7464,N,03956.3343,E,1,22,0.6,00148.5,M,0017.3,M,,*67
$GLGSA,A,3,066,067,068,076,077,081,082,083,,,,,1.1,0.6,0.9*27
$GPGSA,A,3,001,003,004,006,009,017,019,021,022,031,,,1.1,0.6,0.9*3B
$GAGSA,A,3,103,105,113,115,,,,,,,,,1.1,0.6,0.9*2C
$GPRMC,070119.60,A,4443.7464,N,03956.3343,E,045.75148,323.8,301121,,,A*5A
$GPGGA,070119.80,4443.7485,N,03956.3322,E,1,21,0.6,00148.5,M,0017.3,M,,*62
$GLGSA,A,3,066,067,068,076,077,081,082,083,,,,,1.1,0.6,0.9*27
$GPGSA,A,3,001,003,004,006,009,017,019,021,022,031,,,1.1,0.6,0.9*3B
$GAGSA,A,3,103,113,115,,,,,,,,,,1.1,0.6,0.9*18
$GPRMC,070119.80,A,4443.7485,N,03956.3322,E,045.47325,324.4,301121,,,A*5F
$GPGGA,070120.00,4443.7506,N,03956.3301,E,1,21,0.6,00148.5,M,0017.2,M,,*6A
$GLGSA,A,3,066,067,068,076,077,081,082,083,,,,,1.1,0.6,0.9*27
$GPGSA,A,3,001,003,004,006,009,017,019,021,022,031,,,1.1,0.6,0.9*3B
$GAGSA,A,3,103,113,115,,,,,,,,,,1.1,0.6,0.9*18
$GPGSV,8,1,29,001,50,196,50,003,74,327,48,004,49,251,49,006,08,324,41*72
$GPGSV,8,2,29,009,13,248,33,017,15,277,35,019,15,300,45,021,31,182,45*7E
$GPGSV,8,3,29,022,77,099,40,025,02,028,,026,08,109,,031,41,062,36*70
$GPGSV,8,4,29,032,03,063,20,066,44,054,42,067,58,318,48,068,16,277,37*79
$GPGSV,8,5,29,076,36,078,41,077,22,136,37,081,16,202,39,082,44,251,53*7F
$GPGSV,8,6,29,083,34,314,35,103,73,036,42,105,22,066,24,108,45,262,47*7A
$GPGSV,8,7,29,113,43,296,47,115,48,213,48,124,15,054,,125,16,108,*78
$GPGSV,8,8,29,126,01,331,*77
$GPRMC,070120.00,A,4443.7506,N,03956.3301,E,045.29162,324.8,301121,,,A*53
$GPZDA,070120.00,30,11,2021,+00,00*4B
$GPGGA,070120.20,4443.7526,N,03956.3281,E,1,22,0.6,00148.4,M,0017.3,M,,*60
$GLGSA,A,3,066,067,068,076,077,081,082,083,,,,,1.1,0.6,0.9*27
$GPGSA,A,3,001,003,004,006,009,017,019,021,022,031,,,1.1,0.6,0.9*3B
$GAGSA,A,3,103,105,113,115,,,,,,,,,1.1,0.6,0.9*2C
$GPRMC,070120.20,A,4443.7526,N,03956.3281,E,045.03254,324.5,301121,,,A*59
$GPGGA,070120.40,4443.7547,N,03956.3260,E,1,22,0.6,00148.5,M,0017.3,M,,*6F
$GLGSA,A,3,066,067,068,076,077,081,082,083,,,,,1.1,0.6,0.9*27
$GPGSA,A,3,001,003,004,006,009,017,019,021,022,031,,,1.1,0.6,0.9*3B
$GAGSA,A,3,103,105,113,115,,,,,,,,,1.1,0.6,0.9*2C
$GPRMC,070120.40,A,4443.7547,N,03956.3260,E,044.68909,324.5,301121,,,A*58
$GPGGA,070120.60,4443.7567,N,03956.3240,E,1,21,0.6,00148.4,M,0017.3,M,,*6F
$GLGSA,A,3,066,067,068,076,077,081,082,083,,,,,1.1,0.6,0.9*27
$GPGSA,A,3,001,003,004,006,009,017,019,021,022,031,,,1.1,0.6,0.9*3B
$GAGSA,A,3,103,113,115,,,,,,,,,,1.1,0.6,0.9*18
$GPRMC,070120.60,A,4443.7567,N,03956.3240,E,044.38907,324.9,301121,,,A*5D
$GPGGA,070120.80,4443.7587,N,03956.3220,E,1,22,0.6,00148.4,M,0017.3,M,,*6A
$GLGSA,A,3,066,067,068,076,077,081,082,083,,,,,1.1,0.6,0.9*27
$GPGSA,A,3,001,003,004,006,009,017,019,021,022,031,,,1.1,0.6,0.9*3B
$GAGSA,A,3,103,105,113,115,,,,,,,,,1.1,0.6,0.9*2C
$GPRMC,070120.80,A,4443.7587,N,03956.3220,E,044.01136,324.3,301121,,,A*51
$GPGGA,070121.00,4443.7607,N,03956.3200,E,1,22,0.6,00148.3,M,0017.3,M,,*6D
$GLGSA,A,3,066,067,068,076,077,081,082,083,,,,,1.1,0.6,0.9*27
$GPGSA,A,3,001,003,004,006,009,017,019,021,022,031,,,1.1,0.6,0.9*3B
$GAGSA,A,3,103,105,113,115,,,,,,,,,1.1,0.6,0.9*2C
$GPGSV,8,1,29,001,50,196,51,003,74,327,49,004,49,251,49,006,08,324,42*71
$GPGSV,8,2,29,009,13,248,35,017,15,277,35,019,15,300,46,021,31,182,47*79
$GPGSV,8,3,29,022,77,099,40,025,02,028,,026,08,109,,031,41,062,36*70
$GPGSV,8,4,29,032,03,063,19,066,44,054,40,067,58,318,48,068,16,277,36*70
$GPGSV,8,5,29,076,36,078,40,077,22,136,37,081,16,202,38,082,44,251,53*7F
$GPGSV,8,6,29,083,34,314,34,103,73,036,42,105,22,066,23,108,45,262,47*7C
$GPGSV,8,7,29,113,43,296,47,115,48,213,48,124,15,054,,125,16,108,*78
$GPGSV,8,8,29,126,01,331,*77
$GPRMC,070121.00,A,4443.7607,N,03956.3200,E,043.87293,324.2,301121,,,A*55
$GPZDA,070121.00,30,11,2021,+00,00*4A
$GPGGA,070121.20,4443.7627,N,03956.3180,E,1,22,0.6,00148.3,M,0017.3,M,,*66
$GLGSA,A,3,066,067,068,076,077,081,082,083,,,,,1.1,0.6,0.9*27
$GPGSA,A,3,001,003,004,006,009,017,019,021,022,031,,,1.1,0.6,0.9*3B
$GAGSA,A,3,103,105,113,115,,,,,,,,,1.1,0.6,0.9*2C
$GPRMC,070121.20,A,4443.7627,N,03956.3180,E,043.22723,325.3,301121,,,A*5F
$GPGGA,070121.40,4443.7647,N,03956.3161,E,1,21,0.6,00148.2,M,0017.3,M,,*6B
$GLGSA,A,3,066,067,068,076,077,082,083,,,,,,1.1,0.6,0.9*1E
$GPGSA,A,3,001,003,004,006,009,017,019,021,022,031,,,1.1,0.6,0.9*3B
$GAGSA,A,3,103,105,113,115,,,,,,,,,1.1,0.6,0.9*2C
$GPRMC,070121.40,A,4443.7647,N,03956.3161,E,043.27009,325.1,301121,,,A*58
$GPGGA,070121.60,4443.7666,N,03956.3141,E,1,22,0.6,00148.2,M,0017.3,M,,*6B
$GLGSA,A,3,066,067,068,076,077,081,082,083,,,,,1.1,0.6,0.9*27
$GPGSA,A,3,001,003,004,006,009,017,019,021,022,031,,,1.1,0.6,0.9*3B
$GAGSA,A,3,103,105,113,115,,,,,,,,,1.1,0.6,0.9*2C
$GPRMC,070121.60,A,4443.7666,N,03956.3141,E,042.86707,324.3,301121,,,A*5B
$GPGGA,070121.80,4443.7686,N,03956.3122,E,1,22,0.6,00148.2,M,0017.3,M,,*6E
$GLGSA,A,3,066,067,068,076,077,081,082,083,,,,,1.1,0.6,0.9*27
$GPGSA,A,3,001,003,004,006,009,017,019,021,022,031,,,1.1,0.6,0.9*3B
$GAGSA,A,3,103,105,113,115,,,,,,,,,1.1,0.6,0.9*2C
$GPRMC,070121.80,A,4443.7686,N,03956.3122,E,042.64725,324.3,301121,,,A*52
$GPGGA,070122.00,4443.7705,N,03956.3102,E,1,22,0.6,00148.1,M,0017.3,M,,*6E
$GLGSA,A,3,066,067,068,076,077,081,082,083,,,,,1.1,0.6,0.9*27
$GPGSA,A,3,001,003,004,006,009,017,019,021,022,031,,,1.1,0.6,0.9*3B
$GAGSA,A,3,103,105,113,115,,,,,,,,,1.1,0.6,0.9*2C
$GPGSV,8,1,29,001,50,195,50,003,74,327,48,004,49,251,48,006,08,324,43*72
$GPGSV,8,2,29,009,13,248,35,017,15,277,39,019,15,300,46,021,31,182,48*7A
$GPGSV,8,3,29,022,77,099,41,025,02,028,,026,08,109,,031,41,062,38*7F
$GPGSV,8,4,29,032,03,063,21,066,44,054,40,067,58,318,48,068,16,277,40*7A
$GPGSV,8,5,29,076,36,078,40,077,22,136,37,081,16,202,35,082,44,251,54*75
$GPGSV,8,6,29,083,34,314,33,103,73,036,42,105,22,066,23,108,45,262,47*7B
$GPGSV,8,7,29,113,43,296,47,115,48,213,47,124,15,054,,125,16,108,*77
$GPGSV,8,8,29,126,01,331,*77
$GPRMC,070122.00,A,4443.7705,N,03956.3102,E,042.41102,324.3,301121,,,A*55
$GPZDA,070122.00,30,11,2021,+00,00*49
$GPGGA,070122.20,4443.7724,N,03956.3082,E,1,22,0.6,00148.1,M,0017.3,M,,*66
$GLGSA,A,3,066,067,068,076,077,081,082,083,,,,,1.1,0.6,0.9*27
$GPGSA,A,3,001,003,004,006,009,017,019,021,022,031,,,1.1,0.6,0.9*3B
$GAGSA,A,3,103,105,113,115,,,,,,,,,1.1,0.6,0.9*2C
$GPRMC,070122.20,A,4443.7724,N,03956.3082,E,042.12665,324.4,301121,,,A*5A
$GPGGA,070122.40,4443.7743,N,03956.3063,E,1,21,0.6,00148.1,M,0017.3,M,,*6D
$GLGSA,A,3,066,067,068,076,077,081,082,083,,,,,1.1,0.6,0.9*27
$GPGSA,A,3,001,003,004,006,009,017,019,021,022,031,,,1.1,0.6,0.9*3B
$GAGSA,A,3,103,113,115,,,,,,,,,,1.1,0.6,0.9*18
$GPRMC,070122.40,A,4443.7743,N,03956.3063,E,041.81613,324.4,301121,,,A*5A
$GPGGA,070122.60,4443.7762,N,03956.3044,E,1,22,0.6,00148.1,M,0017.3,M,,*6A
$GLGSA,A,3,066,067,068,076,077,081,082,083,,,,,1.1,0.6,0.9*27
$GPGSA,A,3,001,003,004,006,009,017,019,021,022,031,,,1.1,0.6,0.9*3B
$GAGSA,A,3,103,105,113,115,,,,,,,,,1.1,0.6,0.9*2C
$GPRMC,070122.60,A,4443.7762,N,03956.3044,E,041.39334,324.9,301121,,,A*50
$GPGGA,070122.80,4443.7781,N,03956.3026,E,1,22,0.6,00148.0,M,0017.3,M,,*6C
$GLGSA,A,3,066,067,068,076,077,081,082,083,,,,,1.1,0.6,0.9*27
$GPGSA,A,3,001,003,004,006,009,017,019,021,022,031,,,1.1,0.6,0.9*3B
$GAGSA,A,3,103,105,113,115,,,,,,,,,1.1,0.6,0.9*2C
$GPRMC,070122.80,A,4443.7781,N,03956.3026,E,041.16282,324.4,301121,,,A*5B
$GPGGA,070123.00,4443.7800,N,03956.3007,E,1,21,0.6,00148.0,M,0017.3,M,,*63
$GLGSA,A,3,066,067,068,076,077,081,082,083,,,,,1.1,0.6,0.9*27
$GPGSA,A,3,001,003,004,006,009,017,019,021,022,031,,,1.1,0.6,0.9*3B
$GAGSA,A,3,103,113,115,,,,,,,,,,1.1,0.6,0.9*18
$GPGSV,8,1,29,001,50,195,50,003,74,327,49,004,49,251,49,006,08,324,43*72
$GPGSV,8,2,29,009,13,248,35,017,15,277,42,019,15,300,45,021,31,182,50*7C
$GPGSV,8,3,29,022,77,099,40,025,02,028,,026,08,109,,031,41,062,37*71
$GPGSV,8,4,29,032,03,063,23,066,44,054,41,067,58,318,48,068,16,277,44*7D
$GPGSV,8,5,29,076,36,078,40,077,23,136,37,081,16,202,38,082,44,251,54*79
$GPGSV,8,6,29,083,34,314,35,103,73,036,43,105,22,066,22,108,45,262,48*72
$GPGSV,8,7,29,113,43,296,47,115,48,213,46,124,15,053,,125,16,108,*71
$GPGSV,8,8,29,126,01,331,*77
$GPRMC,070123.00,A,4443.7800,N,03956.3007,E,041.00003,324.9,301121,,,A*56
$GPZDA,070123.00,30,11,2021,+00,00*48
$GPGGA,070123.20,4443.7818,N,03956.2989,E,1,22,0.6,00148.0,M,0017.3,M,,*65
$GLGSA,A,3,066,067,068,076,077,081,082,083,,,,,1.1,0.6,0.9*27
$GPGSA,A,3,001,003,004,006,009,017,019,021,022,031,,,1.1,0.6,0.9*3B
$GAGSA,A,3,103,105,113,115,,,,,,,,,1.1,0.6,0.9*2C
$GPRMC,070123.20,A,4443.7818,N,03956.2989,E,040.79752,324.8,301121,,,A*5E
$GPGGA,070123.40,4443.7837,N,03956.2970,E,1,22,0.6,00148.0,M,0017.3,M,,*68
$GLGSA,A,3,066,067,068,076,077,081,082,083,,,,,1.1,0.6,0.9*27
$GPGSA,A,3,001,003,004,006,009,017,019,021,022,031,,,1.1,0.6,0.9*3B
$GAGSA,A,3,103,105,113,115,,,,,,,,,1.1,0.6,0.9*2C
$GPRMC,070123.40,A,4443.7837,N,03956.2970,E,040.50694,324.9,301121,,,A*52
$GPGGA,070123.60,4443.7855,N,03956.2952,E,1,21,0.6,00148.0,M,0017.3,M,,*6D
$GLGSA,A,3,066,067,068,076,077,081,082,083,,,,,1.1,0.6,0.9*27
$GPGSA,A,3,001,003,004,006,009,017,019,021,022,031,,,1.1,0.6,0.9*3B
$GAGSA,A,3,103,113,115,,,,,,,,,,1.1,0.6,0.9*18
$GPRMC,070123.60,A,4443.7855,N,03956.2952,E,040.11825,324.7,301121,,,A*5B
$GPGGA,070123.80,4443.7874,N,03956.2933,E,1,22,0.6,00148.0,M,0017.3,M,,*64
$GLGSA,A,3,066,067,068,076,077,081,082,083,,,,,1.1,0.6,0.9*27
$GPGSA,A,3,001,003,004,006,009,017,019,021,022,031,,,1.1,0.6,0.9*3B
$GAGSA,A,3,103,105,113,115,,,,,,,,,1.1,0.6,0.9*2C
$GPRMC,070123.80,A,4443.7874,N,03956.2933,E,039.83721,324.8,301121,,,A*50
$GPGGA,070124.00,4443.7892,N,03956.2915,E,1,20,0.7,00148.0,M,0017.2,M,,*65
$GLGSA,A,3,066,067,068,077,081,082,083,,,,,,1.2,0.7,0.9*14
$GPGSA,A,3,001,003,004,006,009,017,019,021,022,031,,,1.2,0.7,0.9*39
$GAGSA,A,3,103,113,115,,,,,,,,,,1.2,0.7,0.9*1A
$GPGSV,8,1,29,001,50,195,50,003,74,327,49,004,49,251,49,006,08,324,44*75
$GPGSV,8,2,29,009,13,248,37,017,15,277,42,019,15,300,45,021,31,182,48*77
$GPGSV,8,3,29,022,77,099,40,025,02,028,,026,08,109,,031,41,062,39*7F
$GPGSV,8,4,29,032,03,063,22,066,44,054,39,067,58,318,48,068,16,277,45*72
$GPGSV,8,5,29,076,36,078,39,077,23,136,37,081,16,202,37,082,44,251,55*79
$GPGSV,8,6,29,083,34,314,32,103,73,036,42,105,22,066,23,108,45,262,48*75
$GPGSV,8,7,29,113,43,296,47,115,48,213,46,124,15,053,,125,16,108,*71
$GPGSV,8,8,29,126,01,331,*77
$GPRMC,070124.00,A,4443.7892,N,03956.2915,E,039.76884,323.8,301121,,,A*5E
$GPZDA,070124.00,30,11,2021,+00,00*4F
$GPGGA,070124.20,4443.7909,N,03956.2897,E,1,22,0.6,00148.0,M,0017.3,M,,*6D
$GLGSA,A,3,066,067,068,076,077,081,082,083,,,,,1.1,0.6,0.9*27
$GPGSA,A,3,001,003,004,006,009,017,019,021,022,031,,,1.1,0.6,0.9*3B
$GAGSA,A,3,103,105,113,115,,,,,,,,,1.1,0.6,0.9*2C
$GPRMC,070124.20,A,4443.7909,N,03956.2897,E,039.32676,324.9,301121,,,A*51
$GPGGA,070124.40,4443.7927,N,03956.2879,E,1,22,0.6,00148.0,M,0017.3,M,,*67
$GLGSA,A,3,066,067,068,076,077,081,082,083,,,,,1.1,0.6,0.9*27
$GPGSA,A,3,001,003,004,006,009,017,019,021,022,031,,,1.1,0.6,0.9*3B
$GAGSA,A,3,103,105,113,115,,,,,,,,,1.1,0.6,0.9*2C
$GPRMC,070124.40,A,4443.7927,N,03956.2879,E,039.16911,324.7,301121,,,A*5D
$GPGGA,070124.60,4443.7945,N,03956.2861,E,1,21,0.6,00148.0,M,0017.3,M,,*6B
$GLGSA,A,3,066,067,068,076,077,081,082,083,,,,,1.1,0.6,0.9*27
$GPGSA,A,3,001,003,004,006,009,017,019,021,022,031,,,1.1,0.6,0.9*3B
$GAGSA,A,3,103,113,115,,,,,,,,,,1.1,0.6,0.9*18
$GPRMC,070124.60,A,4443.7945,N,03956.2861,E,038.80944,324.6,301121,,,A*5D
$GPGGA,070124.80,4443.7963,N,03956.2843,E,1,21,0.6,00148.0,M,0017.3,M,,*61
$GLGSA,A,3,066,067,068,076,077,081,082,083,,,,,1.1,0.6,0.9*27
$GPGSA,A,3,001,003,004,006,009,017,019,021,022,031,,,1.1,0.6,0.9*3B
$GAGSA,A,3,103,113,115,,,,,,,,,,1.1,0.6,0.9*18
$GPRMC,070124.80,A,4443.7963,N,03956.2843,E,038.69535,324.5,301121,,,A*59
$GPGGA,070125.00,4443.7980,N,03956.2826,E,1,22,0.6,00147.9,M,0017.3,M,,*63
$GLGSA,A,3,066,067,068,076,077,081,082,083,,,,,1.1,0.6,0.9*27
$GPGSA,A,3,001,003,004,006,009,017,019,021,022,031,,,1.1,0.6,0.9*3B
$GAGSA,A,3,103,105,113,115,,,,,,,,,1.1,0.6,0.9*2C
$GPGSV,8,1,29,001,50,195,50,003,74,327,49,004,50,251,49,006,08,324,42*7B
$GPGSV,8,2,29,009,13,248,38,017,15,277,44,019,15,300,46,021,31,182,47*72
$GPGSV,8,3,29,022,77,099,41,025,02,028,,026,08,109,,031,41,062,39*7E
$GPGSV,8,4,29,032,03,063,21,066,44,054,40,067,58,318,48,068,16,277,47*7D
$GPGSV,8,5,29,076,36,078,40,077,23,136,38,081,16,202,41,082,44,251,54*78
$GPGSV,8,6,29,083,34,314,33,103,73,036,43,105,22,066,24,108,45,262,47*7D
$GPGSV,8,7,29,113,43,296,47,115,48,213,46,124,15,053,,125,16,108,*71
$GPGSV,8,8,29,126,01,331,*77
$GPRMC,070125.00,A,4443.7980,N,03956.2826,E,038.30133,324.6,301121,,,A*53
$GPZDA,070125.00,30,11,2021,+00,00*4E
$GPGGA,070125.20,4443.7997,N,03956.2808,E,1,22,0.6,00148.0,M,0017.3,M,,*6D
$GLGSA,A,3,066,067,068,076,077,081,082,083,,,,,1.1,0.6,0.9*27
$GPGSA,A,3,001,003,004,006,009,017,019,021,022,031,,,1.1,0.6,0.9*3B
$GAGSA,A,3,103,105,113,115,,,,,,,,,1.1,0.6,0.9*2C
$GPRMC,070125.20,A,4443.7997,N,03956.2808,E,038.15090,324.0,301121,,,A*52
$GPGGA,070125.40,4443.8015,N,03956.2791,E,1,22,0.6,00148.0,M,0017.3,M,,*68
$GLGSA,A,3,066,067,068,076,077,081,082,083,,,,,1.1,0.6,0.9*27
$GPGSA,A,3,001,003,004,006,009,017,019,021,022,031,,,1.1,0.6,0.9*3B
$GAGSA,A,3,103,105,113,115,,,,,,,,,1.1,0.6,0.9*2C
$GPRMC,070125.40,A,4443.8015,N,03956.2791,E,037.56311,324.7,301121,,,A*52
$GPGGA,070125.60,4443.8032,N,03956.2774,E,1,22,0.6,00148.0,M,0017.3,M,,*64
$GLGSA,A,3,066,067,068,076,077,081,082,083,,,,,1.1,0.6,0.9*27
$GPGSA,A,3,001,003,004,006,009,017,019,021,022,031,,,1.1,0.6,0.9*3B
$GAGSA,A,3,103,105,113,115,,,,,,,,,1.1,0.6,0.9*2C
$GPRMC,070125.60,A,4443.8032,N,03956.2774,E,037.33342,324.3,301121,,,A*5F
$GPGGA,070125.80,4443.8048,N,03956.2757,E,1,22,0.6,00148.0,M,0017.2,M,,*67
$GLGSA,A,3,066,067,068,076,077,081,082,083,,,,,1.1,0.6,0.9*27
$GPGSA,A,3,001,003,004,006,009,017,019,021,022,031,,,1.1,0.6,0.9*3B
$GAGSA,A,3,103,105,113,115,,,,,,,,,1.1,0.6,0.9*2C
$GPRMC,070125.80,A,4443.8048,N,03956.2757,E,037.02962,324.5,301121,,,A*51
$GPGGA,070126.00,4443.8065,N,03956.2740,E,1,22,0.6,00148.0,M,0017.3,M,,*64
$GLGSA,A,3,066,067,068,076,077,081,082,083,,,,,1.1,0.6,0.9*27
$GPGSA,A,3,001,003,004,006,009,017,019,021,022,031,,,1.1,0.6,0.9*3B
$GAGSA,A,3,103,105,113,115,,,,,,,,,1.1,0.6,0.9*2C
$GPGSV,8,1,29,001,50,195,50,003,74,327,48,004,50,251,49,006,08,324,41*79
$GPGSV,8,2,29,009,13,248,38,017,15,277,42,019,15,300,46,021,31,182,47*74
$GPGSV,8,3,29,022,77,099,40,025,02,028,,026,08,109,,031,40,062,37*70
$GPGSV,8,4,29,032,03,063,,066,44,054,41,067,58,318,48,068,16,277,43*7B
$GPGSV,8,5,29,076,36,078,41,077,23,136,37,081,16,202,44,082,44,251,54*73
$GPGSV,8,6,29,083,34,314,34,103,73,036,42,105,22,066,21,108,45,262,48*71
$GPGSV,8,7,29,113,43,296,47,115,48,213,45,124,15,053,,125,16,108,*72
$GPGSV,8,8,29,126,01,331,*77
$GPRMC,070126.00,A,4443.8065,N,03956.2740,E,036.73972,324.8,301121,,,A*58
$GPZDA,070126.00,30,11,2021,+00,00*4D
$GPGGA,070126.20,4443.8082,N,03956.2724,E,1,22,0.6,00148.1,M,0017.2,M,,*6D
$GLGSA,A,3,066,067,068,076,077,081,082,083,,,,,1.1,0.6,0.9*27
$GPGSA,A,3,001,003,004,006,009,017,019,021,022,031,,,1.1,0.6,0.9*3B
$GAGSA,A,3,103,105,113,115,,,,,,,,,1.1,0.6,0.9*2C
$GPRMC,070126.20,A,4443.8082,N,03956.2724,E,036.37608,325.2,301121,,,A*58
$GPGGA,070126.40,4443.8098,N,03956.2707,E,1,22,0.6,00148.1,M,0017.3,M,,*60
$GLGSA,A,3,066,067,068,076,077,081,082,083,,,,,1.1,0.6,0.9*27
$GPGSA,A,3,001,003,004,006,009,017,019,021,022,031,,,1.1,0.6,0.9*3B
$GAGSA,A,3,103,105,113,115,,,,,,,,,1.1,0.6,0.9*2C
$GPRMC,070126.40,A,4443.8098,N,03956.2707,E,036.26449,324.6,301121,,,A*56
$GPGGA,070126.60,4443.8115,N,03956.2691,E,1,22,0.6,00148.1,M,0017.3,M,,*68
$GLGSA,A,3,066,067,068,076,077,081,082,083,,,,,1.1,0.6,0.9*27
$GPGSA,A,3,001,003,004,006,009,017,019,021,022,031,,,1.1,0.6,0.9*3B
$GAGSA,A,3,103,105,113,115,,,,,,,,,1.1,0.6,0.9*2C
$GPRMC,070126.60,A,4443.8115,N,03956.2691,E,035.74841,325.1,301121,,,A*58
$GPGGA,070126.80,4443.8131,N,03956.2674,E,1,22,0.6,00148.1,M,0017.3,M,,*6B
$GLGSA,A,3,066,067,068,076,077,081,082,083,,,,,1.1,0.6,0.9*27
$GPGSA,A,3,001,003,004,006,009,017,019,021,022,031,,,1.1,0.6,0.9*3B
$GAGSA,A,3,103,105,113,115,,,,,,,,,1.1,0.6,0.9*2C
$GPRMC,070126.80,A,4443.8131,N,03956.2674,E,035.55718,325.2,301121,,,A*58
$GPGGA,070127.00,4443.8147,N,03956.2658,E,1,21,0.6,00148.1,M,0017.3,M,,*6E
$GLGSA,A,3,066,067,068,076,077,081,082,083,,,,,1.1,0.6,0.9*27
$GPGSA,A,3,001,003,004,006,009,017,019,021,022,031,,,1.1,0.6,0.9*3B
$GAGSA,A,3,103,113,115,,,,,,,,,,1.1,0.6,0.9*18
$GPGSV,8,1,29,001,50,195,49,003,74,327,48,004,50,251,49,006,08,324,42*72
$GPGSV,8,2,29,009,13,248,37,017,15,277,40,019,15,300,46,021,31,182,47*79
$GPGSV,8,3,29,022,77,099,40,025,02,028,,026,08,109,,031,40,062,38*7F
$GPGSV,8,4,29,032,03,063,,066,44,054,39,067,58,318,48,068,16,277,42*75
$GPGSV,8,5,29,076,36,078,41,077,23,136,37,081,16,202,45,082,44,251,53*75
$GPGSV,8,6,29,083,34,314,33,103,73,036,42,105,22,066,23,108,45,262,48*74
$GPGSV,8,7,29,113,43,296,46,115,48,213,46,124,15,053,,125,16,108,*70
$GPGSV,8,8,29,126,01,331,*77
$GPRMC,070127.00,A,4443.8147,N,03956.2658,E,035.42349,324.9,301121,,,A*52
$GPZDA,070127.00,30,11,2021,+00,00*4C
$GPGGA,070127.20,4443.8163,N,03956.2642,E,1,22,0.6,00148.1,M,0017.3,M,,*62
$GLGSA,A,3,066,067,068,076,077,081,082,083,,,,,1.1,0.6,0.9*27
$GPGSA,A,3,001,003,004,006,009,017,019,021,022,031,,,1.1,0.6,0.9*3B
$GAGSA,A,3,103,105,113,115,,,,,,,,,1.1,0.6,0.9*2C
$GPRMC,070127.20,A,4443.8163,N,03956.2642,E,035.06973,324.1,301121,,,A*56
$GPGGA,070127.40,4443.8178,N,03956.2626,E,1,22,0.6,00148.1,M,0017.3,M,,*6C
$GLGSA,A,3,066,067,068,076,077,081,082,083,,,,,1.1,0.6,0.9*27
$GPGSA,A,3,001,003,004,006,009,017,019,021,022,031,,,1.1,0.6,0.9*3B
$GAGSA,A,3,103,105,113,115,,,,,,,,,1.1,0.6,0.9*2C
$GPRMC,070127.40,A,4443.8178,N,03956.2626,E,034.57812,324.6,301121,,,A*5C
$GPGGA,070127.60,4443.8194,N,03956.2611,E,1,22,0.6,00148.1,M,0017.3,M,,*68
$GLGSA,A,3,066,067,068,076,077,081,082,083,,,,,1.1,0.6,0.9*27
$GPGSA,A,3,001,003,004,006,009,017,019,021,022,031,,,1.1,0.6,0.9*3B
$GAGSA,A,3,103,105,113,115,,,,,,,,,1.1,0.6,0.9*2C
$GPRMC,070127.60,A,4443.8194,N,03956.2611,E,033.93379,325.6,301121,,,A*50
$GPGGA,070127.80,4443.8209,N,03956.2595,E,1,22,0.6,00148.1,M,0017.3,M,,*6E
$GLGSA,A,3,066,067,068,076,077,081,082,083,,,,,1.1,0.6,0.9*27
$GPGSA,A,3,001,003,004,006,009,017,019,021,022,031,,,1.1,0.6,0.9*3B
$GAGSA,A,3,103,105,113,115,,,,,,,,,1.1,0.6,0.9*2C
$GPRMC,070127.80,A,4443.8209,N,03956.2595,E,033.74419,324.4,301121,,,A*5D
$GPGGA,070128.00,4443.8225,N,03956.2580,E,1,22,0.6,00148.1,M,0017.2,M,,*62
$GLGSA,A,3,066,067,068,076,077,081,082,083,,,,,1.1,0.6,0.9*27
$GPGSA,A,3,001,003,004,006,009,017,019,021,022,031,,,1.1,0.6,0.9*3B
$GAGSA,A,3,103,105,113,115,,,,,,,,,1.1,0.6,0.9*2C
$GPGSV,8,1,29,001,50,195,48,003,74,327,48,004,50,251,49,006,08,324,42*73
$GPGSV,8,2,29,009,13,248,38,017,15,277,38,019,15,300,46,021,31,182,46*78
$GPGSV,8,3,29,022,77,099,40,025,02,028,,026,08,109,,031,40,062,37*70
$GPGSV,8,4,29,032,03,063,,066,44,054,41,067,58,318,48,068,16,277,41*79
$GPGSV,8,5,29,076,36,078,40,077,23,136,37,081,16,202,44,082,44,250,53*74
$GPGSV,8,6,29,083,34,314,34,103,73,036,42,105,22,066,25,108,45,262,48*75
$GPGSV,8,7,29,113,43,296,47,115,48,213,47,124,15,053,,125,16,108,*70
$GPGSV,8,8,29,126,01,331,*77
$GPRMC,070128.00,A,4443.8225,N,03956.2580,E,033.73739,324.8,301121,,,A*5A
$GPZDA,070128.00,30,11,2021,+00,00*43
$GPGGA,070128.20,4443.8240,N,03956.2565,E,1,21,0.6,00148.1,M,0017.3,M,,*6A
$GLGSA,A,3,066,067,068,076,077,081,082,083,,,,,1.1,0.6,0.9*27
$GPGSA,A,3,001,003,004,006,009,017,019,021,022,031,,,1.1,0.6,0.9*3B
$GAGSA,A,3,103,113,115,,,,,,,,,,1.1,0.6,0.9*18
$GPRMC,070128.20,A,4443.8240,N,03956.2565,E,033.81075,324.5,301121,,,A*5F
$GPGGA,070128.40,4443.8255,N,03956.2549,E,1,22,0.6,00148.1,M,0017.3,M,,*65
$GLGSA,A,3,066,067,068,076,077,081,082,083,,,,,1.1,0.6,0.9*27
$GPGSA,A,3,001,003,004,006,009,017,019,021,022,031,,,1.1,0.6,0.9*3B
$GAGSA,A,3,103,105,113,115,,,,,,,,,1.1,0.6,0.9*2C
$GPRMC,070128.40,A,4443.8255,N,03956.2549,E,033.25478,325.1,301121,,,A*51
$GPGGA,070128.60,4443.8270,N,03956.2534,E,1,22,0.6,00148.1,M,0017.3,M,,*6A
$GLGSA,A,3,066,067,068,076,077,081,082,083,,,,,1.1,0.6,0.9*27
$GPGSA,A,3,001,003,004,006,009,017,019,021,022,031,,,1.1,0.6,0.9*3B
$GAGSA,A,3,103,105,113,115,,,,,,,,,1.1,0.6,0.9*2C
$GPRMC,070128.60,A,4443.8270,N,03956.2534,E,033.03383,325.0,301121,,,A*58
$GPGGA,070128.80,4443.8285,N,03956.2519,E,1,22,0.6,00148.1,M,0017.3,M,,*61
$GLGSA,A,3,066,067,068,076,077,081,082,083,,,,,1.1,0.6,0.9*27
$GPGSA,A,3,001,003,004,006,009,017,019,021,022,031,,,1.1,0.6,0.9*3B
$GAGSA,A,3,103,105,113,115,,,,,,,,,1.1,0.6,0.9*2C
$GPRMC,070128.80,A,4443.8285,N,03956.2519,E,032.87003,324.7,301121,,,A*53
$GPGGA,070129.00,4443.8300,N,03956.2504,E,1,22,0.6,00148.2,M,0017.2,M,,*6A
$GLGSA,A,3,066,067,068,076,077,081,082,083,,,,,1.1,0.6,0.9*27
$GPGSA,A,3,001,003,004,006,009,017,019,021,022,031,,,1.1,0.6,0.9*3B
$GAGSA,A,3,103,105,113,115,,,,,,,,,1.1,0.6,0.9*2C
$GPGSV,8,1,29,001,50,195,49,003,74,327,48,004,50,251,49,006,08,324,42*72
$GPGSV,8,2,29,009,13,248,37,017,15,277,41,019,15,300,46,021,31,182,48*77
$GPGSV,8,3,29,022,77,099,41,025,02,028,,026,08,109,,031,40,062,39*7F
$GPGSV,8,4,29,032,03,063,18,066,44,054,39,067,58,318,48,068,16,277,44*7A
$GPGSV,8,5,29,076,36,078,41,077,23,136,37,081,16,202,42,082,44,250,53*73
$GPGSV,8,6,29,083,34,314,34,103,73,036,43,105,22,066,24,108,45,262,48*75
$GPGSV,8,7,29,113,43,296,47,115,48,213,47,124,15,053,,125,16,108,*70
$GPGSV,8,8,29,126,01,331,*77
$GPRMC,070129.00,A,4443.8300,N,03956.2504,E,032.34625,323.7,301121,,,A*57
$GPZDA,070129.00,30,11,2021,+00,00*42
$GPGGA,070129.20,4443.8314,N,03956.2489,E,1,22,0.6,00148.1,M,0017.3,M,,*6B
$GLGSA,A,3,066,067,068,076,077,081,082,083,,,,,1.1,0.6,0.9*27
$GPGSA,A,3,001,003,004,006,009,017,019,021,022,031,,,1.1,0.6,0.9*3B
$GAGSA,A,3,103,105,113,115,,,,,,,,,1.1,0.6,0.9*2C
$GPRMC,070129.20,A,4443.8314,N,03956.2489,E,031.92622,324.8,301121,,,A*54
$GPGGA,070129.40,4443.8329,N,03956.2475,E,1,22,0.6,00148.1,M,0017.3,M,,*60
$GLGSA,A,3,066,067,068,076,077,081,082,083,,,,,1.1,0.6,0.9*27
$GPGSA,A,3,001,003,004,006,009,017,019,021,022,031,,,1.1,0.6,0.9*3B
$GAGSA,A,3,103,105,113,115,,,,,,,,,1.1,0.6,0.9*2C
$GPRMC,070129.40,A,4443.8329,N,03956.2475,E,031.77489,324.0,301121,,,A*5F
$GPGGA,070129.60,4443.8343,N,03956.2460,E,1,22,0.6,00148.1,M,0017.3,M,,*6A
$GLGSA,A,3,066,067,068,076,077,081,082,083,,,,,1.1,0.6,0.9*27
$GPGSA,A,3,001,003,004,006,009,017,019,021,022,031,,,1.1,0.6,0.9*3B
$GAGSA,A,3,103,105,113,115,,,,,,,,,1.1,0.6,0.9*2C
$GPRMC,070129.60,A,4443.8343,N,03956.2460,E,031.66889,324.4,301121,,,A*5D
$GPGGA,070129.80,4443.8357,N,03956.2446,E,1,22,0.6,00148.1,M,0017.3,M,,*65
$GLGSA,A,3,066,067,068,076,077,081,082,083,,,,,1.1,0.6,0.9*27
$GPGSA,A,3,001,003,004,006,009,017,019,021,022,031,,,1.1,0.6,0.9*3B
$GAGSA,A,3,103,105,113,115,,,,,,,,,1.1,0.6,0.9*2C
$GPRMC,070129.80,A,4443.8357,N,03956.2446,E,031.13519,324.6,301121,,,A*56
$GPGGA,070130.00,4443.8371,N,03956.2432,E,1,22,0.6,00148.0,M,0017.3,M,,*63
$GLGSA,A,3,066,067,068,076,077,081,082,083,,,,,1.1,0.6,0.9*27
$GPGSA,A,3,001,003,004,006,009,017,019,021,022,031,,,1.1,0.6,0.9*3B
$GAGSA,A,3,103,105,113,115,,,,,,,,,1.1,0.6,0.9*2C
$GPGSV,8,1,29,001,50,195,50,003,74,327,49,004,50,251,48,006,08,324,41*79
$GPGSV,8,2,29,009,13,248,40,017,15,277,42,019,15,300,46,021,31,182,49*75
$GPGSV,8,3,29,022,77,099,41,025,02,028,,026,08,109,,031,40,062,37*71
$GPGSV,8,4,29,032,03,063,17,066,44,054,40,067,58,318,48,068,16,277,45*7A
$GPGSV,8,5,29,076,36,078,41,077,23,136,37,081,16,202,40,082,44,250,54*76
$GPGSV,8,6,29,083,34,314,34,103,73,036,43,105,22,066,23,108,45,262,47*7D
$GPGSV,8,7,29,113,43,296,47,115,48,213,48,124,15,053,,125,16,108,*7F
$GPGSV,8,8,29,126,01,331,*77
$GPRMC,070130.00,A,4443.8371,N,03956.2432,E,030.91422,324.5,301121,,,A*50
$GPZDA,070130.00,30,11,2021,+00,00*4A
$GPGGA,070130.20,4443.8385,N,03956.2418,E,1,22,0.6,00148.0,M,0017.3,M,,*62
$GLGSA,A,3,066,067,068,076,077,081,082,083,,,,,1.1,0.6,0.9*27
$GPGSA,A,3,001,003,004,006,009,017,019,021,022,031,,,1.1,0.6,0.9*3B
$GAGSA,A,3,103,105,113,115,,,,,,,,,1.1,0.6,0.9*2C
$GPRMC,070130.20,A,4443.8385,N,03956.2418,E,030.69788,325.1,301121,,,A*50
$GPGGA,070130.40,4443.8399,N,03956.2404,E,1,22,0.6,00148.1,M,0017.3,M,,*65
$GLGSA,A,3,066,067,068,076,077,081,082,083,,,,,1.1,0.6,0.9*27
$GPGSA,A,3,001,003,004,006,009,017,019,021,022,031,,,1.1,0.6,0.9*3B
$GAGSA,A,3,103,105,113,115,,,,,,,,,1.1,0.6,0.9*2C
$GPRMC,070130.40,A,4443.8399,N,03956.2404,E,030.25280,324.5,301121,,,A*56
$GPGGA,070130.60,4443.8413,N,03956.2390,E,1,22,0.6,00148.1,M,0017.2,M,,*69
$GLGSA,A,3,066,067,068,076,077,081,082,083,,,,,1.1,0.6,0.9*27
$GPGSA,A,3,001,003,004,006,009,017,019,021,022,031,,,1.1,0.6,0.9*3B
$GAGSA,A,3,103,105,113,115,,,,,,,,,1.1,0.6,0.9*2C
$GPRMC,070130.60,A,4443.8413,N,03956.2390,E,030.17893,324.7,301121,,,A*50
$GPGGA,070130.80,4443.8426,N,03956.2377,E,1,22,0.6,00148.1,M,0017.2,M,,*68
$GLGSA,A,3,066,067,068,076,077,081,082,083,,,,,1.1,0.6,0.9*27
$GPGSA,A,3,001,003,004,006,009,017,019,021,022,031,,,1.1,0.6,0.9*3B
$GAGSA,A,3,103,105,113,115,,,,,,,,,1.1,0.6,0.9*2C
$GPRMC,070130.80,A,4443.8426,N,03956.2377,E,029.91822,324.6,301121,,,A*5C
$GPGGA,070131.00,4443.8440,N,03956.2363,E,1,22,0.6,00148.0,M,0017.3,M,,*64
$GLGSA,A,3,066,067,068,076,077,081,082,083,,,,,1.1,0.6,0.9*27
$GPGSA,A,3,001,003,004,006,009,017,019,021,022,031,,,1.1,0.6,0.9*3B
$GAGSA,A,3,103,105,113,115,,,,,,,,,1.1,0.6,0.9*2C
$GPGSV,8,1,29,001,50,195,50,003,74,327,49,004,50,251,48,006,08,324,41*79
$GPGSV,8,2,29,009,13,248,40,017,15,277,42,019,15,300,46,021,31,182,49*75
$GPGSV,8,3,29,022,76,099,41,025,02,028,,026,08,109,,031,40,062,36*71
