$GPGGA,053859.80,4442.0641,N,03958.0078,E,1,19,0.7,00166.9,M,0017.5,M,,*6F
$GLGSA,A,3,067,068,069,076,082,083,084,,,,,,1.1,0.7,0.8*1D
$GPGSA,A,3,001,003,004,008,017,021,022,031,032,,,,1.1,0.7,0.8*05
$GAGSA,A,3,105,109,136,,,,,,,,,,1.1,0.7,0.8*14
$GPRMC,053859.80,A,4442.0641,N,03958.0078,E,023.85438,324.2,241121,,,A*58
$GPGGA,053900.00,4442.0652,N,03958.0067,E,1,19,0.7,00166.9,M,0017.5,M,,*66
$GLGSA,A,3,067,068,069,076,082,083,084,,,,,,1.1,0.7,0.8*1D
$GPGSA,A,3,001,003,004,008,017,021,022,031,032,,,,1.1,0.7,0.8*05
$GAGSA,A,3,105,109,136,,,,,,,,,,1.1,0.7,0.8*14
$GPGSV,6,1,24,001,62,302,50,003,32,282,50,004,07,222,47,008,16,209,47*73
$GPGSV,6,2,24,010,02,094,27,017,14,321,47,021,77,232,46,022,55,294,50*78
$GPGSV,6,3,24,031,31,125,36,032,44,053,41,067,39,043,40,068,69,308,49*74
$GPGSV,6,4,24,069,26,252,55,076,11,027,30,077,15,076,,082,28,175,51*76
$GPGSV,6,5,24,083,68,223,41,084,32,325,38,104,34,053,,105,34,230,49*76
$GPGSV,6,6,24,109,88,184,44,111,30,141,38,121,00,025,,136,76,231,45*76
$GPRMC,053900.00,A,4442.0652,N,03958.0067,E,024.01527,325.0,241121,,,A*56
$GPZDA,053900.00,24,11,2021,+00,00*45
$GPGGA,053900.20,4442.0663,N,03958.0056,E,1,19,0.7,00166.9,M,0017.5,M,,*64
$GLGSA,A,3,067,068,069,076,082,083,084,,,,,,1.1,0.7,0.8*1D
$GPGSA,A,3,001,003,004,008,017,021,022,031,032,,,,1.1,0.7,0.8*05
$GAGSA,A,3,105,109,136,,,,,,,,,,1.1,0.7,0.8*14
$GPRMC,053900.20,A,4442.0663,N,03958.0056,E,024.35488,324.9,241121,,,A*5F
$GPGGA,053900.40,4442.0674,N,03958.0045,E,1,19,0.7,00166.8,M,0017.5,M,,*67
$GLGSA,A,3,067,068,069,076,082,083,084,,,,,,1.1,0.7,0.8*1D
$GPGSA,A,3,001,003,004,008,017,021,022,031,032,,,,1.1,0.7,0.8*05
$GAGSA,A,3,105,109,136,,,,,,,,,,1.1,0.7,0.8*14
$GPRMC,053900.40,A,4442.0674,N,03958.0045,E,024.36130,325.0,241121,,,A*50
$GPGGA,053900.60,4442.0685,N,03958.0034,E,1,19,0.7,00166.8,M,0017.5,M,,*6D
$GLGSA,A,3,067,068,069,076,082,083,084,,,,,,1.1,0.7,0.8*1D
$GPGSA,A,3,001,003,004,008,017,021,022,031,032,,,,1.1,0.7,0.8*05
$GAGSA,A,3,105,109,136,,,,,,,,,,1.1,0.7,0.8*14
$GPRMC,053900.60,A,4442.0685,N,03958.0034,E,024.37840,324.6,241121,,,A*52
$GPGGA,053900.80,4442.0697,N,03958.0023,E,1,19,0.7,00166.8,M,0017.5,M,,*66
$GLGSA,A,3,067,068,069,076,082,083,084,,,,,,1.1,0.7,0.8*1D
$GPGSA,A,3,001,003,004,008,017,021,022,031,032,,,,1.1,0.7,0.8*05
$GAGSA,A,3,105,109,136,,,,,,,,,,1.1,0.7,0.8*14
$GPRMC,053900.80,A,4442.0697,N,03958.0023,E,024.36567,324.9,241121,,,A*5F
$GPGGA,053901.00,4442.0708,N,03958.0012,E,1,19,0.7,00166.8,M,0017.5,M,,*6A
$GLGSA,A,3,067,068,069,076,082,083,084,,,,,,1.1,0.7,0.8*1D
$GPGSA,A,3,001,003,004,008,017,021,022,031,032,,,,1.1,0.7,0.8*05
$GAGSA,A,3,105,109,136,,,,,,,,,,1.1,0.7,0.8*14
$GPGSV,6,1,24,001,62,301,49,003,32,282,50,004,07,222,47,008,16,209,46*79
$GPGSV,6,2,24,010,02,094,25,017,14,321,47,021,77,232,45,022,55,294,50*79
$GPGSV,6,3,24,031,31,125,35,032,44,053,41,067,39,043,40,068,69,308,49*77
$GPGSV,6,4,24,069,26,252,55,076,11,027,32,077,15,076,,082,28,175,52*77
$GPGSV,6,5,24,083,68,223,41,084,32,325,37,104,34,053,,105,34,230,49*79
$GPGSV,6,6,24,109,88,184,44,111,30,141,38,121,00,025,,136,76,231,46*75
$GPRMC,053901.00,A,4442.0708,N,03958.0012,E,024.38664,325.0,241121,,,A*55
$GPZDA,053901.00,24,11,2021,+00,00*44
$GPGGA,053901.20,4442.0719,N,03958.0002,E,1,19,0.7,00166.8,M,0017.5,M,,*69
$GLGSA,A,3,067,068,069,076,082,083,084,,,,,,1.1,0.7,0.8*1D
$GPGSA,A,3,001,003,004,008,017,021,022,031,032,,,,1.1,0.7,0.8*05
$GAGSA,A,3,105,109,136,,,,,,,,,,1.1,0.7,0.8*14
$GPRMC,053901.20,A,4442.0719,N,03958.0002,E,024.27823,324.5,241121,,,A*51
$GPGGA,053901.40,4442.0730,N,03957.9991,E,1,19,0.7,00166.7,M,0017.5,M,,*6E
$GLGSA,A,3,067,068,069,076,082,083,084,,,,,,1.1,0.7,0.8*1D
$GPGSA,A,3,001,003,004,008,017,021,022,031,032,,,,1.1,0.7,0.8*05
$GAGSA,A,3,105,109,136,,,,,,,,,,1.1,0.7,0.8*14
$GPRMC,053901.40,A,4442.0730,N,03957.9991,E,024.29867,324.4,241121,,,A*56
$GPGGA,053901.60,4442.0741,N,03957.9980,E,1,19,0.7,00166.7,M,0017.5,M,,*6A
$GLGSA,A,3,067,068,069,076,082,083,084,,,,,,1.1,0.7,0.8*1D
$GPGSA,A,3,001,003,004,008,017,021,022,031,032,,,,1.1,0.7,0.8*05
$GAGSA,A,3,105,109,136,,,,,,,,,,1.1,0.7,0.8*14
$GPRMC,053901.60,A,4442.0741,N,03957.9980,E,024.15447,324.6,241121,,,A*51
$GPGGA,053901.80,4442.0752,N,03957.9969,E,1,19,0.7,00166.7,M,0017.5,M,,*61
$GLGSA,A,3,067,068,069,076,082,083,084,,,,,,1.1,0.7,0.8*1D
$GPGSA,A,3,001,003,004,008,017,021,022,031,032,,,,1.1,0.7,0.8*05
$GAGSA,A,3,105,109,136,,,,,,,,,,1.1,0.7,0.8*14
$GPRMC,053901.80,A,4442.0752,N,03957.9969,E,024.27736,324.3,241121,,,A*5B
$GPGGA,053902.00,4442.0763,N,03957.9958,E,1,19,0.7,00166.7,M,0017.5,M,,*6A
$GLGSA,A,3,067,068,069,076,082,083,084,,,,,,1.1,0.7,0.8*1D
$GPGSA,A,3,001,003,004,008,017,021,022,031,032,,,,1.1,0.7,0.8*05
$GAGSA,A,3,105,109,136,,,,,,,,,,1.1,0.7,0.8*14
$GPGSV,6,1,24,001,62,301,49,003,32,282,50,004,07,222,47,008,16,209,46*79
$GPGSV,6,2,24,010,02,094,26,017,14,321,47,021,77,232,45,022,55,294,50*7A
$GPGSV,6,3,24,031,31,125,34,032,44,053,42,067,39,043,40,068,69,308,50*7D
$GPGSV,6,4,24,069,26,252,55,076,11,027,35,077,15,076,,082,28,175,52*70
$GPGSV,6,5,24,083,68,223,40,084,32,325,37,104,34,053,,105,34,230,49*78
$GPGSV,6,6,24,109,88,184,45,111,30,141,39,121,00,025,,136,76,231,45*76
$GPRMC,053902.00,A,4442.0763,N,03957.9958,E,024.25736,324.5,241121,,,A*54
$GPZDA,053902.00,24,11,2021,+00,00*47
$GPGGA,053902.20,4442.0774,N,03957.9947,E,1,19,0.7,00166.7,M,0017.5,M,,*60
$GLGSA,A,3,067,068,069,076,082,083,084,,,,,,1.1,0.7,0.8*1D
$GPGSA,A,3,001,003,004,008,017,021,022,031,032,,,,1.1,0.7,0.8*05
$GAGSA,A,3,105,109,136,,,,,,,,,,1.1,0.7,0.8*14
$GPRMC,053902.20,A,4442.0774,N,03957.9947,E,024.23895,324.2,241121,,,A*59
$GPGGA,053902.40,4442.0785,N,03957.9936,E,1,19,0.7,00166.7,M,0017.5,M,,*6E
$GLGSA,A,3,067,068,069,076,082,083,084,,,,,,1.1,0.7,0.8*1D
$GPGSA,A,3,001,003,004,008,017,021,022,031,032,,,,1.1,0.7,0.8*05
$GAGSA,A,3,105,109,136,,,,,,,,,,1.1,0.7,0.8*14
$GPRMC,053902.40,A,4442.0785,N,03957.9936,E,024.37573,324.6,241121,,,A*53
$GPGGA,053902.60,4442.0796,N,03957.9926,E,1,19,0.7,00166.7,M,0017.5,M,,*6F
$GLGSA,A,3,067,068,069,076,082,083,084,,,,,,1.1,0.7,0.8*1D
$GPGSA,A,3,001,003,004,008,017,021,022,031,032,,,,1.1,0.7,0.8*05
$GAGSA,A,3,105,109,136,,,,,,,,,,1.1,0.7,0.8*14
$GPRMC,053902.60,A,4442.0796,N,03957.9926,E,024.31200,324.7,241121,,,A*56
$GPGGA,053902.80,4442.0807,N,03957.9915,E,1,19,0.7,00166.7,M,0017.5,M,,*66
$GLGSA,A,3,067,068,069,076,082,083,084,,,,,,1.1,0.7,0.8*1D
$GPGSA,A,3,001,003,004,008,017,021,022,031,032,,,,1.1,0.7,0.8*05
$GAGSA,A,3,105,109,136,,,,,,,,,,1.1,0.7,0.8*14
$GPRMC,053902.80,A,4442.0807,N,03957.9915,E,024.29549,324.8,241121,,,A*53
$GPGGA,053903.00,4442.0818,N,03957.9904,E,1,19,0.7,00166.6,M,0017.5,M,,*60
$GLGSA,A,3,067,068,069,076,082,083,084,,,,,,1.1,0.7,0.8*1D
$GPGSA,A,3,001,003,004,008,017,021,022,031,032,,,,1.1,0.7,0.8*05
$GAGSA,A,3,105,109,136,,,,,,,,,,1.1,0.7,0.8*14
$GPGSV,6,1,24,001,62,301,49,003,32,282,49,004,07,222,47,008,16,209,46*71
$GPGSV,6,2,24,010,02,094,25,017,14,321,47,021,77,232,45,022,55,294,50*79
$GPGSV,6,3,24,031,31,125,35,032,44,053,41,067,39,043,40,068,69,308,50*7F
$GPGSV,6,4,24,069,26,252,54,076,11,027,34,077,15,076,,082,28,175,53*71
$GPGSV,6,5,24,083,68,223,39,084,32,325,37,104,34,053,,105,34,230,49*76
$GPGSV,6,6,24,109,88,184,45,111,30,141,39,121,00,025,,136,75,231,45*75
$GPRMC,053903.00,A,4442.0818,N,03957.9904,E,024.38395,324.8,241121,,,A*53
$GPZDA,053903.00,24,11,2021,+00,00*46
$GPGGA,053903.20,4442.0830,N,03957.9893,E,1,19,0.7,00166.6,M,0017.5,M,,*67
$GLGSA,A,3,067,068,069,076,082,083,084,,,,,,1.1,0.7,0.8*1D
$GPGSA,A,3,001,003,004,008,017,021,022,031,032,,,,1.1,0.7,0.8*05
$GAGSA,A,3,105,109,136,,,,,,,,,,1.1,0.7,0.8*14
$GPRMC,053903.20,A,4442.0830,N,03957.9893,E,024.42728,324.8,241121,,,A*5B
$GPGGA,053903.40,4442.0841,N,03957.9883,E,1,19,0.7,00166.6,M,0017.5,M,,*66
$GLGSA,A,3,067,068,069,076,082,083,084,,,,,,1.1,0.7,0.8*1D
$GPGSA,A,3,001,003,004,008,017,021,022,031,032,,,,1.1,0.7,0.8*05
$GAGSA,A,3,105,109,136,,,,,,,,,,1.1,0.7,0.8*14
$GPRMC,053903.40,A,4442.0841,N,03957.9883,E,024.44711,324.0,241121,,,A*5E
$GPGGA,053903.60,4442.0852,N,03957.9872,E,1,19,0.7,00166.6,M,0017.5,M,,*68
$GLGSA,A,3,067,068,069,076,082,083,084,,,,,,1.1,0.7,0.8*1D
$GPGSA,A,3,001,003,004,008,017,021,022,031,032,,,,1.1,0.7,0.8*05
$GAGSA,A,3,105,109,136,,,,,,,,,,1.1,0.7,0.8*14
$GPRMC,053903.60,A,4442.0852,N,03957.9872,E,024.38758,325.2,241121,,,A*55
$GPGGA,053903.80,4442.0863,N,03957.9861,E,1,19,0.7,00166.6,M,0017.5,M,,*66
$GLGSA,A,3,067,068,069,076,082,083,084,,,,,,1.1,0.7,0.8*1D
$GPGSA,A,3,001,003,004,008,017,021,022,031,032,,,,1.1,0.7,0.8*05
$GAGSA,A,3,105,109,136,,,,,,,,,,1.1,0.7,0.8*14
$GPRMC,053903.80,A,4442.0863,N,03957.9861,E,024.41626,324.6,241121,,,A*58
$GPGGA,053904.00,4442.0874,N,03957.9850,E,1,19,0.7,00166.5,M,0017.5,M,,*6E
$GLGSA,A,3,067,068,069,076,082,083,084,,,,,,1.1,0.7,0.8*1D
$GPGSA,A,3,001,003,004,008,017,021,022,031,032,,,,1.1,0.7,0.8*05
$GAGSA,A,3,105,109,136,,,,,,,,,,1.1,0.7,0.8*14
$GPGSV,6,1,24,001,62,301,49,003,32,282,49,004,07,222,46,008,16,209,47*71
$GPGSV,6,2,24,010,02,094,26,017,14,321,48,021,77,232,45,022,55,294,50*75
$GPGSV,6,3,24,031,31,125,34,032,44,053,41,067,39,043,39,068,69,308,50*70
$GPGSV,6,4,24,069,26,252,55,076,11,027,32,077,15,076,,082,28,175,53*76
$GPGSV,6,5,24,083,68,223,40,084,32,325,36,104,34,053,,105,34,230,47*77
$GPGSV,6,6,24,109,88,184,45,111,30,141,39,121,00,025,,136,75,231,46*76
$GPRMC,053904.00,A,4442.0874,N,03957.9850,E,024.25770,324.6,241121,,,A*53
$GPZDA,053904.00,24,11,2021,+00,00*41
$GPGGA,053904.20,4442.0885,N,03957.9839,E,1,19,0.7,00166.5,M,0017.5,M,,*6D
$GLGSA,A,3,067,068,069,076,082,083,084,,,,,,1.1,0.7,0.8*1D
$GPGSA,A,3,001,003,004,008,017,021,022,031,032,,,,1.1,0.7,0.8*05
$GAGSA,A,3,105,109,136,,,,,,,,,,1.1,0.7,0.8*14
$GPRMC,053904.20,A,4442.0885,N,03957.9839,E,024.42843,324.4,241121,,,A*5C
$GPGGA,053904.40,4442.0897,N,03957.9828,E,1,19,0.7,00166.5,M,0017.4,M,,*69
$GLGSA,A,3,067,068,069,076,082,083,084,,,,,,1.1,0.7,0.8*1D
$GPGSA,A,3,001,003,004,008,017,021,022,031,032,,,,1.1,0.7,0.8*05
$GAGSA,A,3,105,109,136,,,,,,,,,,1.1,0.7,0.8*14
$GPRMC,053904.40,A,4442.0897,N,03957.9828,E,024.50020,325.1,241121,,,A*53
$GPGGA,053904.60,4442.0908,N,03957.9818,E,1,19,0.7,00166.4,M,0017.5,M,,*6F
$GLGSA,A,3,067,068,069,076,082,083,084,,,,,,1.1,0.7,0.8*1D
$GPGSA,A,3,001,003,004,008,017,021,022,031,032,,,,1.1,0.7,0.8*05
$GAGSA,A,3,105,109,136,,,,,,,,,,1.1,0.7,0.8*14
$GPRMC,053904.60,A,4442.0908,N,03957.9818,E,024.43276,324.7,241121,,,A*51
$GPGGA,053904.80,4442.0919,N,03957.9807,E,1,19,0.7,00166.4,M,0017.5,M,,*6F
$GLGSA,A,3,067,068,069,076,082,083,084,,,,,,1.1,0.7,0.8*1D
$GPGSA,A,3,001,003,004,008,017,021,022,031,032,,,,1.1,0.7,0.8*05
$GAGSA,A,3,105,109,136,,,,,,,,,,1.1,0.7,0.8*14
$GPRMC,053904.80,A,4442.0919,N,03957.9807,E,024.46609,324.8,241121,,,A*57
$GPGGA,053905.00,4442.0930,N,03957.9796,E,1,19,0.7,00166.4,M,0017.5,M,,*6A
$GLGSA,A,3,067,068,069,076,082,083,084,,,,,,1.1,0.7,0.8*1D
$GPGSA,A,3,001,003,004,008,017,021,022,031,032,,,,1.1,0.7,0.8*05
$GAGSA,A,3,105,109,136,,,,,,,,,,1.1,0.7,0.8*14
$GPGSV,6,1,24,001,62,301,49,003,32,282,50,004,07,222,47,008,16,209,47*78
$GPGSV,6,2,24,010,02,094,27,017,14,321,48,021,77,232,45,022,55,294,50*74
$GPGSV,6,3,24,031,31,125,35,032,44,053,41,067,39,043,40,068,69,308,50*7F
$GPGSV,6,4,24,069,26,252,54,076,11,027,33,077,15,076,,082,28,175,53*76
$GPGSV,6,5,24,083,68,223,40,084,32,325,36,104,34,053,,105,34,230,48*78
$GPGSV,6,6,24,109,88,184,44,111,30,141,38,121,00,025,,136,75,231,45*75
$GPRMC,053905.00,A,4442.0930,N,03957.9796,E,024.40392,324.6,241121,,,A*5D
$GPZDA,053905.00,24,11,2021,+00,00*40
$GPGGA,053905.20,4442.0942,N,03957.9785,E,1,19,0.7,00166.4,M,0017.5,M,,*6F
$GLGSA,A,3,067,068,069,076,082,083,084,,,,,,1.1,0.7,0.8*1D
$GPGSA,A,3,001,003,004,008,017,021,022,031,032,,,,1.1,0.7,0.8*05
$GAGSA,A,3,105,109,136,,,,,,,,,,1.1,0.7,0.8*14
$GPRMC,053905.20,A,4442.0942,N,03957.9785,E,024.46382,324.7,241121,,,A*5E
$GPGGA,053905.40,4442.0953,N,03957.9774,E,1,19,0.7,00166.3,M,0017.5,M,,*60
$GLGSA,A,3,067,068,069,076,082,083,084,,,,,,1.1,0.7,0.8*1D
$GPGSA,A,3,001,003,004,008,017,021,022,031,032,,,,1.1,0.7,0.8*05
$GAGSA,A,3,105,109,136,,,,,,,,,,1.1,0.7,0.8*14
$GPRMC,053905.40,A,4442.0953,N,03957.9774,E,024.48989,324.7,241121,,,A*59
$GPGGA,053905.60,4442.0964,N,03957.9764,E,1,19,0.7,00166.3,M,0017.5,M,,*67
$GLGSA,A,3,067,068,069,076,082,083,084,,,,,,1.1,0.7,0.8*1D
$GPGSA,A,3,001,003,004,008,017,021,022,031,032,,,,1.1,0.7,0.8*05
$GAGSA,A,3,105,109,136,,,,,,,,,,1.1,0.7,0.8*14
$GPRMC,053905.60,A,4442.0964,N,03957.9764,E,024.43485,324.9,241121,,,A*5A
$GPGGA,053905.80,4442.0975,N,03957.9753,E,1,19,0.7,00166.3,M,0017.5,M,,*6D
$GLGSA,A,3,067,068,069,076,082,083,084,,,,,,1.1,0.7,0.8*1D
$GPGSA,A,3,001,003,004,008,017,021,022,031,032,,,,1.1,0.7,0.8*05
$GAGSA,A,3,105,109,136,,,,,,,,,,1.1,0.7,0.8*14
$GPRMC,053905.80,A,4442.0975,N,03957.9753,E,024.32547,324.4,241121,,,A*54
$GPGGA,053906.00,4442.0987,N,03957.9742,E,1,19,0.7,00166.3,M,0017.5,M,,*6B
$GLGSA,A,3,067,068,069,076,082,083,084,,,,,,1.1,0.7,0.8*1D
$GPGSA,A,3,001,003,004,008,017,021,022,031,032,,,,1.1,0.7,0.8*05
$GAGSA,A,3,105,109,136,,,,,,,,,,1.1,0.7,0.8*14
$GPGSV,6,1,24,001,62,301,49,003,32,282,49,004,07,222,49,008,16,209,46*7F
$GPGSV,6,2,24,010,02,094,28,017,14,321,48,021,77,232,45,022,55,294,50*7B
$GPGSV,6,3,24,031,31,125,34,032,44,053,41,067,39,043,40,068,69,308,50*7E
$GPGSV,6,4,24,069,26,252,54,076,11,027,33,077,15,076,,082,28,175,53*76
$GPGSV,6,5,24,083,68,223,40,084,32,325,37,104,34,053,,105,34,230,48*79
$GPGSV,6,6,24,109,88,184,45,111,30,141,38,121,00,024,,136,75,231,45*75
$GPRMC,053906.00,A,4442.0987,N,03957.9742,E,024.43240,324.4,241121,,,A*54
$GPZDA,053906.00,24,11,2021,+00,00*43
$GPGGA,053906.20,4442.0998,N,03957.9731,E,1,19,0.7,00166.2,M,0017.4,M,,*63
$GLGSA,A,3,067,068,069,076,082,083,084,,,,,,1.1,0.7,0.8*1D
$GPGSA,A,3,001,003,004,008,017,021,022,031,032,,,,1.1,0.7,0.8*05
$GAGSA,A,3,105,109,136,,,,,,,,,,1.1,0.7,0.8*14
$GPRMC,053906.20,A,4442.0998,N,03957.9731,E,024.43729,324.9,241121,,,A*5B
$GPGGA,053906.40,4442.1009,N,03957.9720,E,1,19,0.7,00166.2,M,0017.5,M,,*64
$GLGSA,A,3,067,068,069,076,082,083,084,,,,,,1.1,0.7,0.8*1D
$GPGSA,A,3,001,003,004,008,017,021,022,031,032,,,,1.1,0.7,0.8*05
$GAGSA,A,3,105,109,136,,,,,,,,,,1.1,0.7,0.8*14
$GPRMC,053906.40,A,4442.1009,N,03957.9720,E,024.47405,324.6,241121,,,A*5B
$GPGGA,053906.60,4442.1020,N,03957.9709,E,1,19,0.7,00166.2,M,0017.5,M,,*66
$GLGSA,A,3,067,068,069,076,082,083,084,,,,,,1.1,0.7,0.8*1D
$GPGSA,A,3,001,003,004,008,017,021,022,031,032,,,,1.1,0.7,0.8*05
$GAGSA,A,3,105,109,136,,,,,,,,,,1.1,0.7,0.8*14
$GPRMC,053906.60,A,4442.1020,N,03957.9709,E,024.43708,324.7,241121,,,A*52
$GPGGA,053906.80,4442.1031,N,03957.9698,E,1,19,0.7,00166.2,M,0017.5,M,,*61
$GLGSA,A,3,067,068,069,076,082,083,084,,,,,,1.1,0.7,0.8*1D
$GPGSA,A,3,001,003,004,008,017,021,022,031,032,,,,1.1,0.7,0.8*05
$GAGSA,A,3,105,109,136,,,,,,,,,,1.1,0.7,0.8*14
$GPRMC,053906.80,A,4442.1031,N,03957.9698,E,024.46193,324.2,241121,,,A*51
$GPGGA,053907.00,4442.1042,N,03957.9687,E,1,19,0.7,00166.2,M,0017.5,M,,*62
$GLGSA,A,3,067,068,069,076,082,083,084,,,,,,1.1,0.7,0.8*1D
$GPGSA,A,3,001,003,004,008,017,021,022,031,032,,,,1.1,0.7,0.8*05
$GAGSA,A,3,105,109,136,,,,,,,,,,1.1,0.7,0.8*14
$GPGSV,6,1,24,001,62,301,49,003,32,282,49,004,07,222,50,008,16,209,47*76
$GPGSV,6,2,24,010,02,094,27,017,14,321,47,021,77,232,45,022,55,294,50*7B
$GPGSV,6,3,24,031,31,125,34,032,44,053,42,067,39,043,39,068,69,308,50*73
$GPGSV,6,4,24,069,26,252,55,076,11,027,30,077,15,076,,082,28,175,53*74
$GPGSV,6,5,24,083,68,223,40,084,32,325,37,104,34,053,,105,34,230,48*79
$GPGSV,6,6,24,109,88,184,44,111,30,141,38,121,00,024,,136,75,231,45*74
$GPRMC,053907.00,A,4442.1042,N,03957.9687,E,024.46690,324.9,241121,,,A*5D
$GPZDA,053907.00,24,11,2021,+00,00*42
$GPGGA,053907.20,4442.1054,N,03957.9676,E,1,19,0.7,00166.2,M,0017.5,M,,*69
$GLGSA,A,3,067,068,069,076,082,083,084,,,,,,1.1,0.7,0.8*1D
$GPGSA,A,3,001,003,004,008,017,021,022,031,032,,,,1.1,0.7,0.8*05
$GAGSA,A,3,105,109,136,,,,,,,,,,1.1,0.7,0.8*14
$GPRMC,053907.20,A,4442.1054,N,03957.9676,E,024.50434,324.5,241121,,,A*51
$GPGGA,053907.40,4442.1065,N,03957.9665,E,1,19,0.7,00166.2,M,0017.4,M,,*6E
$GLGSA,A,3,067,068,069,076,082,083,084,,,,,,1.1,0.7,0.8*1D
$GPGSA,A,3,001,003,004,008,017,021,022,031,032,,,,1.1,0.7,0.8*05
$GAGSA,A,3,105,109,136,,,,,,,,,,1.1,0.7,0.8*14
$GPRMC,053907.40,A,4442.1065,N,03957.9665,E,024.46270,325.3,241121,,,A*51
$GPGGA,053907.60,4442.1076,N,03957.9655,E,1,19,0.7,00166.1,M,0017.5,M,,*6F
$GLGSA,A,3,067,068,069,076,082,083,084,,,,,,1.1,0.7,0.8*1D
$GPGSA,A,3,001,003,004,008,017,021,022,031,032,,,,1.1,0.7,0.8*05
$GAGSA,A,3,105,109,136,,,,,,,,,,1.1,0.7,0.8*14
$GPRMC,053907.60,A,4442.1076,N,03957.9655,E,024.51996,324.5,241121,,,A*50
$GPGGA,053907.80,4442.1087,N,03957.9643,E,1,19,0.7,00166.1,M,0017.5,M,,*68
$GLGSA,A,3,067,068,069,076,082,083,084,,,,,,1.1,0.7,0.8*1D
$GPGSA,A,3,001,003,004,008,017,021,022,031,032,,,,1.1,0.7,0.8*05
$GAGSA,A,3,105,109,136,,,,,,,,,,1.1,0.7,0.8*14
$GPRMC,053907.80,A,4442.1087,N,03957.9643,E,024.43410,324.6,241121,,,A*54
$GPGGA,053908.00,4442.1098,N,03957.9633,E,1,19,0.7,00166.1,M,0017.5,M,,*66
$GLGSA,A,3,067,068,069,076,082,083,084,,,,,,1.1,0.7,0.8*1D
$GPGSA,A,3,001,003,004,008,017,021,022,031,032,,,,1.1,0.7,0.8*05
$GAGSA,A,3,105,109,136,,,,,,,,,,1.1,0.7,0.8*14
$GPGSV,6,1,24,001,62,301,49,003,32,282,47,004,07,222,50,008,16,209,47*78
$GPGSV,6,2,24,010,02,094,24,017,14,321,47,021,77,232,45,022,55,294,50*78
$GPGSV,6,3,24,031,31,125,34,032,44,053,42,067,39,043,39,068,69,308,50*73
$GPGSV,6,4,24,069,26,252,55,076,11,027,29,077,15,076,,082,28,175,52*7D
$GPGSV,6,5,24,083,68,223,40,084,32,325,37,104,34,053,,105,34,230,47*76
$GPGSV,6,6,24,109,88,184,44,111,30,141,38,121,00,024,,136,75,231,45*74
$GPRMC,053908.00,A,4442.1098,N,03957.9633,E,024.49635,324.8,241121,,,A*5B
$GPZDA,053908.00,24,11,2021,+00,00*4D
$GPGGA,053908.20,4442.1110,N,03957.9622,E,1,19,0.7,00166.0,M,0017.5,M,,*64
$GLGSA,A,3,067,068,069,076,082,083,084,,,,,,1.1,0.7,0.8*1D
$GPGSA,A,3,001,003,004,008,017,021,022,031,032,,,,1.1,0.7,0.8*05
$GAGSA,A,3,105,109,136,,,,,,,,,,1.1,0.7,0.8*14
$GPRMC,053908.20,A,4442.1110,N,03957.9622,E,024.54708,324.4,241121,,,A*57
$GPGGA,053908.40,4442.1121,N,03957.9611,E,1,19,0.7,00166.0,M,0017.5,M,,*60
$GLGSA,A,3,067,068,069,076,082,083,084,,,,,,1.1,0.7,0.8*1D
$GPGSA,A,3,001,003,004,008,017,021,022,031,032,,,,1.1,0.7,0.8*05
$GAGSA,A,3,105,109,136,,,,,,,,,,1.1,0.7,0.8*14
$GPRMC,053908.40,A,4442.1121,N,03957.9611,E,024.37860,324.7,241121,,,A*54
$GPGGA,053908.60,4442.1132,N,03957.9600,E,1,19,0.7,00166.0,M,0017.5,M,,*60
$GLGSA,A,3,067,068,069,076,082,083,084,,,,,,1.1,0.7,0.8*1D
$GPGSA,A,3,001,003,004,008,017,021,022,031,032,,,,1.1,0.7,0.8*05
$GAGSA,A,3,105,109,136,,,,,,,,,,1.1,0.7,0.8*14
$GPRMC,053908.60,A,4442.1132,N,03957.9600,E,024.53088,324.2,241121,,,A*5D
$GPGGA,053908.80,4442.1143,N,03957.9589,E,1,19,0.7,00166.0,M,0017.5,M,,*6A
$GLGSA,A,3,067,068,069,076,082,083,084,,,,,,1.1,0.7,0.8*1D
$GPGSA,A,3,001,003,004,008,017,021,022,031,032,,,,1.1,0.7,0.8*05
$GAGSA,A,3,105,109,136,,,,,,,,,,1.1,0.7,0.8*14
$GPRMC,053908.80,A,4442.1143,N,03957.9589,E,024.49227,324.7,241121,,,A*5E
$GPGGA,053909.00,4442.1154,N,03957.9578,E,1,19,0.7,00166.0,M,0017.5,M,,*6B
$GLGSA,A,3,067,068,069,076,082,083,084,,,,,,1.1,0.7,0.8*1D
$GPGSA,A,3,001,003,004,008,017,021,022,031,032,,,,1.1,0.7,0.8*05
$GAGSA,A,3,105,109,136,,,,,,,,,,1.1,0.7,0.8*14
$GPGSV,6,1,24,001,62,301,49,003,32,282,49,004,07,222,52,008,16,209,45*76
$GPGSV,6,2,24,010,02,094,25,017,14,321,47,021,77,232,45,022,55,294,50*79
$GPGSV,6,3,24,031,31,125,33,032,44,053,41,067,39,043,39,068,69,308,50*77
$GPGSV,6,4,24,069,26,252,55,076,11,027,30,077,15,076,,082,28,175,52*75
$GPGSV,6,5,24,083,68,223,40,084,32,325,37,104,34,053,,105,34,230,47*76
$GPGSV,6,6,24,109,88,183,45,111,30,141,38,121,00,024,,136,75,231,45*72
$GPRMC,053909.00,A,4442.1154,N,03957.9578,E,024.40468,324.8,241121,,,A*54
$GPZDA,053909.00,24,11,2021,+00,00*4C
$GPGGA,053909.20,4442.1165,N,03957.9567,E,1,19,0.7,00166.0,M,0017.5,M,,*65
$GLGSA,A,3,067,068,069,076,082,083,084,,,,,,1.1,0.7,0.8*1D
$GPGSA,A,3,001,003,004,008,017,021,022,031,032,,,,1.1,0.7,0.8*05
$GAGSA,A,3,105,109,136,,,,,,,,,,1.1,0.7,0.8*14
$GPRMC,053909.20,A,4442.1165,N,03957.9567,E,024.40618,324.5,241121,,,A*52
$GPGGA,053909.40,4442.1176,N,03957.9556,E,1,19,0.7,00166.0,M,0017.5,M,,*63
$GLGSA,A,3,067,068,069,076,082,083,084,,,,,,1.1,0.7,0.8*1D
$GPGSA,A,3,001,003,004,008,017,021,022,031,032,,,,1.1,0.7,0.8*05
$GAGSA,A,3,105,109,136,,,,,,,,,,1.1,0.7,0.8*14
$GPRMC,053909.40,A,4442.1176,N,03957.9556,E,024.35421,324.8,241121,,,A*53
$GPGGA,053909.60,4442.1187,N,03957.9545,E,1,19,0.7,00165.9,M,0017.5,M,,*67
$GLGSA,A,3,067,068,069,076,082,083,084,,,,,,1.1,0.7,0.8*1D
$GPGSA,A,3,001,003,004,008,017,021,022,031,032,,,,1.1,0.7,0.8*05
$GAGSA,A,3,105,109,136,,,,,,,,,,1.1,0.7,0.8*14
$GPRMC,053909.60,A,4442.1187,N,03957.9545,E,024.36993,324.5,241121,,,A*57
$GPGGA,053909.80,4442.1198,N,03957.9534,E,1,19,0.7,00166.0,M,0017.5,M,,*6B
$GLGSA,A,3,067,068,069,076,082,083,084,,,,,,1.1,0.7,0.8*1D
$GPGSA,A,3,001,003,004,008,017,021,022,031,032,,,,1.1,0.7,0.8*05
$GAGSA,A,3,105,109,136,,,,,,,,,,1.1,0.7,0.8*14
$GPRMC,053909.80,A,4442.1198,N,03957.9534,E,024.31011,324.8,241121,,,A*58
$GPGGA,053910.00,4442.1209,N,03957.9523,E,1,19,0.7,00165.9,M,0017.4,M,,*6D
$GLGSA,A,3,067,068,069,076,082,083,084,,,,,,1.1,0.7,0.8*1D
$GPGSA,A,3,001,003,004,008,017,021,022,031,032,,,,1.1,0.7,0.8*05
$GAGSA,A,3,105,109,136,,,,,,,,,,1.1,0.7,0.8*14
$GPGSV,6,1,24,001,62,301,49,003,32,282,49,004,07,222,51,008,16,209,45*75
$GPGSV,6,2,24,010,02,094,24,017,14,321,47,021,77,232,45,022,55,294,50*78
$GPGSV,6,3,24,031,31,125,37,032,44,053,41,067,39,043,39,068,69,308,50*73
$GPGSV,6,4,24,069,26,252,55,076,11,027,26,077,15,076,,082,28,175,53*73
$GPGSV,6,5,24,083,68,223,40,084,32,325,37,104,34,053,,105,34,230,48*79
$GPGSV,6,6,24,109,88,183,45,111,30,141,38,121,00,024,,136,75,231,44*73
$GPRMC,053910.00,A,4442.1209,N,03957.9523,E,024.30947,324.4,241121,,,A*52
$GPZDA,053910.00,24,11,2021,+00,00*44
$GPGGA,053910.20,4442.1220,N,03957.9512,E,1,19,0.7,00165.9,M,0017.5,M,,*67
$GLGSA,A,3,067,068,069,076,082,083,084,,,,,,1.1,0.7,0.8*1D
$GPGSA,A,3,001,003,004,008,017,021,022,031,032,,,,1.1,0.7,0.8*05
$GAGSA,A,3,105,109,136,,,,,,,,,,1.1,0.7,0.8*14
$GPRMC,053910.20,A,4442.1220,N,03957.9512,E,024.21832,324.7,241121,,,A*59
$GPGGA,053910.40,4442.1231,N,03957.9501,E,1,19,0.7,00165.9,M,0017.5,M,,*63
$GLGSA,A,3,067,068,069,076,082,083,084,,,,,,1.1,0.7,0.8*1D
$GPGSA,A,3,001,003,004,008,017,021,022,031,032,,,,1.1,0.7,0.8*05
$GAGSA,A,3,105,109,136,,,,,,,,,,1.1,0.7,0.8*14
$GPRMC,053910.40,A,4442.1231,N,03957.9501,E,024.22008,324.4,241121,,,A*5C
$GPGGA,053910.60,4442.1242,N,03957.9490,E,1,19,0.7,00165.9,M,0017.5,M,,*6C
$GLGSA,A,3,067,068,069,076,082,083,084,,,,,,1.1,0.7,0.8*1D
$GPGSA,A,3,001,003,004,008,017,021,022,031,032,,,,1.1,0.7,0.8*05
$GAGSA,A,3,105,109,136,,,,,,,,,,1.1,0.7,0.8*14
$GPRMC,053910.60,A,4442.1242,N,03957.9490,E,024.12263,324.3,241121,,,A*58
$GPGGA,053910.80,4442.1253,N,03957.9479,E,1,19,0.7,00165.8,M,0017.5,M,,*64
$GLGSA,A,3,067,068,069,076,082,083,084,,,,,,1.1,0.7,0.8*1D
$GPGSA,A,3,001,003,004,008,017,021,022,031,032,,,,1.1,0.7,0.8*05
$GAGSA,A,3,105,109,136,,,,,,,,,,1.1,0.7,0.8*14
$GPRMC,053910.80,A,4442.1253,N,03957.9479,E,024.20228,324.7,241121,,,A*5B
$GPGGA,053911.00,4442.1264,N,03957.9468,E,1,19,0.7,00165.8,M,0017.5,M,,*69
$GLGSA,A,3,067,068,069,076,082,083,084,,,,,,1.1,0.7,0.8*1D
$GPGSA,A,3,001,003,004,008,017,021,022,031,032,,,,1.1,0.7,0.8*05
$GAGSA,A,3,105,109,136,,,,,,,,,,1.1,0.7,0.8*14
$GPGSV,6,1,24,001,62,301,49,003,32,282,49,004,07,222,49,008,16,209,45*7C
$GPGSV,6,2,24,010,02,094,25,017,14,321,47,021,77,232,45,022,55,294,50*79
$GPGSV,6,3,24,031,31,125,36,032,44,053,41,067,38,043,38,068,69,308,50*72
$GPGSV,6,4,24,069,26,252,55,076,11,027,27,077,15,076,,082,28,175,53*72
$GPGSV,6,5,24,083,68,223,40,084,32,325,37,104,34,053,,105,34,230,49*78
$GPGSV,6,6,24,109,88,183,45,111,30,141,38,121,00,024,,136,75,231,44*73
$GPRMC,053911.00,A,4442.1264,N,03957.9468,E,024.09387,324.8,241121,,,A*56
$GPZDA,053911.00,24,11,2021,+00,00*45
$GPGGA,053911.20,4442.1275,N,03957.9458,E,1,19,0.7,00165.8,M,0017.5,M,,*68
$GLGSA,A,3,067,068,069,076,082,083,084,,,,,,1.1,0.7,0.8*1D
$GPGSA,A,3,001,003,004,008,017,021,022,031,032,,,,1.1,0.7,0.8*05
$GAGSA,A,3,105,109,136,,,,,,,,,,1.1,0.7,0.8*14
$GPRMC,053911.20,A,4442.1275,N,03957.9458,E,024.10928,324.8,241121,,,A*50
$GPGGA,053911.40,4442.1286,N,03957.9447,E,1,19,0.7,00165.8,M,0017.5,M,,*6C
$GLGSA,A,3,067,068,069,076,082,083,084,,,,,,1.1,0.7,0.8*1D
$GPGSA,A,3,001,003,004,008,017,021,022,031,032,,,,1.1,0.7,0.8*05
$GAGSA,A,3,105,109,136,,,,,,,,,,1.1,0.7,0.8*14
$GPRMC,053911.40,A,4442.1286,N,03957.9447,E,023.99959,325.0,241121,,,A*5D
$GPGGA,053911.60,4442.1297,N,03957.9436,E,1,19,0.7,00165.7,M,0017.5,M,,*67
$GLGSA,A,3,067,068,069,076,082,083,084,,,,,,1.1,0.7,0.8*1D
$GPGSA,A,3,001,003,004,008,017,021,022,031,032,,,,1.1,0.7,0.8*05
$GAGSA,A,3,105,109,136,,,,,,,,,,1.1,0.7,0.8*14
$GPRMC,053911.60,A,4442.1297,N,03957.9436,E,023.97092,324.8,241121,,,A*50
$GPGGA,053911.80,4442.1308,N,03957.9425,E,1,19,0.7,00165.7,M,0017.5,M,,*6C
$GLGSA,A,3,067,068,069,076,082,083,084,,,,,,1.1,0.7,0.8*1D
$GPGSA,A,3,001,003,004,008,017,021,022,031,032,,,,1.1,0.7,0.8*05
$GAGSA,A,3,105,109,136,,,,,,,,,,1.1,0.7,0.8*14
$GPRMC,053911.80,A,4442.1308,N,03957.9425,E,023.91882,324.9,241121,,,A*55
$GPGGA,053912.00,4442.1318,N,03957.9415,E,1,19,0.7,00165.7,M,0017.5,M,,*65
$GLGSA,A,3,067,068,069,076,082,083,084,,,,,,1.1,0.7,0.8*1D
$GPGSA,A,3,001,003,004,008,017,021,022,031,032,,,,1.1,0.7,0.8*05
$GAGSA,A,3,105,109,136,,,,,,,,,,1.1,0.7,0.8*14
$GPGSV,6,1,24,001,62,301,49,003,32,282,49,004,07,222,49,008,16,209,45*7C
$GPGSV,6,2,24,010,02,094,24,017,14,321,47,021,77,232,45,022,55,294,50*78
$GPGSV,6,3,24,031,31,125,35,032,44,053,41,067,38,043,39,068,69,308,50*70
$GPGSV,6,4,24,069,26,252,54,076,11,027,26,077,15,076,,082,28,175,54*75
$GPGSV,6,5,24,083,68,223,40,084,32,325,37,104,34,053,,105,34,230,49*78
$GPGSV,6,6,24,109,88,183,44,111,30,141,38,121,00,024,,136,75,231,45*73
$GPRMC,053912.00,A,4442.1318,N,03957.9415,E,023.87350,324.8,241121,,,A*5E
$GPZDA,053912.00,24,11,2021,+00,00*46
$GPGGA,053912.20,4442.1329,N,03957.9404,E,1,19,0.7,00165.6,M,0017.5,M,,*64
$GLGSA,A,3,067,068,069,076,082,083,084,,,,,,1.1,0.7,0.8*1D
$GPGSA,A,3,001,003,004,008,017,021,022,031,032,,,,1.1,0.7,0.8*05
$GAGSA,A,3,105,109,136,,,,,,,,,,1.1,0.7,0.8*14
$GPRMC,053912.20,A,4442.1329,N,03957.9404,E,023.84446,325.0,241121,,,A*54
$GPGGA,053912.40,4442.1340,N,03957.9393,E,1,19,0.7,00165.6,M,0017.5,M,,*64
$GLGSA,A,3,067,068,069,076,082,083,084,,,,,,1.1,0.7,0.8*1D
$GPGSA,A,3,001,003,004,008,017,021,022,031,032,,,,1.1,0.7,0.8*05
$GAGSA,A,3,105,109,136,,,,,,,,,,1.1,0.7,0.8*14
$GPRMC,053912.40,A,4442.1340,N,03957.9393,E,023.77399,324.9,241121,,,A*55
$GPGGA,053912.60,4442.1351,N,03957.9383,E,1,19,0.7,00165.6,M,0017.5,M,,*67
$GLGSA,A,3,067,068,069,076,082,083,084,,,,,,1.1,0.7,0.8*1D
$GPGSA,A,3,001,003,004,008,017,021,022,031,032,,,,1.1,0.7,0.8*05
$GAGSA,A,3,105,109,136,,,,,,,,,,1.1,0.7,0.8*14
$GPRMC,053912.60,A,4442.1351,N,03957.9383,E,023.81703,324.7,241121,,,A*56
$GPGGA,053912.80,4442.1362,N,03957.9372,E,1,19,0.7,00165.6,M,0017.5,M,,*67
$GLGSA,A,3,067,068,069,076,082,083,084,,,,,,1.1,0.7,0.8*1D
$GPGSA,A,3,001,003,004,008,017,021,022,031,032,,,,1.1,0.7,0.8*05
$GAGSA,A,3,105,109,136,,,,,,,,,,1.1,0.7,0.8*14
$GPRMC,053912.80,A,4442.1362,N,03957.9372,E,023.76573,324.6,241121,,,A*5A
$GPGGA,053913.00,4442.1373,N,03957.9361,E,1,19,0.7,00165.6,M,0017.5,M,,*6C
$GLGSA,A,3,067,068,069,076,082,083,084,,,,,,1.1,0.7,0.8*1D
$GPGSA,A,3,001,003,004,008,017,021,022,031,032,,,,1.1,0.7,0.8*05
$GAGSA,A,3,105,109,136,,,,,,,,,,1.1,0.7,0.8*14
$GPGSV,6,1,24,001,62,301,49,003,32,282,50,004,07,222,50,008,16,209,46*7F
$GPGSV,6,2,24,010,02,094,24,017,14,321,48,021,77,232,45,022,55,294,50*77
$GPGSV,6,3,24,031,31,125,34,032,44,053,41,067,38,043,40,068,69,308,50*7F
$GPGSV,6,4,24,069,26,252,54,076,11,027,29,077,15,076,,082,28,175,53*7D
$GPGSV,6,5,24,083,68,223,39,084,32,325,38,104,34,053,,105,34,230,49*79
$GPGSV,6,6,24,109,88,183,44,111,30,141,39,121,00,024,,136,75,231,45*72
$GPRMC,053913.00,A,4442.1373,N,03957.9361,E,023.64769,324.6,241121,,,A*5B
$GPZDA,053913.00,24,11,2021,+00,00*47
$GPGGA,053913.20,4442.1384,N,03957.9351,E,1,19,0.7,00165.6,M,0017.4,M,,*64
$GLGSA,A,3,067,068,069,076,082,083,084,,,,,,1.1,0.7,0.8*1D
$GPGSA,A,3,001,003,004,008,017,021,022,031,032,,,,1.1,0.7,0.8*05
$GAGSA,A,3,105,109,136,,,,,,,,,,1.1,0.7,0.8*14
$GPRMC,053913.20,A,4442.1384,N,03957.9351,E,023.46193,325.1,241121,,,A*57
$GPGGA,053913.40,4442.1394,N,03957.9340,E,1,19,0.7,00165.6,M,0017.5,M,,*62
$GLGSA,A,3,067,068,069,076,082,083,084,,,,,,1.1,0.7,0.8*1D
$GPGSA,A,3,001,003,004,008,017,021,022,031,032,,,,1.1,0.7,0.8*05
$GAGSA,A,3,105,109,136,,,,,,,,,,1.1,0.7,0.8*14
$GPRMC,053913.40,A,4442.1394,N,03957.9340,E,023.45089,324.6,241121,,,A*5F
$GPGGA,053913.60,4442.1405,N,03957.9329,E,1,19,0.7,00165.5,M,0017.5,M,,*63
$GLGSA,A,3,067,068,069,076,082,083,084,,,,,,1.1,0.7,0.8*1D
$GPGSA,A,3,001,003,004,008,017,021,022,031,032,,,,1.1,0.7,0.8*05
$GAGSA,A,3,105,109,136,,,,,,,,,,1.1,0.7,0.8*14
$GPRMC,053913.60,A,4442.1405,N,03957.9329,E,023.23293,324.9,241121,,,A*5B
$GPGGA,053913.80,4442.1416,N,03957.9319,E,1,18,0.7,00165.5,M,0017.5,M,,*6D
$GLGSA,A,3,067,068,069,082,083,084,,,,,,,1.2,0.7,1.0*26
$GPGSA,A,3,001,003,004,008,017,021,022,031,032,,,,1.2,0.7,1.0*0F
$GAGSA,A,3,105,109,136,,,,,,,,,,1.2,0.7,1.0*1E
$GPRMC,053913.80,A,4442.1416,N,03957.9319,E,023.15931,324.3,241121,,,A*58
$GPGGA,053914.00,4442.1426,N,03957.9308,E,1,19,0.7,00165.5,M,0017.5,M,,*60
$GLGSA,A,3,067,068,069,076,082,083,084,,,,,,1.1,0.7,0.8*1D
$GPGSA,A,3,001,003,004,008,017,021,022,031,032,,,,1.1,0.7,0.8*05
$GAGSA,A,3,105,109,136,,,,,,,,,,1.1,0.7,0.8*14
$GPGSV,7,1,25,001,62,301,49,003,32,282,49,004,07,222,50,008,16,209,45*74
$GPGSV,7,2,25,010,02,094,23,017,14,321,47,019,06,331,,021,77,231,45*79
$GPGSV,7,3,25,022,55,294,49,031,31,125,35,032,44,053,40,067,38,043,40*72
$GPGSV,7,4,25,068,69,308,49,069,26,252,55,076,11,027,27,077,15,076,*70
$GPGSV,7,5,25,082,28,175,53,083,68,223,39,084,32,325,37,104,34,053,*7C
$GPGSV,7,6,25,105,34,230,49,109,88,183,44,111,30,141,40,121,00,024,*74
$GPGSV,7,7,25,136,75,231,45*79
$GPRMC,053914.00,A,4442.1426,N,03957.9308,E,023.00133,323.7,241121,,,A*59
$GPZDA,053914.00,24,11,2021,+00,00*40
$GPGGA,053914.20,4442.1436,N,03957.9298,E,1,19,0.7,00165.6,M,0017.4,M,,*69
$GLGSA,A,3,067,068,069,076,082,083,084,,,,,,1.1,0.7,0.8*1D
$GPGSA,A,3,001,003,004,008,017,021,022,031,032,,,,1.1,0.7,0.8*05
$GAGSA,A,3,105,109,136,,,,,,,,,,1.1,0.7,0.8*14
$GPRMC,053914.20,A,4442.1436,N,03957.9298,E,022.71796,324.8,241121,,,A*54
$GPGGA,053914.40,4442.1447,N,03957.9288,E,1,19,0.7,00165.6,M,0017.4,M,,*68
$GLGSA,A,3,067,068,069,076,082,083,084,,,,,,1.1,0.7,0.8*1D
$GPGSA,A,3,001,003,004,008,017,021,022,031,032,,,,1.1,0.7,0.8*05
$GAGSA,A,3,105,109,136,,,,,,,,,,1.1,0.7,0.8*14
$GPRMC,053914.40,A,4442.1447,N,03957.9288,E,022.46831,324.5,241121,,,A*5E
$GPGGA,053914.60,4442.1457,N,03957.9278,E,1,19,0.7,00165.5,M,0017.5,M,,*66
$GLGSA,A,3,067,068,069,076,082,083,084,,,,,,1.1,0.7,0.8*1D
$GPGSA,A,3,001,003,004,008,017,021,022,031,032,,,,1.1,0.7,0.8*05
$GAGSA,A,3,105,109,136,,,,,,,,,,1.1,0.7,0.8*14
$GPRMC,053914.60,A,4442.1457,N,03957.9278,E,022.20626,324.5,241121,,,A*5A
$GPGGA,053914.80,4442.1467,N,03957.9267,E,1,19,0.7,00165.5,M,0017.5,M,,*65
$GLGSA,A,3,067,068,069,076,082,083,084,,,,,,1.1,0.7,0.8*1D
$GPGSA,A,3,001,003,004,008,017,021,022,031,032,,,,1.1,0.7,0.8*05
$GAGSA,A,3,105,109,136,,,,,,,,,,1.1,0.7,0.8*14
$GPRMC,053914.80,A,4442.1467,N,03957.9267,E,022.00700,324.6,241121,,,A*5D
$GPGGA,053915.00,4442.1477,N,03957.9258,E,1,19,0.7,00165.5,M,0017.5,M,,*61
$GLGSA,A,3,067,068,069,076,082,083,084,,,,,,1.1,0.7,0.8*1D
$GPGSA,A,3,001,003,004,008,017,021,022,031,032,,,,1.1,0.7,0.8*05
$GAGSA,A,3,105,109,136,,,,,,,,,,1.1,0.7,0.8*14
$GPGSV,7,1,25,001,62,301,48,003,32,282,50,004,07,222,48,008,16,209,46*77
$GPGSV,7,2,25,010,02,094,23,017,14,321,46,019,06,331,,021,77,231,45*78
$GPGSV,7,3,25,022,55,294,49,031,31,125,35,032,44,053,40,067,38,043,41*73
$GPGSV,7,4,25,068,69,308,50,069,26,252,55,076,11,027,28,077,15,076,*77
$GPGSV,7,5,25,082,28,175,53,083,68,223,39,084,32,325,37,104,34,053,*7C
$GPGSV,7,6,25,105,34,230,49,109,88,183,44,111,30,141,39,121,00,024,*7A
$GPGSV,7,7,25,136,75,231,44*78
$GPRMC,053915.00,A,4442.1477,N,03957.9258,E,021.70557,324.6,241121,,,A*5D
$GPZDA,053915.00,24,11,2021,+00,00*41
$GPGGA,053915.20,4442.1487,N,03957.9248,E,1,19,0.7,00165.5,M,0017.4,M,,*6C
$GLGSA,A,3,067,068,069,076,082,083,084,,,,,,1.1,0.7,0.8*1D
$GPGSA,A,3,001,003,004,008,017,021,022,031,032,,,,1.1,0.7,0.8*05
$GAGSA,A,3,105,109,136,,,,,,,,,,1.1,0.7,0.8*14
$GPRMC,053915.20,A,4442.1487,N,03957.9248,E,021.52151,324.8,241121,,,A*5D
$GPGGA,053915.40,4442.1496,N,03957.9238,E,1,19,0.7,00165.5,M,0017.4,M,,*6D
$GLGSA,A,3,067,068,069,076,082,083,084,,,,,,1.1,0.7,0.8*1D
$GPGSA,A,3,001,003,004,008,017,021,022,031,032,,,,1.1,0.7,0.8*05
$GAGSA,A,3,105,109,136,,,,,,,,,,1.1,0.7,0.8*14
$GPRMC,053915.40,A,4442.1496,N,03957.9238,E,021.24108,323.7,241121,,,A*59
$GPGGA,053915.60,4442.1506,N,03957.9228,E,1,19,0.7,00165.5,M,0017.5,M,,*67
$GLGSA,A,3,067,068,069,076,082,083,084,,,,,,1.1,0.7,0.8*1D
$GPGSA,A,3,001,003,004,008,017,021,022,031,032,,,,1.1,0.7,0.8*05
$GAGSA,A,3,105,109,136,,,,,,,,,,1.1,0.7,0.8*14
$GPRMC,053915.60,A,4442.1506,N,03957.9228,E,020.86276,325.1,241121,,,A*51
$GPGGA,053915.80,4442.1515,N,03957.9219,E,1,19,0.7,00165.5,M,0017.5,M,,*69
$GLGSA,A,3,067,068,069,076,082,083,084,,,,,,1.1,0.7,0.8*1D
$GPGSA,A,3,001,003,004,008,017,021,022,031,032,,,,1.1,0.7,0.8*05
$GAGSA,A,3,105,109,136,,,,,,,,,,1.1,0.7,0.8*14
$GPRMC,053915.80,A,4442.1515,N,03957.9219,E,020.72556,324.3,241121,,,A*52
$GPGGA,053916.00,4442.1525,N,03957.9210,E,1,19,0.7,00165.5,M,0017.5,M,,*68
$GLGSA,A,3,067,068,069,076,082,083,084,,,,,,1.1,0.7,0.8*1D
$GPGSA,A,3,001,003,004,008,017,021,022,031,032,,,,1.1,0.7,0.8*05
$GAGSA,A,3,105,109,136,,,,,,,,,,1.1,0.7,0.8*14
$GPGSV,7,1,25,001,62,301,49,003,32,282,50,004,07,222,48,008,16,209,47*77
$GPGSV,7,2,25,010,02,094,22,017,14,321,46,019,06,331,,021,77,231,45*79
$GPGSV,7,3,25,022,55,294,50,031,31,125,35,032,44,053,41,067,38,043,40*7B
$GPGSV,7,4,25,068,69,308,49,069,26,252,55,076,11,027,29,077,15,076,*7E
$GPGSV,7,5,25,082,28,175,53,083,68,223,39,084,32,325,37,104,34,053,*7C
$GPGSV,7,6,25,105,34,230,48,109,88,183,44,111,30,141,39,121,00,024,*7B
$GPGSV,7,7,25,136,75,231,45*79
$GPRMC,053916.00,A,4442.1525,N,03957.9210,E,020.36943,324.2,241121,,,A*5A
$GPZDA,053916.00,24,11,2021,+00,00*42
$GPGGA,053916.20,4442.1534,N,03957.9200,E,1,19,0.7,00165.5,M,0017.5,M,,*6B
$GLGSA,A,3,067,068,069,076,082,083,084,,,,,,1.1,0.7,0.8*1D
$GPGSA,A,3,001,003,004,008,017,021,022,031,032,,,,1.1,0.7,0.8*05
$GAGSA,A,3,105,109,136,,,,,,,,,,1.1,0.7,0.8*14
$GPRMC,053916.20,A,4442.1534,N,03957.9200,E,020.12288,324.4,241121,,,A*55
$GPGGA,053916.40,4442.1543,N,03957.9191,E,1,19,0.7,00165.5,M,0017.4,M,,*67
$GLGSA,A,3,067,068,069,076,082,083,084,,,,,,1.1,0.7,0.8*1D
$GPGSA,A,3,001,003,004,008,017,021,022,031,032,,,,1.1,0.7,0.8*05
$GAGSA,A,3,105,109,136,,,,,,,,,,1.1,0.7,0.8*14
$GPRMC,053916.40,A,4442.1543,N,03957.9191,E,019.82564,324.5,241121,,,A*5F
$GPGGA,053916.60,4442.1552,N,03957.9182,E,1,19,0.7,00165.5,M,0017.5,M,,*66
$GLGSA,A,3,067,068,069,076,082,083,084,,,,,,1.1,0.7,0.8*1D
$GPGSA,A,3,001,003,004,008,017,021,022,031,032,,,,1.1,0.7,0.8*05
$GAGSA,A,3,105,109,136,,,,,,,,,,1.1,0.7,0.8*14
$GPRMC,053916.60,A,4442.1552,N,03957.9182,E,019.49627,325.4,241121,,,A*5C
$GPGGA,053916.80,4442.1561,N,03957.9174,E,1,19,0.7,00165.5,M,0017.4,M,,*60
$GLGSA,A,3,067,068,069,076,082,083,084,,,,,,1.1,0.7,0.8*1D
$GPGSA,A,3,001,003,004,008,017,021,022,031,032,,,,1.1,0.7,0.8*05
$GAGSA,A,3,105,109,136,,,,,,,,,,1.1,0.7,0.8*14
$GPRMC,053916.80,A,4442.1561,N,03957.9174,E,019.25543,324.6,241121,,,A*53
$GPGGA,053917.00,4442.1570,N,03957.9165,E,1,19,0.7,00165.5,M,0017.4,M,,*69
$GLGSA,A,3,067,068,069,076,082,083,084,,,,,,1.1,0.7,0.8*1D
$GPGSA,A,3,001,003,004,008,017,021,022,031,032,,,,1.1,0.7,0.8*05
$GAGSA,A,3,105,109,136,,,,,,,,,,1.1,0.7,0.8*14
$GPGSV,7,1,25,001,62,301,49,003,32,282,48,004,07,222,47,008,16,209,47*71
$GPGSV,7,2,25,010,02,094,23,017,14,321,46,019,06,331,,021,77,231,45*78
$GPGSV,7,3,25,022,55,294,50,031,31,125,35,032,44,053,41,067,38,043,38*74
$GPGSV,7,4,25,068,69,309,50,069,26,252,54,076,11,027,32,077,15,076,*7C
$GPGSV,7,5,25,082,28,175,52,083,68,223,40,084,32,325,37,104,34,053,*73
$GPGSV,7,6,25,105,34,230,45,109,88,183,44,111,30,141,39,121,00,024,*76
$GPGSV,7,7,25,136,75,231,45*79
$GPRMC,053917.00,A,4442.1570,N,03957.9165,E,018.97591,325.1,241121,,,A*5B
$GPZDA,053917.00,24,11,2021,+00,00*43
$GPGGA,053917.20,4442.1579,N,03957.9157,E,1,19,0.7,00165.5,M,0017.5,M,,*62
$GLGSA,A,3,067,068,069,076,082,083,084,,,,,,1.1,0.7,0.8*1D
$GPGSA,A,3,001,003,004,008,017,021,022,031,032,,,,1.1,0.7,0.8*05
$GAGSA,A,3,105,109,136,,,,,,,,,,1.1,0.7,0.8*14
$GPRMC,053917.20,A,4442.1579,N,03957.9157,E,018.69265,324.4,241121,,,A*58
$GPGGA,053917.40,4442.1587,N,03957.9148,E,1,19,0.7,00165.5,M,0017.5,M,,*6B
$GLGSA,A,3,067,068,069,076,082,083,084,,,,,,1.1,0.7,0.8*1D
$GPGSA,A,3,001,003,004,008,017,021,022,031,032,,,,1.1,0.7,0.8*05
$GAGSA,A,3,105,109,136,,,,,,,,,,1.1,0.7,0.8*14
$GPRMC,053917.40,A,4442.1587,N,03957.9148,E,018.40255,324.4,241121,,,A*59
$GPGGA,053917.60,4442.1596,N,03957.9140,E,1,19,0.7,00165.4,M,0017.5,M,,*60
$GLGSA,A,3,067,068,069,076,082,083,084,,,,,,1.1,0.7,0.8*1D
$GPGSA,A,3,001,003,004,008,017,021,022,031,032,,,,1.1,0.7,0.8*05
$GAGSA,A,3,105,109,136,,,,,,,,,,1.1,0.7,0.8*14
$GPRMC,053917.60,A,4442.1596,N,03957.9140,E,018.15841,324.5,241121,,,A*5D
$GPGGA,053917.80,4442.1604,N,03957.9131,E,1,19,0.7,00165.4,M,0017.5,M,,*60
$GLGSA,A,3,067,068,069,076,082,083,084,,,,,,1.1,0.7,0.8*1D
$GPGSA,A,3,001,003,004,008,017,021,022,031,032,,,,1.1,0.7,0.8*05
$GAGSA,A,3,105,109,136,,,,,,,,,,1.1,0.7,0.8*14
$GPRMC,053917.80,A,4442.1604,N,03957.9131,E,017.88867,324.4,241121,,,A*53
$GPGGA,053918.00,4442.1612,N,03957.9123,E,1,19,0.7,00165.4,M,0017.5,M,,*63
$GLGSA,A,3,067,068,069,076,082,083,084,,,,,,1.1,0.7,0.8*1D
$GPGSA,A,3,001,003,004,008,017,021,022,031,032,,,,1.1,0.7,0.8*05
$GAGSA,A,3,105,109,136,,,,,,,,,,1.1,0.7,0.8*14
$GPGSV,7,1,25,001,62,301,49,003,32,282,49,004,07,222,46,008,16,209,47*71
$GPGSV,7,2,25,010,02,094,23,017,14,321,47,019,06,331,,021,77,231,45*79
$GPGSV,7,3,25,022,55,294,50,031,31,125,37,032,44,053,41,067,38,043,41*78
$GPGSV,7,4,25,068,69,309,50,069,26,252,54,076,11,027,34,077,15,076,*7A
$GPGSV,7,5,25,082,28,175,51,083,68,223,39,084,32,325,37,104,34,053,*7E
$GPGSV,7,6,25,105,34,230,45,109,88,183,45,111,30,141,39,121,00,024,*77
$GPGSV,7,7,25,136,75,231,45*79
$GPRMC,053918.00,A,4442.1612,N,03957.9123,E,017.53760,324.7,241121,,,A*5D
$GPZDA,053918.00,24,11,2021,+00,00*4C
$GPGGA,053918.20,4442.1620,N,03957.9115,E,1,19,0.7,00165.4,M,0017.5,M,,*65
$GLGSA,A,3,067,068,069,076,082,083,084,,,,,,1.1,0.7,0.8*1D
$GPGSA,A,3,001,003,004,008,017,021,022,031,032,,,,1.1,0.7,0.8*05
$GAGSA,A,3,105,109,136,,,,,,,,,,1.1,0.7,0.8*14
$GPRMC,053918.20,A,4442.1620,N,03957.9115,E,017.34975,324.1,241121,,,A*56
$GPGGA,053918.40,4442.1628,N,03957.9108,E,1,19,0.7,00165.4,M,0017.5,M,,*67
$GLGSA,A,3,067,068,069,076,082,083,084,,,,,,1.1,0.7,0.8*1D
$GPGSA,A,3,001,003,004,008,017,021,022,031,032,,,,1.1,0.7,0.8*05
$GAGSA,A,3,105,109,136,,,,,,,,,,1.1,0.7,0.8*14
$GPRMC,053918.40,A,4442.1628,N,03957.9108,E,017.01908,324.4,241121,,,A*5D
$GPGGA,053918.60,4442.1636,N,03957.9100,E,1,19,0.7,00165.4,M,0017.5,M,,*62
$GLGSA,A,3,067,068,069,076,082,083,084,,,,,,1.1,0.7,0.8*1D
$GPGSA,A,3,001,003,004,008,017,021,022,031,032,,,,1.1,0.7,0.8*05
$GAGSA,A,3,105,109,136,,,,,,,,,,1.1,0.7,0.8*14
$GPRMC,053918.60,A,4442.1636,N,03957.9100,E,016.75153,325.2,241121,,,A*5B
$GPGGA,053918.80,4442.1643,N,03957.9093,E,1,19,0.7,00165.4,M,0017.4,M,,*64
$GLGSA,A,3,067,068,069,076,082,083,084,,,,,,1.1,0.7,0.8*1D
$GPGSA,A,3,001,003,004,008,017,021,022,031,032,,,,1.1,0.7,0.8*05
$GAGSA,A,3,105,109,136,,,,,,,,,,1.1,0.7,0.8*14
$GPRMC,053918.80,A,4442.1643,N,03957.9093,E,016.45280,324.7,241121,,,A*56
$GPGGA,053919.00,4442.1651,N,03957.9085,E,1,19,0.7,00165.4,M,0017.5,M,,*68
$GLGSA,A,3,067,068,069,076,082,083,084,,,,,,1.1,0.7,0.8*1D
$GPGSA,A,3,001,003,004,008,017,021,022,031,032,,,,1.1,0.7,0.8*05
$GAGSA,A,3,105,109,136,,,,,,,,,,1.1,0.7,0.8*14
$GPGSV,7,1,25,001,62,301,50,003,32,282,51,004,07,222,48,008,16,209,47*7E
$GPGSV,7,2,25,010,02,094,25,017,14,321,48,019,06,331,,021,77,231,45*70
$GPGSV,7,3,25,022,55,294,50,031,31,125,38,032,44,053,42,067,38,043,39*7B
$GPGSV,7,4,25,068,69,309,50,069,26,252,54,076,11,027,31,077,15,076,*7F
$GPGSV,7,5,25,082,28,175,50,083,68,223,39,084,32,325,37,104,34,053,*7F
$GPGSV,7,6,25,105,34,230,46,109,88,183,46,111,30,141,38,121,00,024,*76
$GPGSV,7,7,25,136,75,231,45*79
$GPRMC,053919.00,A,4442.1651,N,03957.9085,E,016.13232,324.4,241121,,,A*52
$GPZDA,053919.00,24,11,2021,+00,00*4D
$GPGGA,053919.20,4442.1658,N,03957.9078,E,1,19,0.7,00165.4,M,0017.5,M,,*61
$GLGSA,A,3,067,068,069,076,082,083,084,,,,,,1.1,0.7,0.8*1D
$GPGSA,A,3,001,003,004,008,017,021,022,031,032,,,,1.1,0.7,0.8*05
$GAGSA,A,3,105,109,136,,,,,,,,,,1.1,0.7,0.8*14
$GPRMC,053919.20,A,4442.1658,N,03957.9078,E,015.89356,326.0,241121,,,A*5E
$GPGGA,053919.40,4442.1665,N,03957.9071,E,1,19,0.7,00165.4,M,0017.4,M,,*61
$GLGSA,A,3,067,068,069,076,082,083,084,,,,,,1.1,0.7,0.8*1D
$GPGSA,A,3,001,003,004,008,017,021,022,031,032,,,,1.1,0.7,0.8*05
$GAGSA,A,3,105,109,136,,,,,,,,,,1.1,0.7,0.8*14
$GPRMC,053919.40,A,4442.1665,N,03957.9071,E,015.61104,325.2,241121,,,A*5D
$GPGGA,053919.60,4442.1672,N,03957.9064,E,1,19,0.7,00165.4,M,0017.5,M,,*60
$GLGSA,A,3,067,068,069,076,082,083,084,,,,,,1.1,0.7,0.8*1D
$GPGSA,A,3,001,003,004,008,017,021,022,031,032,,,,1.1,0.7,0.8*05
$GAGSA,A,3,105,109,136,,,,,,,,,,1.1,0.7,0.8*14
$GPRMC,053919.60,A,4442.1672,N,03957.9064,E,015.39276,324.7,241121,,,A*52
$GPGGA,053919.80,4442.1679,N,03957.9057,E,1,19,0.7,00165.4,M,0017.5,M,,*65
$GLGSA,A,3,067,068,069,076,082,083,084,,,,,,1.1,0.7,0.8*1D
$GPGSA,A,3,001,003,004,008,017,021,022,031,032,,,,1.1,0.7,0.8*05
$GAGSA,A,3,105,109,136,,,,,,,,,,1.1,0.7,0.8*14
$GPRMC,053919.80,A,4442.1679,N,03957.9057,E,015.02303,323.3,241121,,,A*5F
$GPGGA,053920.00,4442.1686,N,03957.9050,E,1,19,0.7,00165.4,M,0017.5,M,,*60
$GLGSA,A,3,067,068,069,076,082,083,084,,,,,,1.1,0.7,0.8*1D
$GPGSA,A,3,001,003,004,008,017,021,022,031,032,,,,1.1,0.7,0.8*05
$GAGSA,A,3,105,109,136,,,,,,,,,,1.1,0.7,0.8*14
$GPGSV,7,1,25,001,62,301,50,003,32,282,51,004,07,222,47,008,16,209,45*73
$GPGSV,7,2,25,010,02,094,26,017,14,321,48,019,06,331,,021,77,231,46*70
$GPGSV,7,3,25,022,55,294,50,031,31,125,38,032,44,053,42,067,38,043,38*7A
$GPGSV,7,4,25,068,69,309,49,069,26,252,55,076,11,027,31,077,15,076,*76
$GPGSV,7,5,25,082,28,175,51,083,68,223,39,084,32,325,37,104,34,053,*7E
$GPGSV,7,6,25,105,34,230,48,109,88,182,46,111,30,141,39,121,00,024,*78
$GPGSV,7,7,25,136,75,231,45*79
$GPRMC,053920.00,A,4442.1686,N,03957.9050,E,014.81417,324.0,241121,,,A*56
$GPZDA,053920.00,24,11,2021,+00,00*47
$GPGGA,053920.20,4442.1692,N,03957.9043,E,1,19,0.7,00165.4,M,0017.5,M,,*65
$GLGSA,A,3,067,068,069,076,082,083,084,,,,,,1.1,0.7,0.8*1D
$GPGSA,A,3,001,003,004,008,017,021,022,031,032,,,,1.1,0.7,0.8*05
$GAGSA,A,3,105,109,136,,,,,,,,,,1.1,0.7,0.8*14
$GPRMC,053920.20,A,4442.1692,N,03957.9043,E,014.51307,325.5,241121,,,A*5C
$GPGGA,053920.40,4442.1699,N,03957.9037,E,1,19,0.7,00165.4,M,0017.5,M,,*6B
$GLGSA,A,3,067,068,069,076,082,083,084,,,,,,1.1,0.7,0.8*1D
$GPGSA,A,3,001,003,004,008,017,021,022,031,032,,,,1.1,0.7,0.8*05
$GAGSA,A,3,105,109,136,,,,,,,,,,1.1,0.7,0.8*14
$GPRMC,053920.40,A,4442.1699,N,03957.9037,E,014.16170,324.8,241121,,,A*5F
$GPGGA,053920.60,4442.1705,N,03957.9030,E,1,19,0.7,00165.3,M,0017.5,M,,*6D
$GLGSA,A,3,067,068,069,076,082,083,084,,,,,,1.1,0.7,0.8*1D
$GPGSA,A,3,001,003,004,008,017,021,022,031,032,,,,1.1,0.7,0.8*05
$GAGSA,A,3,105,109,136,,,,,,,,,,1.1,0.7,0.8*14
$GPRMC,053920.60,A,4442.1705,N,03957.9030,E,013.94297,324.4,241121,,,A*55
$GPGGA,053920.80,4442.1711,N,03957.9024,E,1,19,0.7,00165.4,M,0017.5,M,,*64
$GLGSA,A,3,067,068,069,076,082,083,084,,,,,,1.1,0.7,0.8*1D
$GPGSA,A,3,001,003,004,008,017,021,022,031,032,,,,1.1,0.7,0.8*05
$GAGSA,A,3,105,109,136,,,,,,,,,,1.1,0.7,0.8*14
$GPRMC,053920.80,A,4442.1711,N,03957.9024,E,013.68322,324.3,241121,,,A*50
$GPGGA,053921.00,4442.1717,N,03957.9018,E,1,19,0.7,00165.4,M,0017.4,M,,*65
$GLGSA,A,3,067,068,069,076,082,083,084,,,,,,1.1,0.7,0.8*1D
$GPGSA,A,3,001,003,004,008,017,021,022,031,032,,,,1.1,0.7,0.8*05
$GAGSA,A,3,105,109,136,,,,,,,,,,1.1,0.7,0.8*14
$GPGSV,7,1,25,001,62,301,50,003,32,282,50,004,07,222,47,008,16,209,44*73
$GPGSV,7,2,25,010,02,094,25,017,14,321,48,019,06,331,,021,77,231,45*70
$GPGSV,7,3,25,022,55,294,51,031,31,125,38,032,44,053,41,067,38,043,39*79
$GPGSV,7,4,25,068,69,309,50,069,26,252,55,076,11,027,32,077,15,076,*7D
$GPGSV,7,5,25,082,28,175,53,083,68,223,39,084,32,325,37,104,34,053,*7C
$GPGSV,7,6,25,105,34,230,49,109,88,182,46,111,30,141,40,121,00,024,*77
$GPGSV,7,7,25,136,75,231,45*79
$GPRMC,053921.00,A,4442.1717,N,03957.9018,E,013.38001,324.7,241121,,,A*53
$GPZDA,053921.00,24,11,2021,+00,00*46
$GPGGA,053921.20,4442.1723,N,03957.9012,E,1,19,0.7,00165.3,M,0017.5,M,,*6C
$GLGSA,A,3,067,068,069,076,082,083,084,,,,,,1.1,0.7,0.8*1D
$GPGSA,A,3,001,003,004,008,017,021,022,031,032,,,,1.1,0.7,0.8*05
$GAGSA,A,3,105,109,136,,,,,,,,,,1.1,0.7,0.8*14
$GPRMC,053921.20,A,4442.1723,N,03957.9012,E,013.08450,324.7,241121,,,A*5F
$GPGGA,053921.40,4442.1729,N,03957.9006,E,1,19,0.7,00165.3,M,0017.5,M,,*65
$GLGSA,A,3,067,068,069,076,082,083,084,,,,,,1.1,0.7,0.8*1D
$GPGSA,A,3,001,003,004,008,017,021,022,031,032,,,,1.1,0.7,0.8*05
$GAGSA,A,3,105,109,136,,,,,,,,,,1.1,0.7,0.8*14
$GPRMC,053921.40,A,4442.1729,N,03957.9006,E,012.84895,324.6,241121,,,A*57
$GPGGA,053921.60,4442.1735,N,03957.9000,E,1,19,0.7,00165.4,M,0017.4,M,,*6A
$GLGSA,A,3,067,068,069,076,082,083,084,,,,,,1.1,0.7,0.8*1D
$GPGSA,A,3,001,003,004,008,017,021,022,031,032,,,,1.1,0.7,0.8*05
$GAGSA,A,3,105,109,136,,,,,,,,,,1.1,0.7,0.8*14
$GPRMC,053921.60,A,4442.1735,N,03957.9000,E,012.55074,324.4,241121,,,A*57
$GPGGA,053921.80,4442.1741,N,03957.8995,E,1,19,0.7,00165.3,M,0017.5,M,,*65
$GLGSA,A,3,067,068,069,076,082,083,084,,,,,,1.1,0.7,0.8*1D
$GPGSA,A,3,001,003,004,008,017,021,022,031,032,,,,1.1,0.7,0.8*05
$GAGSA,A,3,105,109,136,,,,,,,,,,1.1,0.7,0.8*14
$GPRMC,053921.80,A,4442.1741,N,03957.8995,E,012.22512,325.3,241121,,,A*5D
$GPGGA,053922.00,4442.1746,N,03957.8989,E,1,19,0.7,00165.3,M,0017.5,M,,*64
$GLGSA,A,3,067,068,069,076,082,083,084,,,,,,1.1,0.7,0.8*1D
$GPGSA,A,3,001,003,004,008,017,021,022,031,032,,,,1.1,0.7,0.8*05
$GAGSA,A,3,105,109,136,,,,,,,,,,1.1,0.7,0.8*14
$GPGSV,7,1,26,001,62,301,50,003,32,282,49,004,07,222,49,008,16,209,45*77
$GPGSV,7,2,26,010,02,094,24,017,14,321,48,019,06,331,,021,77,231,44*73
$GPGSV,7,3,26,022,55,294,51,031,31,125,38,032,44,053,41,067,38,043,39*7A
$GPGSV,7,4,26,068,69,309,50,069,26,252,55,076,11,027,30,077,15,076,*7C
$GPGSV,7,5,26,078,00,124,,082,28,175,52,083,68,223,39,084,32,325,37*72
$GPGSV,7,6,26,104,34,053,,105,34,230,50,109,88,182,46,111,30,141,40*7C
$GPGSV,7,7,26,121,00,024,,136,75,231,46*7D
$GPRMC,053922.00,A,4442.1746,N,03957.8989,E,011.90354,325.4,241121,,,A*55
$GPZDA,053922.00,24,11,2021,+00,00*45
$GPGGA,053922.20,4442.1751,N,03957.8984,E,1,19,0.7,00165.3,M,0017.4,M,,*6C
$GLGSA,A,3,067,068,069,076,082,083,084,,,,,,1.1,0.7,0.8*1D
$GPGSA,A,3,001,003,004,008,017,021,022,031,032,,,,1.1,0.7,0.8*05
$GAGSA,A,3,105,109,136,,,,,,,,,,1.1,0.7,0.8*14
$GPRMC,053922.20,A,4442.1751,N,03957.8984,E,011.76220,324.4,241121,,,A*57
$GPGGA,053922.40,4442.1757,N,03957.8979,E,1,19,0.7,00165.3,M,0017.5,M,,*6F
$GLGSA,A,3,067,068,069,076,082,083,084,,,,,,1.1,0.7,0.8*1D
$GPGSA,A,3,001,003,004,008,017,021,022,031,032,,,,1.1,0.7,0.8*05
$GAGSA,A,3,105,109,136,,,,,,,,,,1.1,0.7,0.8*14
$GPRMC,053922.40,A,4442.1757,N,03957.8979,E,011.44527,324.8,241121,,,A*58
$GPGGA,053922.60,4442.1762,N,03957.8974,E,1,19,0.7,00165.3,M,0017.4,M,,*67
$GLGSA,A,3,067,068,069,076,082,083,084,,,,,,1.1,0.7,0.8*1D
$GPGSA,A,3,001,003,004,008,017,021,022,031,032,,,,1.1,0.7,0.8*05
$GAGSA,A,3,105,109,136,,,,,,,,,,1.1,0.7,0.8*14
$GPRMC,053922.60,A,4442.1762,N,03957.8974,E,011.14385,324.9,241121,,,A*5B
$GPGGA,053922.80,4442.1767,N,03957.8969,E,1,19,0.7,00165.3,M,0017.5,M,,*61
$GLGSA,A,3,067,068,069,076,082,083,084,,,,,,1.1,0.7,0.8*1D
$GPGSA,A,3,001,003,004,008,017,021,022,031,032,,,,1.1,0.7,0.8*05
$GAGSA,A,3,105,109,136,,,,,,,,,,1.1,0.7,0.8*14
$GPRMC,053922.80,A,4442.1767,N,03957.8969,E,010.84122,325.4,241121,,,A*57
$GPGGA,053923.00,4442.1772,N,03957.8964,E,1,19,0.7,00165.2,M,0017.5,M,,*60
$GLGSA,A,3,067,068,069,076,082,083,084,,,,,,1.1,0.7,0.8*1D
$GPGSA,A,3,001,003,004,008,017,021,022,031,032,,,,1.1,0.7,0.8*05
$GAGSA,A,3,105,109,136,,,,,,,,,,1.1,0.7,0.8*14
$GPGSV,7,1,26,001,62,301,50,003,32,282,48,004,07,222,51,008,16,209,46*7C
$GPGSV,7,2,26,010,02,094,23,017,15,321,48,019,06,331,,021,77,231,45*74
$GPGSV,7,3,26,022,55,294,51,031,31,125,36,032,44,053,41,067,38,043,38*75
$GPGSV,7,4,26,068,69,309,50,069,26,252,55,076,11,027,29,077,15,076,*74
$GPGSV,7,5,26,078,00,124,,082,28,175,53,083,68,223,40,084,32,325,37*7D
$GPGSV,7,6,26,104,34,053,,105,34,230,49,109,88,182,46,111,30,141,41*75
$GPGSV,7,7,26,121,00,024,,136,75,231,45*7E
$GPRMC,053923.00,A,4442.1772,N,03957.8964,E,010.79776,323.9,241121,,,A*59
$GPZDA,053923.00,24,11,2021,+00,00*44
$GPGGA,053923.20,4442.1776,N,03957.8959,E,1,19,0.7,00165.3,M,0017.5,M,,*69
$GLGSA,A,3,067,068,069,076,082,083,084,,,,,,1.1,0.7,0.8*1D
$GPGSA,A,3,001,003,004,008,017,021,022,031,032,,,,1.1,0.7,0.8*05
$GAGSA,A,3,105,109,136,,,,,,,,,,1.1,0.7,0.8*14
$GPRMC,053923.20,A,4442.1776,N,03957.8959,E,010.53563,324.5,241121,,,A*54
$GPGGA,053923.40,4442.1781,N,03957.8955,E,1,19,0.7,00165.3,M,0017.5,M,,*6B
$GLGSA,A,3,067,068,069,076,082,083,084,,,,,,1.1,0.7,0.8*1D
$GPGSA,A,3,001,003,004,008,017,021,022,031,032,,,,1.1,0.7,0.8*05
$GAGSA,A,3,105,109,136,,,,,,,,,,1.1,0.7,0.8*14
$GPRMC,053923.40,A,4442.1781,N,03957.8955,E,010.34882,323.9,241121,,,A*5E
$GPGGA,053923.60,4442.1786,N,03957.8950,E,1,19,0.7,00165.3,M,0017.5,M,,*6B
$GLGSA,A,3,067,068,069,076,082,083,084,,,,,,1.1,0.7,0.8*1D
$GPGSA,A,3,001,003,004,008,017,021,022,031,032,,,,1.1,0.7,0.8*05
$GAGSA,A,3,105,109,136,,,,,,,,,,1.1,0.7,0.8*14
$GPRMC,053923.60,A,4442.1786,N,03957.8950,E,010.11136,324.3,241121,,,A*52
$GPGGA,053923.80,4442.1790,N,03957.8945,E,1,19,0.7,00165.2,M,0017.5,M,,*67
$GLGSA,A,3,067,068,069,076,082,083,084,,,,,,1.1,0.7,0.8*1D
$GPGSA,A,3,001,003,004,008,017,021,022,031,032,,,,1.1,0.7,0.8*05
$GAGSA,A,3,105,109,136,,,,,,,,,,1.1,0.7,0.8*14
$GPRMC,053923.80,A,4442.1790,N,03957.8945,E,009.85119,324.8,241121,,,A*5C
$GPGGA,053924.00,4442.1795,N,03957.8941,E,1,19,0.7,00165.2,M,0017.5,M,,*69
$GLGSA,A,3,067,068,069,076,082,083,084,,,,,,1.1,0.7,0.8*1D
$GPGSA,A,3,001,003,004,008,017,021,022,031,032,,,,1.1,0.7,0.8*05
$GAGSA,A,3,105,109,136,,,,,,,,,,1.1,0.7,0.8*14
$GPGSV,7,1,26,001,62,301,50,003,32,282,47,004,07,222,50,008,16,209,46*72
$GPGSV,7,2,26,010,02,094,24,017,15,321,48,019,06,331,,021,77,231,45*73
$GPGSV,7,3,26,022,55,294,51,031,31,125,36,032,44,053,41,067,38,043,38*75
$GPGSV,7,4,26,068,69,309,50,069,26,252,55,076,11,027,33,077,15,076,*7F
$GPGSV,7,5,26,078,00,124,,082,28,175,52,083,68,223,40,084,32,325,37*7C
$GPGSV,7,6,26,104,34,053,,105,34,230,48,109,88,182,45,111,30,141,40*76
$GPGSV,7,7,26,121,00,024,,136,75,231,46*7D
$GPRMC,053924.00,A,4442.1795,N,03957.8941,E,009.61336,324.9,241121,,,A*56
$GPZDA,053924.00,24,11,2021,+00,00*43
$GPGGA,053924.20,4442.1799,N,03957.8937,E,1,19,0.7,00165.3,M,0017.5,M,,*67
$GLGSA,A,3,067,068,069,076,082,083,084,,,,,,1.1,0.7,0.8*1D
$GPGSA,A,3,001,003,004,008,017,021,022,031,032,,,,1.1,0.7,0.8*05
$GAGSA,A,3,105,109,136,,,,,,,,,,1.1,0.7,0.8*14
$GPRMC,053924.20,A,4442.1799,N,03957.8937,E,009.35584,323.3,241121,,,A*5A
$GPGGA,053924.40,4442.1803,N,03957.8932,E,1,19,0.7,00165.3,M,0017.5,M,,*68
$GLGSA,A,3,067,068,069,076,082,083,084,,,,,,1.1,0.7,0.8*1D
$GPGSA,A,3,001,003,004,008,017,021,022,031,032,,,,1.1,0.7,0.8*05
$GAGSA,A,3,105,109,136,,,,,,,,,,1.1,0.7,0.8*14
$GPRMC,053924.40,A,4442.1803,N,03957.8932,E,009.14032,324.6,241121,,,A*5C
$GPGGA,053924.60,4442.1807,N,03957.8928,E,1,19,0.7,00165.3,M,0017.5,M,,*65
$GLGSA,A,3,067,068,069,076,082,083,084,,,,,,1.1,0.7,0.8*1D
$GPGSA,A,3,001,003,004,008,017,021,022,031,032,,,,1.1,0.7,0.8*05
$GAGSA,A,3,105,109,136,,,,,,,,,,1.1,0.7,0.8*14
$GPRMC,053924.60,A,4442.1807,N,03957.8928,E,008.89861,324.5,241121,,,A*59
$GPGGA,053924.80,4442.1811,N,03957.8924,E,1,19,0.7,00165.3,M,0017.5,M,,*60
$GLGSA,A,3,067,068,069,076,082,083,084,,,,,,1.1,0.7,0.8*1D
$GPGSA,A,3,001,003,004,008,017,021,022,031,032,,,,1.1,0.7,0.8*05
$GAGSA,A,3,105,109,136,,,,,,,,,,1.1,0.7,0.8*14
$GPRMC,053924.80,A,4442.1811,N,03957.8924,E,008.58994,324.0,241121,,,A*5E
$GPGGA,053925.00,4442.1815,N,03957.8921,E,1,19,0.7,00165.3,M,0017.5,M,,*68
$GLGSA,A,3,067,068,069,076,082,083,084,,,,,,1.1,0.7,0.8*1D
$GPGSA,A,3,001,003,004,008,017,021,022,031,032,,,,1.1,0.7,0.8*05
$GAGSA,A,3,105,109,136,,,,,,,,,,1.1,0.7,0.8*14
$GPGSV,7,1,26,001,62,301,50,003,32,282,48,004,07,222,49,008,16,209,47*74
$GPGSV,7,2,26,010,02,094,24,017,15,321,48,019,06,331,,021,77,231,44*72
$GPGSV,7,3,26,022,55,294,50,031,31,125,36,032,44,053,41,067,38,043,39*75
$GPGSV,7,4,26,068,69,309,50,069,26,252,55,076,11,027,32,077,15,076,*7E
$GPGSV,7,5,26,078,00,124,15,082,28,175,52,083,68,223,40,084,32,325,37*78
$GPGSV,7,6,26,104,34,053,,105,34,230,47,109,88,182,45,111,30,141,39*77
$GPGSV,7,7,26,121,00,024,,136,75,231,45*7E
$GPRMC,053925.00,A,4442.1815,N,03957.8921,E,008.30419,324.5,241121,,,A*55
$GPZDA,053925.00,24,11,2021,+00,00*42
$GPGGA,053925.20,4442.1819,N,03957.8917,E,1,19,0.7,00165.3,M,0017.5,M,,*63
$GLGSA,A,3,067,068,069,076,082,083,084,,,,,,1.1,0.7,0.8*1D
$GPGSA,A,3,001,003,004,008,017,021,022,031,032,,,,1.1,0.7,0.8*05
$GAGSA,A,3,105,109,136,,,,,,,,,,1.1,0.7,0.8*14
$GPRMC,053925.20,A,4442.1819,N,03957.8917,E,007.94527,325.5,241121,,,A*52
$GPGGA,053925.40,4442.1823,N,03957.8914,E,1,19,0.7,00165.3,M,0017.4,M,,*6E
$GLGSA,A,3,067,068,069,076,082,083,084,,,,,,1.1,0.7,0.8*1D
$GPGSA,A,3,001,003,004,008,017,021,022,031,032,,,,1.1,0.7,0.8*05
$GAGSA,A,3,105,109,136,,,,,,,,,,1.1,0.7,0.8*14
$GPRMC,053925.40,A,4442.1823,N,03957.8914,E,007.66774,325.2,241121,,,A*50
$GPGGA,053925.60,4442.1826,N,03957.8910,E,1,19,0.7,00165.3,M,0017.5,M,,*6C
$GLGSA,A,3,067,068,069,076,082,083,084,,,,,,1.1,0.7,0.8*1D
$GPGSA,A,3,001,003,004,008,017,021,022,031,032,,,,1.1,0.7,0.8*05
$GAGSA,A,3,105,109,136,,,,,,,,,,1.1,0.7,0.8*14
$GPRMC,053925.60,A,4442.1826,N,03957.8910,E,007.31401,325.1,241121,,,A*53
$GPGGA,053925.80,4442.1829,N,03957.8907,E,1,19,0.7,00165.3,M,0017.5,M,,*6B
$GLGSA,A,3,067,068,069,076,082,083,084,,,,,,1.1,0.7,0.8*1D
$GPGSA,A,3,001,003,004,008,017,021,022,031,032,,,,1.1,0.7,0.8*05
$GAGSA,A,3,105,109,136,,,,,,,,,,1.1,0.7,0.8*14
$GPRMC,053925.80,A,4442.1829,N,03957.8907,E,007.02942,324.7,241121,,,A*59
$GPGGA,053926.00,4442.1833,N,03957.8904,E,1,19,0.7,00165.3,M,0017.5,M,,*68
$GLGSA,A,3,067,068,069,076,082,083,084,,,,,,1.1,0.7,0.8*1D
$GPGSA,A,3,001,003,004,008,017,021,022,031,032,,,,1.1,0.7,0.8*05
$GAGSA,A,3,105,109,136,,,,,,,,,,1.1,0.7,0.8*14
$GPGSV,7,1,26,001,62,301,50,003,32,282,48,004,07,222,49,008,16,209,46*75
$GPGSV,7,2,26,010,02,094,24,017,15,321,48,019,06,331,,021,77,231,45*73
$GPGSV,7,3,26,022,55,294,50,031,31,125,37,032,44,053,42,067,38,043,40*79
$GPGSV,7,4,26,068,69,309,50,069,26,252,54,076,11,027,31,077,15,076,*7C
$GPGSV,7,5,26,078,00,124,10,082,28,175,52,083,68,223,40,084,32,325,38*72
$GPGSV,7,6,26,104,34,053,,105,34,230,46,109,88,182,45,111,30,141,39*76
$GPGSV,7,7,26,121,00,024,,136,75,231,45*7E
$GPRMC,053926.00,A,4442.1833,N,03957.8904,E,006.71582,325.8,241121,,,A*51
$GPZDA,053926.00,24,11,2021,+00,00*41
$GPGGA,053926.20,4442.1836,N,03957.8901,E,1,19,0.7,00165.2,M,0017.5,M,,*6B
$GLGSA,A,3,067,068,069,076,082,083,084,,,,,,1.1,0.7,0.8*1D
$GPGSA,A,3,001,003,004,008,017,021,022,031,032,,,,1.1,0.7,0.8*05
$GAGSA,A,3,105,109,136,,,,,,,,,,1.1,0.7,0.8*14
$GPRMC,053926.20,A,4442.1836,N,03957.8901,E,006.43924,324.2,241121,,,A*59
$GPGGA,053926.40,4442.1838,N,03957.8898,E,1,19,0.7,00165.2,M,0017.5,M,,*62
$GLGSA,A,3,067,068,069,076,082,083,084,,,,,,1.1,0.7,0.8*1D
$GPGSA,A,3,001,003,004,008,017,021,022,031,032,,,,1.1,0.7,0.8*05
$GAGSA,A,3,105,109,136,,,,,,,,,,1.1,0.7,0.8*14
$GPRMC,053926.40,A,4442.1838,N,03957.8898,E,006.07925,323.6,241121,,,A*52
$GPGGA,053926.60,4442.1841,N,03957.8895,E,1,19,0.7,00165.2,M,0017.5,M,,*63
$GLGSA,A,3,067,068,069,076,082,083,084,,,,,,1.1,0.7,0.8*1D
$GPGSA,A,3,001,003,004,008,017,021,022,031,032,,,,1.1,0.7,0.8*05
$GAGSA,A,3,105,109,136,,,,,,,,,,1.1,0.7,0.8*14
$GPRMC,053926.60,A,4442.1841,N,03957.8895,E,005.81550,324.6,241121,,,A*57
$GPGGA,053926.80,4442.1844,N,03957.8893,E,1,19,0.7,00165.2,M,0017.5,M,,*6E
$GLGSA,A,3,067,068,069,076,082,083,084,,,,,,1.1,0.7,0.8*1D
$GPGSA,A,3,001,003,004,008,017,021,022,031,032,,,,1.1,0.7,0.8*05
$GAGSA,A,3,105,109,136,,,,,,,,,,1.1,0.7,0.8*14
$GPRMC,053926.80,A,4442.1844,N,03957.8893,E,005.53830,325.1,241121,,,A*58
$GPGGA,053927.00,4442.1846,N,03957.8890,E,1,19,0.7,00165.2,M,0017.4,M,,*67
$GLGSA,A,3,067,068,069,076,082,083,084,,,,,,1.1,0.7,0.8*1D
$GPGSA,A,3,001,003,004,008,017,021,022,031,032,,,,1.1,0.7,0.8*05
$GAGSA,A,3,105,109,136,,,,,,,,,,1.1,0.7,0.8*14
$GPGSV,7,1,26,001,62,301,49,003,32,282,49,004,07,222,51,008,16,209,45*76
$GPGSV,7,2,26,010,02,094,25,017,15,321,48,019,06,331,,021,77,231,46*71
$GPGSV,7,3,26,022,55,294,49,031,31,125,38,032,44,053,41,067,38,043,40*7D
$GPGSV,7,4,26,068,69,309,50,069,26,253,55,076,11,027,30,077,15,076,*7D
$GPGSV,7,5,26,078,00,124,07,082,28,175,52,083,68,223,40,084,32,325,38*74
$GPGSV,7,6,26,104,34,053,,105,34,230,45,109,88,182,45,111,30,141,39*75
$GPGSV,7,7,26,121,00,024,,136,75,231,45*7E
$GPRMC,053927.00,A,4442.1846,N,03957.8890,E,005.28122,325.6,241121,,,A*51
$GPZDA,053927.00,24,11,2021,+00,00*40
$GPGGA,053927.20,4442.1848,N,03957.8888,E,1,19,0.7,00165.2,M,0017.5,M,,*63
$GLGSA,A,3,067,068,069,076,082,083,084,,,,,,1.1,0.7,0.8*1D
$GPGSA,A,3,001,003,004,008,017,021,022,031,032,,,,1.1,0.7,0.8*05
$GAGSA,A,3,105,109,136,,,,,,,,,,1.1,0.7,0.8*14
$GPRMC,053927.20,A,4442.1848,N,03957.8888,E,004.94960,326.3,241121,,,A*5A
$GPGGA,053927.40,4442.1850,N,03957.8886,E,1,19,0.7,00165.1,M,0017.5,M,,*61
$GLGSA,A,3,067,068,069,076,082,083,084,,,,,,1.1,0.7,0.8*1D
$GPGSA,A,3,001,003,004,008,017,021,022,031,032,,,,1.1,0.7,0.8*05
$GAGSA,A,3,105,109,136,,,,,,,,,,1.1,0.7,0.8*14
$GPRMC,053927.40,A,4442.1850,N,03957.8886,E,004.68418,324.5,241121,,,A*5E
