$GPRMC,054315.60,A,4443.9487,N,03956.1229,E,055.09914,324.6,191121,,,A*57
$GPGGA,054315.80,4443.9512,N,03956.1204,E,1,21,0.6,00157.7,M,0017.2,M,,*61
$GLGSA,A,3,070,071,072,079,085,086,087,,,,,,1.0,0.6,0.8*17
$GPGSA,A,3,001,003,008,010,017,021,022,027,031,032,,,1.0,0.6,0.8*35
$GAGSA,A,3,107,108,113,133,,,,,,,,,1.0,0.6,0.8*21
$GPRMC,054315.80,A,4443.9512,N,03956.1204,E,055.31777,324.6,191121,,,A*5B
$GPGGA,054316.00,4443.9538,N,03956.1179,E,1,21,0.6,00157.6,M,0017.2,M,,*6A
$GLGSA,A,3,070,071,072,079,085,086,087,,,,,,1.0,0.6,0.8*17
$GPGSA,A,3,001,003,008,010,017,021,022,027,031,032,,,1.0,0.6,0.8*35
$GAGSA,A,3,107,108,113,133,,,,,,,,,1.0,0.6,0.8*21
$GPGSV,6,1,23,001,55,307,48,003,26,277,50,004,00,219,,008,23,212,48*7C
$GPGSV,6,2,23,010,17,081,28,017,11,326,48,021,77,266,43,022,49,288,50*79
$GPGSV,6,3,23,027,05,188,42,031,25,131,45,032,51,056,32,070,50,035,33*7E
$GPGSV,6,4,23,071,64,277,52,072,18,245,47,079,12,034,28,080,10,089,*7F
$GPGSV,6,5,23,085,44,177,53,086,70,280,38,087,13,331,45,107,82,195,41*70
$GPGSV,6,6,23,108,41,052,27,113,39,151,45,133,29,314,46*75
$GPRMC,054316.00,A,4443.9538,N,03956.1179,E,055.44252,324.6,191121,,,A*51
$GPZDA,054316.00,19,11,2021,+00,00*41
$GPGGA,054316.20,4443.9563,N,03956.1154,E,1,20,0.6,00157.5,M,0017.2,M,,*6B
$GLGSA,A,3,070,071,072,079,085,086,087,,,,,,1.0,0.6,0.8*17
$GPGSA,A,3,001,003,008,010,017,021,022,027,031,032,,,1.0,0.6,0.8*35
$GAGSA,A,3,107,113,133,,,,,,,,,,1.0,0.6,0.8*18
$GPRMC,054316.20,A,4443.9563,N,03956.1154,E,055.56006,324.3,191121,,,A*57
$GPGGA,054316.40,4443.9588,N,03956.1129,E,1,21,0.6,00157.5,M,0017.2,M,,*63
$GLGSA,A,3,070,071,072,079,085,086,087,,,,,,1.0,0.6,0.8*17
$GPGSA,A,3,001,003,008,010,017,021,022,027,031,032,,,1.0,0.6,0.8*35
$GAGSA,A,3,107,108,113,133,,,,,,,,,1.0,0.6,0.8*21
$GPRMC,054316.40,A,4443.9588,N,03956.1129,E,055.36240,324.3,191121,,,A*58
$GPGGA,054316.60,4443.9613,N,03956.1103,E,1,21,0.6,00157.4,M,0017.3,M,,*68
$GLGSA,A,3,070,071,072,079,085,086,087,,,,,,1.0,0.6,0.8*17
$GPGSA,A,3,001,003,008,010,017,021,022,027,031,032,,,1.0,0.6,0.8*35
$GAGSA,A,3,107,108,113,133,,,,,,,,,1.0,0.6,0.8*21
$GPRMC,054316.60,A,4443.9613,N,03956.1103,E,055.62462,324.3,191121,,,A*54
$GPGGA,054316.80,4443.9638,N,03956.1079,E,1,21,0.6,00157.4,M,0017.2,M,,*62
$GLGSA,A,3,070,071,072,079,085,086,087,,,,,,1.0,0.6,0.8*17
$GPGSA,A,3,001,003,008,010,017,021,022,027,031,032,,,1.0,0.6,0.8*35
$GAGSA,A,3,107,108,113,133,,,,,,,,,1.0,0.6,0.8*21
$GPRMC,054316.80,A,4443.9638,N,03956.1079,E,055.41635,324.6,191121,,,A*5B
$GPGGA,054317.00,4443.9663,N,03956.1054,E,1,21,0.6,00157.3,M,0017.2,M,,*6D
$GLGSA,A,3,070,071,072,079,085,086,087,,,,,,1.0,0.6,0.8*17
$GPGSA,A,3,001,003,008,010,017,021,022,027,031,032,,,1.0,0.6,0.8*35
$GAGSA,A,3,107,108,113,133,,,,,,,,,1.0,0.6,0.8*21
$GPGSV,6,1,23,001,55,307,49,003,26,277,49,004,00,219,,008,23,212,48*75
$GPGSV,6,2,23,010,17,081,26,017,11,326,48,021,77,266,44,022,49,288,50*70
$GPGSV,6,3,23,027,05,188,40,031,25,131,45,032,51,056,33,070,50,035,33*7D
$GPGSV,6,4,23,071,64,277,52,072,18,245,47,079,12,034,30,080,10,089,*76
$GPGSV,6,5,23,085,44,177,53,086,70,280,38,087,13,331,45,107,82,195,42*73
$GPGSV,6,6,23,108,41,052,28,113,39,151,45,133,29,314,46*7A
$GPRMC,054317.00,A,4443.9663,N,03956.1054,E,055.36406,324.4,191121,,,A*53
$GPZDA,054317.00,19,11,2021,+00,00*40
$GPGGA,054317.20,4443.9688,N,03956.1028,E,1,21,0.6,00157.3,M,0017.2,M,,*61
$GLGSA,A,3,070,071,072,079,085,086,087,,,,,,1.0,0.6,0.8*17
$GPGSA,A,3,001,003,008,010,017,021,022,027,031,032,,,1.0,0.6,0.8*35
$GAGSA,A,3,107,108,113,133,,,,,,,,,1.0,0.6,0.8*21
$GPRMC,054317.20,A,4443.9688,N,03956.1028,E,055.36174,324.6,191121,,,A*5D
$GPGGA,054317.40,4443.9713,N,03956.1004,E,1,20,0.6,00157.2,M,0017.3,M,,*6B
$GLGSA,A,3,070,071,072,079,085,086,087,,,,,,1.0,0.6,0.8*17
$GPGSA,A,3,001,003,008,010,017,021,022,027,031,032,,,1.0,0.6,0.8*35
$GAGSA,A,3,107,113,133,,,,,,,,,,1.0,0.6,0.8*18
$GPRMC,054317.40,A,4443.9713,N,03956.1004,E,055.21120,324.7,191121,,,A*50
$GPGGA,054317.60,4443.9739,N,03956.0979,E,1,21,0.6,00157.2,M,0017.3,M,,*62
$GLGSA,A,3,070,071,072,079,085,086,087,,,,,,1.0,0.6,0.8*17
$GPGSA,A,3,001,003,008,010,017,021,022,027,031,032,,,1.0,0.6,0.8*35
$GAGSA,A,3,107,108,113,133,,,,,,,,,1.0,0.6,0.8*21
$GPRMC,054317.60,A,4443.9739,N,03956.0979,E,055.30423,324.7,191121,,,A*5E
$GPGGA,054317.80,4443.9764,N,03956.0954,E,1,21,0.6,00157.2,M,0017.2,M,,*6A
$GLGSA,A,3,070,071,072,079,085,086,087,,,,,,1.0,0.6,0.8*17
$GPGSA,A,3,001,003,008,010,017,021,022,027,031,032,,,1.0,0.6,0.8*35
$GAGSA,A,3,107,108,113,133,,,,,,,,,1.0,0.6,0.8*21
$GPRMC,054317.80,A,4443.9764,N,03956.0954,E,055.39979,324.3,191121,,,A*58
$GPGGA,054318.00,4443.9789,N,03956.0929,E,1,21,0.6,00157.0,M,0017.2,M,,*66
$GLGSA,A,3,070,071,072,079,085,086,087,,,,,,1.0,0.6,0.8*17
$GPGSA,A,3,001,003,008,010,017,021,022,027,031,032,,,1.0,0.6,0.8*35
$GAGSA,A,3,107,108,113,133,,,,,,,,,1.0,0.6,0.8*21
$GPGSV,6,1,23,001,55,307,48,003,26,277,50,004,00,219,,008,23,212,48*7C
$GPGSV,6,2,23,010,17,081,27,017,11,326,48,021,77,266,44,022,49,288,51*70
$GPGSV,6,3,23,027,05,188,40,031,25,131,44,032,51,056,33,070,50,035,34*7B
$GPGSV,6,4,23,071,64,277,52,072,18,245,44,079,12,034,29,080,10,089,*7D
$GPGSV,6,5,23,085,44,177,53,086,70,280,38,087,13,331,46,107,82,195,42*70
$GPGSV,6,6,23,108,41,052,28,113,39,151,45,133,29,314,46*7A
$GPRMC,054318.00,A,4443.9789,N,03956.0929,E,055.47211,324.6,191121,,,A*5F
$GPZDA,054318.00,19,11,2021,+00,00*4F
$GPGGA,054318.20,4443.9814,N,03956.0904,E,1,21,0.6,00157.0,M,0017.2,M,,*60
$GLGSA,A,3,070,071,072,079,085,086,087,,,,,,1.0,0.6,0.8*17
$GPGSA,A,3,001,003,008,010,017,021,022,027,031,032,,,1.0,0.6,0.8*35
$GAGSA,A,3,107,108,113,133,,,,,,,,,1.0,0.6,0.8*21
$GPRMC,054318.20,A,4443.9814,N,03956.0904,E,055.48851,324.1,191121,,,A*5F
$GPGGA,054318.40,4443.9839,N,03956.0879,E,1,20,0.6,00157.0,M,0017.2,M,,*63
$GLGSA,A,3,070,071,072,079,085,086,087,,,,,,1.0,0.6,0.8*17
$GPGSA,A,3,001,003,008,010,017,021,022,027,031,032,,,1.0,0.6,0.8*35
$GAGSA,A,3,107,113,133,,,,,,,,,,1.0,0.6,0.8*18
$GPRMC,054318.40,A,4443.9839,N,03956.0879,E,055.47609,324.8,191121,,,A*58
$GPGGA,054318.60,4443.9864,N,03956.0854,E,1,22,0.6,00157.0,M,0017.2,M,,*64
$GLGSA,A,3,070,071,072,079,080,085,086,087,,,,,0.9,0.6,0.8*27
$GPGSA,A,3,001,003,008,010,017,021,022,027,031,032,,,0.9,0.6,0.8*3D
$GAGSA,A,3,107,108,113,133,,,,,,,,,0.9,0.6,0.8*29
$GPRMC,054318.60,A,4443.9864,N,03956.0854,E,055.39458,324.6,191121,,,A*5C
$GPGGA,054318.80,4443.9889,N,03956.0829,E,1,21,0.6,00156.8,M,0017.3,M,,*68
$GLGSA,A,3,070,071,072,079,085,086,087,,,,,,1.0,0.6,0.8*17
$GPGSA,A,3,001,003,008,010,017,021,022,027,031,032,,,1.0,0.6,0.8*35
$GAGSA,A,3,107,108,113,133,,,,,,,,,1.0,0.6,0.8*21
$GPRMC,054318.80,A,4443.9889,N,03956.0829,E,055.35640,324.4,191121,,,A*5E
$GPGGA,054319.00,4443.9915,N,03956.0805,E,1,22,0.6,00156.8,M,0017.2,M,,*69
$GLGSA,A,3,070,071,072,079,080,085,086,087,,,,,0.9,0.6,0.8*27
$GPGSA,A,3,001,003,008,010,017,021,022,027,031,032,,,0.9,0.6,0.8*3D
$GAGSA,A,3,107,108,113,133,,,,,,,,,0.9,0.6,0.8*29
$GPGSV,6,1,23,001,55,307,48,003,26,277,50,004,00,219,,008,23,212,48*7C
$GPGSV,6,2,23,010,17,081,28,017,11,326,48,021,77,266,44,022,49,288,50*7E
$GPGSV,6,3,23,027,05,188,39,031,25,131,44,032,51,056,32,070,50,035,34*74
$GPGSV,6,4,23,071,64,277,52,072,18,245,44,079,12,034,28,080,10,089,20*7E
$GPGSV,6,5,23,085,44,177,53,086,70,280,38,087,13,331,45,107,82,195,42*73
$GPGSV,6,6,23,108,40,052,28,113,39,151,45,133,29,314,46*7B
$GPRMC,054319.00,A,4443.9915,N,03956.0805,E,055.43190,324.8,191121,,,A*5A
$GPZDA,054319.00,19,11,2021,+00,00*4E
$GPGGA,054319.20,4443.9940,N,03956.0780,E,1,22,0.6,00156.8,M,0017.2,M,,*69
$GLGSA,A,3,070,071,072,079,080,085,086,087,,,,,0.9,0.6,0.8*27
$GPGSA,A,3,001,003,008,010,017,021,022,027,031,032,,,0.9,0.6,0.8*3D
$GAGSA,A,3,107,108,113,133,,,,,,,,,0.9,0.6,0.8*29
$GPRMC,054319.20,A,4443.9940,N,03956.0780,E,055.40288,324.5,191121,,,A*5E
$GPGGA,054319.40,4443.9965,N,03956.0755,E,1,22,0.6,00156.7,M,0017.2,M,,*6F
$GLGSA,A,3,070,071,072,079,080,085,086,087,,,,,0.9,0.6,0.8*27
$GPGSA,A,3,001,003,008,010,017,021,022,027,031,032,,,0.9,0.6,0.8*3D
$GAGSA,A,3,107,108,113,133,,,,,,,,,0.9,0.6,0.8*29
$GPRMC,054319.40,A,4443.9965,N,03956.0755,E,055.26649,324.7,191121,,,A*5C
$GPGGA,054319.60,4443.9990,N,03956.0731,E,1,21,0.6,00156.6,M,0017.3,M,,*66
$GLGSA,A,3,070,071,072,079,080,085,086,087,,,,,0.9,0.6,0.8*27
$GPGSA,A,3,001,003,008,010,017,021,022,027,031,032,,,0.9,0.6,0.8*3D
$GAGSA,A,3,107,113,133,,,,,,,,,,0.9,0.6,0.8*10
$GPRMC,054319.60,A,4443.9990,N,03956.0731,E,055.32932,324.7,191121,,,A*50
$GPGGA,054319.80,4444.0015,N,03956.0706,E,1,21,0.6,00156.7,M,0017.2,M,,*66
$GLGSA,A,3,070,071,072,079,085,086,087,,,,,,1.0,0.6,0.8*17
$GPGSA,A,3,001,003,008,010,017,021,022,027,031,032,,,1.0,0.6,0.8*35
$GAGSA,A,3,107,108,113,133,,,,,,,,,1.0,0.6,0.8*21
$GPRMC,054319.80,A,4444.0015,N,03956.0706,E,055.47330,324.4,191121,,,A*59
$GPGGA,054320.00,4444.0040,N,03956.0681,E,1,22,0.6,00156.6,M,0017.2,M,,*68
$GLGSA,A,3,070,071,072,079,080,085,086,087,,,,,0.9,0.6,0.8*27
$GPGSA,A,3,001,003,008,010,017,021,022,027,031,032,,,0.9,0.6,0.8*3D
$GAGSA,A,3,107,108,113,133,,,,,,,,,0.9,0.6,0.8*29
$GPGSV,6,1,23,001,55,307,49,003,26,277,49,004,00,219,,008,23,212,48*75
$GPGSV,6,2,23,010,17,081,26,017,11,326,49,021,77,266,43,022,49,288,50*76
$GPGSV,6,3,23,027,05,188,35,031,25,131,45,032,51,056,31,070,50,035,33*7D
$GPGSV,6,4,23,071,64,277,52,072,18,245,46,079,12,034,27,080,10,089,20*73
$GPGSV,6,5,23,085,44,177,53,086,70,280,37,087,13,331,45,107,82,195,42*7C
$GPGSV,6,6,23,108,40,052,29,113,39,151,45,133,29,314,46*7A
$GPRMC,054320.00,A,4444.0040,N,03956.0681,E,055.36655,324.6,191121,,,A*57
$GPZDA,054320.00,19,11,2021,+00,00*44
$GPGGA,054320.20,4444.0065,N,03956.0656,E,1,22,0.6,00156.6,M,0017.2,M,,*67
$GLGSA,A,3,070,071,072,079,080,085,086,087,,,,,0.9,0.6,0.8*27
$GPGSA,A,3,001,003,008,010,017,021,022,027,031,032,,,0.9,0.6,0.8*3D
$GAGSA,A,3,107,108,113,133,,,,,,,,,0.9,0.6,0.8*29
$GPRMC,054320.20,A,4444.0065,N,03956.0656,E,055.28385,324.6,191121,,,A*5F
$GPGGA,054320.40,4444.0091,N,03956.0631,E,1,21,0.6,00156.5,M,0017.2,M,,*6B
$GLGSA,A,3,070,071,072,079,080,085,086,087,,,,,1.0,0.6,0.8*2F
$GPGSA,A,3,001,003,008,017,021,022,027,031,032,,,,1.0,0.6,0.8*04
$GAGSA,A,3,107,108,113,133,,,,,,,,,1.0,0.6,0.8*21
$GPRMC,054320.40,A,4444.0091,N,03956.0631,E,055.27641,324.6,191121,,,A*51
$GPGGA,054320.60,4444.0116,N,03956.0606,E,1,20,0.6,00156.6,M,0017.2,M,,*61
$GLGSA,A,3,070,071,072,079,085,086,087,,,,,,1.0,0.6,0.8*17
$GPGSA,A,3,001,003,008,010,017,021,022,027,031,032,,,1.0,0.6,0.8*35
$GAGSA,A,3,107,113,133,,,,,,,,,,1.0,0.6,0.8*18
$GPRMC,054320.60,A,4444.0116,N,03956.0606,E,055.28422,324.3,191121,,,A*54
$GPGGA,054320.80,4444.0141,N,03956.0581,E,1,21,0.6,00156.5,M,0017.2,M,,*63
$GLGSA,A,3,070,071,072,079,085,086,087,,,,,,1.0,0.6,0.8*17
$GPGSA,A,3,001,003,008,010,017,021,022,027,031,032,,,1.0,0.6,0.8*35
$GAGSA,A,3,107,108,113,133,,,,,,,,,1.0,0.6,0.8*21
$GPRMC,054320.80,A,4444.0141,N,03956.0581,E,055.23507,324.4,191121,,,A*5E
$GPGGA,054321.00,4444.0166,N,03956.0556,E,1,22,0.6,00156.5,M,0017.2,M,,*66
$GLGSA,A,3,070,071,072,079,080,085,086,087,,,,,0.9,0.6,0.8*27
$GPGSA,A,3,001,003,008,010,017,021,022,027,031,032,,,0.9,0.6,0.8*3D
$GAGSA,A,3,107,108,113,133,,,,,,,,,0.9,0.6,0.8*29
$GPGSV,6,1,23,001,55,307,49,003,26,277,49,004,00,219,,008,23,212,48*75
$GPGSV,6,2,23,010,17,081,27,017,11,326,48,021,77,266,43,022,49,288,50*76
$GPGSV,6,3,23,027,05,188,38,031,25,131,45,032,51,056,32,070,50,035,33*73
$GPGSV,6,4,23,071,64,277,51,072,18,245,46,079,12,034,27,080,10,089,22*72
$GPGSV,6,5,23,085,44,177,52,086,70,280,37,087,13,331,45,107,82,195,41*7E
$GPGSV,6,6,23,108,40,052,28,113,39,151,45,133,29,314,45*78
$GPRMC,054321.00,A,4444.0166,N,03956.0556,E,055.28113,324.5,191121,,,A*53
$GPZDA,054321.00,19,11,2021,+00,00*45
$GPGGA,054321.20,4444.0191,N,03956.0531,E,1,22,0.6,00156.5,M,0017.2,M,,*6D
$GLGSA,A,3,070,071,072,079,080,085,086,087,,,,,0.9,0.6,0.8*27
$GPGSA,A,3,001,003,008,010,017,021,022,027,031,032,,,0.9,0.6,0.8*3D
$GAGSA,A,3,107,108,113,133,,,,,,,,,0.9,0.6,0.8*29
$GPRMC,054321.20,A,4444.0191,N,03956.0531,E,055.24039,324.6,191121,,,A*5E
$GPGGA,054321.40,4444.0216,N,03956.0506,E,1,21,0.6,00156.4,M,0017.2,M,,*61
$GLGSA,A,3,070,071,072,079,085,086,087,,,,,,1.0,0.6,0.8*17
$GPGSA,A,3,001,003,008,010,017,021,022,027,031,032,,,1.0,0.6,0.8*35
$GAGSA,A,3,107,108,113,133,,,,,,,,,1.0,0.6,0.8*21
$GPRMC,054321.40,A,4444.0216,N,03956.0506,E,055.37018,324.6,191121,,,A*51
$GPGGA,054321.60,4444.0242,N,03956.0481,E,1,22,0.6,00156.4,M,0017.2,M,,*6F
$GLGSA,A,3,070,071,072,079,080,085,086,087,,,,,0.9,0.6,0.8*27
$GPGSA,A,3,001,003,008,010,017,021,022,027,031,032,,,0.9,0.6,0.8*3D
$GAGSA,A,3,107,108,113,133,,,,,,,,,0.9,0.6,0.8*29
$GPRMC,054321.60,A,4444.0242,N,03956.0481,E,055.23200,324.3,191121,,,A*57
$GPGGA,054321.80,4444.0267,N,03956.0455,E,1,22,0.6,00156.4,M,0017.2,M,,*6F
$GLGSA,A,3,070,071,072,079,080,085,086,087,,,,,0.9,0.6,0.8*27
$GPGSA,A,3,001,003,008,010,017,021,022,027,031,032,,,0.9,0.6,0.8*3D
$GAGSA,A,3,107,108,113,133,,,,,,,,,0.9,0.6,0.8*29
$GPRMC,054321.80,A,4444.0267,N,03956.0455,E,055.23251,324.4,191121,,,A*54
$GPGGA,054322.00,4444.0292,N,03956.0430,E,1,21,0.6,00156.4,M,0017.2,M,,*6E
$GLGSA,A,3,070,071,072,079,080,085,086,087,,,,,0.9,0.6,0.8*27
$GPGSA,A,3,001,003,008,010,017,021,022,027,031,032,,,0.9,0.6,0.8*3D
$GAGSA,A,3,107,113,133,,,,,,,,,,0.9,0.6,0.8*10
$GPGSV,6,1,23,001,55,307,48,003,26,277,49,004,00,219,,008,23,212,48*74
$GPGSV,6,2,23,010,17,081,27,017,11,326,48,021,77,266,43,022,49,288,49*7E
$GPGSV,6,3,23,027,05,188,39,031,25,131,45,032,51,056,34,070,50,035,33*74
$GPGSV,6,4,23,071,64,277,51,072,18,245,45,079,12,034,26,080,10,089,22*70
$GPGSV,6,5,23,085,44,177,51,086,70,280,37,087,13,331,45,107,82,195,42*7E
$GPGSV,6,6,23,108,40,052,28,113,39,151,45,133,29,314,45*78
$GPRMC,054322.00,A,4444.0292,N,03956.0430,E,055.22054,324.8,191121,,,A*5C
$GPZDA,054322.00,19,11,2021,+00,00*46
$GPGGA,054322.20,4444.0317,N,03956.0405,E,1,21,0.6,00156.4,M,0017.2,M,,*66
$GLGSA,A,3,070,071,072,079,085,086,087,,,,,,1.0,0.6,0.8*17
$GPGSA,A,3,001,003,008,010,017,021,022,027,031,032,,,1.0,0.6,0.8*35
$GAGSA,A,3,107,108,113,133,,,,,,,,,1.0,0.6,0.8*21
$GPRMC,054322.20,A,4444.0317,N,03956.0405,E,055.18550,324.6,191121,,,A*52
$GPGGA,054322.40,4444.0342,N,03956.0380,E,1,22,0.6,00156.4,M,0017.2,M,,*69
$GLGSA,A,3,070,071,072,079,080,085,086,087,,,,,0.9,0.6,0.8*27
$GPGSA,A,3,001,003,008,010,017,021,022,027,031,032,,,0.9,0.6,0.8*3D
$GAGSA,A,3,107,108,113,133,,,,,,,,,0.9,0.6,0.8*29
$GPRMC,054322.40,A,4444.0342,N,03956.0380,E,055.20758,324.5,191121,,,A*5C
$GPGGA,054322.60,4444.0367,N,03956.0355,E,1,22,0.6,00156.3,M,0017.2,M,,*63
$GLGSA,A,3,070,071,072,079,080,085,086,087,,,,,0.9,0.6,0.8*27
$GPGSA,A,3,001,003,008,010,017,021,022,027,031,032,,,0.9,0.6,0.8*3D
$GAGSA,A,3,107,108,113,133,,,,,,,,,0.9,0.6,0.8*29
$GPRMC,054322.60,A,4444.0367,N,03956.0355,E,055.15862,324.4,191121,,,A*50
$GPGGA,054322.80,4444.0392,N,03956.0330,E,1,22,0.6,00156.3,M,0017.2,M,,*64
$GLGSA,A,3,070,071,072,079,080,085,086,087,,,,,0.9,0.6,0.8*27
$GPGSA,A,3,001,003,008,010,017,021,022,027,031,032,,,0.9,0.6,0.8*3D
$GAGSA,A,3,107,108,113,133,,,,,,,,,0.9,0.6,0.8*29
$GPRMC,054322.80,A,4444.0392,N,03956.0330,E,055.17431,324.7,191121,,,A*5C
$GPGGA,054323.00,4444.0417,N,03956.0305,E,1,21,0.6,00156.3,M,0017.2,M,,*62
$GLGSA,A,3,070,071,072,080,085,086,087,,,,,,1.0,0.6,0.8*11
$GPGSA,A,3,001,003,008,010,017,021,022,027,031,032,,,1.0,0.6,0.8*35
$GAGSA,A,3,107,108,113,133,,,,,,,,,1.0,0.6,0.8*21
$GPGSV,6,1,23,001,55,307,48,003,26,277,50,004,00,219,,008,23,212,48*7C
$GPGSV,6,2,23,010,17,081,26,017,11,326,49,021,77,266,43,022,49,288,50*76
$GPGSV,6,3,23,027,05,188,36,031,25,131,45,032,51,056,33,070,50,035,33*7C
$GPGSV,6,4,23,071,64,277,51,072,18,245,47,079,12,034,25,080,10,089,21*72
$GPGSV,6,5,23,085,44,177,52,086,70,280,37,087,13,331,45,107,82,195,42*7D
$GPGSV,6,6,23,108,40,052,28,113,39,151,45,133,29,314,46*7B
$GPRMC,054323.00,A,4444.0417,N,03956.0305,E,055.08196,324.5,191121,,,A*5D
$GPZDA,054323.00,19,11,2021,+00,00*47
$GPGGA,054323.20,4444.0443,N,03956.0279,E,1,22,0.6,00156.3,M,0017.2,M,,*68
$GLGSA,A,3,070,071,072,079,080,085,086,087,,,,,0.9,0.6,0.8*27
$GPGSA,A,3,001,003,008,010,017,021,022,027,031,032,,,0.9,0.6,0.8*3D
$GAGSA,A,3,107,108,113,133,,,,,,,,,0.9,0.6,0.8*29
$GPRMC,054323.20,A,4444.0443,N,03956.0279,E,055.18263,324.6,191121,,,A*5F
$GPGGA,054323.40,4444.0468,N,03956.0255,E,1,22,0.6,00156.3,M,0017.2,M,,*69
$GLGSA,A,3,070,071,072,079,080,085,086,087,,,,,0.9,0.6,0.8*27
$GPGSA,A,3,001,003,008,010,017,021,022,027,031,032,,,0.9,0.6,0.8*3D
$GAGSA,A,3,107,108,113,133,,,,,,,,,0.9,0.6,0.8*29
$GPRMC,054323.40,A,4444.0468,N,03956.0255,E,055.06670,324.7,191121,,,A*56
$GPGGA,054323.60,4444.0493,N,03956.0230,E,1,22,0.6,00156.3,M,0017.2,M,,*6C
$GLGSA,A,3,070,071,072,079,080,085,086,087,,,,,0.9,0.6,0.8*27
$GPGSA,A,3,001,003,008,010,017,021,022,027,031,032,,,0.9,0.6,0.8*3D
$GAGSA,A,3,107,108,113,133,,,,,,,,,0.9,0.6,0.8*29
$GPRMC,054323.60,A,4444.0493,N,03956.0230,E,055.18216,324.6,191121,,,A*59
$GPGGA,054323.80,4444.0518,N,03956.0205,E,1,22,0.6,00156.3,M,0017.2,M,,*66
$GLGSA,A,3,070,071,072,079,080,085,086,087,,,,,0.9,0.6,0.8*27
$GPGSA,A,3,001,003,008,010,017,021,022,027,031,032,,,0.9,0.6,0.8*3D
$GAGSA,A,3,107,108,113,133,,,,,,,,,0.9,0.6,0.8*29
$GPRMC,054323.80,A,4444.0518,N,03956.0205,E,055.13744,324.4,191121,,,A*58
$GPGGA,054324.00,4444.0543,N,03956.0179,E,1,22,0.6,00156.3,M,0017.2,M,,*6F
$GLGSA,A,3,070,071,072,079,080,085,086,087,,,,,0.9,0.6,0.8*27
$GPGSA,A,3,001,003,008,010,017,021,022,027,031,032,,,0.9,0.6,0.8*3D
$GAGSA,A,3,107,108,113,133,,,,,,,,,0.9,0.6,0.8*29
$GPGSV,6,1,23,001,55,307,48,003,26,277,49,004,00,219,,008,23,212,48*74
$GPGSV,6,2,23,010,17,081,25,017,11,326,49,021,77,266,43,022,49,288,50*75
$GPGSV,6,3,23,027,05,188,35,031,25,131,45,032,51,056,33,070,50,035,33*7F
$GPGSV,6,4,23,071,64,277,51,072,18,245,48,079,12,034,23,080,10,089,19*70
$GPGSV,6,5,23,085,44,177,52,086,70,280,37,087,13,331,45,107,82,195,42*7D
$GPGSV,6,6,23,108,40,052,30,113,39,151,45,133,29,314,46*72
$GPRMC,054324.00,A,4444.0543,N,03956.0179,E,055.23510,324.6,191121,,,A*53
$GPZDA,054324.00,19,11,2021,+00,00*40
$GPGGA,054324.20,4444.0568,N,03956.0154,E,1,21,0.6,00156.3,M,0017.3,M,,*69
$GLGSA,A,3,070,071,072,079,080,085,086,087,,,,,0.9,0.6,0.8*27
$GPGSA,A,3,001,003,008,010,017,021,022,027,031,032,,,0.9,0.6,0.8*3D
$GAGSA,A,3,107,113,133,,,,,,,,,,0.9,0.6,0.8*10
$GPRMC,054324.20,A,4444.0568,N,03956.0154,E,055.13721,324.6,191121,,,A*54
$GPGGA,054324.40,4444.0593,N,03956.0129,E,1,21,0.6,00156.3,M,0017.3,M,,*61
$GLGSA,A,3,070,071,072,079,080,085,086,087,,,,,0.9,0.6,0.8*27
$GPGSA,A,3,001,003,008,010,017,021,022,027,031,032,,,0.9,0.6,0.8*3D
$GAGSA,A,3,107,113,133,,,,,,,,,,0.9,0.6,0.8*10
$GPRMC,054324.40,A,4444.0593,N,03956.0129,E,055.04018,324.7,191121,,,A*56
$GPGGA,054324.60,4444.0618,N,03956.0104,E,1,22,0.6,00156.3,M,0017.2,M,,*6E
$GLGSA,A,3,070,071,072,079,080,085,086,087,,,,,0.9,0.6,0.8*27
$GPGSA,A,3,001,003,008,010,017,021,022,027,031,032,,,0.9,0.6,0.8*3D
$GAGSA,A,3,107,108,113,133,,,,,,,,,0.9,0.6,0.8*29
$GPRMC,054324.60,A,4444.0618,N,03956.0104,E,054.91758,324.6,191121,,,A*54
$GPGGA,054324.80,4444.0643,N,03956.0079,E,1,21,0.6,00156.3,M,0017.2,M,,*66
$GLGSA,A,3,070,071,072,079,080,085,086,087,,,,,0.9,0.6,0.8*27
$GPGSA,A,3,001,003,008,010,017,021,022,027,031,032,,,0.9,0.6,0.8*3D
$GAGSA,A,3,107,113,133,,,,,,,,,,0.9,0.6,0.8*10
$GPRMC,054324.80,A,4444.0643,N,03956.0079,E,054.98980,324.4,191121,,,A*5F
$GPGGA,054325.00,4444.0668,N,03956.0054,E,1,22,0.6,00156.3,M,0017.2,M,,*6A
$GLGSA,A,3,070,071,072,079,080,085,086,087,,,,,0.9,0.6,0.8*27
$GPGSA,A,3,001,003,008,010,017,021,022,027,031,032,,,0.9,0.6,0.8*3D
$GAGSA,A,3,107,108,113,133,,,,,,,,,0.9,0.6,0.8*29
$GPGSV,6,1,23,001,55,307,48,003,26,277,49,004,00,219,,008,23,212,48*74
$GPGSV,6,2,23,010,17,081,24,017,11,326,49,021,77,266,43,022,49,288,50*74
$GPGSV,6,3,23,027,05,188,36,031,25,131,45,032,51,056,33,070,50,035,33*7C
$GPGSV,6,4,23,071,64,277,51,072,18,245,48,079,12,034,26,080,10,089,16*7A
$GPGSV,6,5,23,085,44,177,52,086,70,280,37,087,13,331,45,107,82,195,42*7D
$GPGSV,6,6,23,108,40,052,29,113,39,151,45,133,29,314,46*7A
$GPRMC,054325.00,A,4444.0668,N,03956.0054,E,054.96465,324.6,191121,,,A*5A
$GPZDA,054325.00,19,11,2021,+00,00*41
$GPGGA,054325.20,4444.0693,N,03956.0030,E,1,21,0.6,00156.3,M,0017.2,M,,*6D
$GLGSA,A,3,070,071,072,079,085,086,087,,,,,,1.0,0.6,0.8*17
$GPGSA,A,3,001,003,008,010,017,021,022,027,031,032,,,1.0,0.6,0.8*35
$GAGSA,A,3,107,108,113,133,,,,,,,,,1.0,0.6,0.8*21
$GPRMC,054325.20,A,4444.0693,N,03956.0030,E,054.96360,324.5,191121,,,A*5F
$GPGGA,054325.40,4444.0718,N,03956.0005,E,1,22,0.6,00156.3,M,0017.2,M,,*6C
$GLGSA,A,3,070,071,072,079,080,085,086,087,,,,,0.9,0.6,0.8*27
$GPGSA,A,3,001,003,008,010,017,021,022,027,031,032,,,0.9,0.6,0.8*3D
$GAGSA,A,3,107,108,113,133,,,,,,,,,0.9,0.6,0.8*29
$GPRMC,054325.40,A,4444.0718,N,03956.0005,E,054.87292,324.5,191121,,,A*51
$GPGGA,054325.60,4444.0742,N,03955.9980,E,1,20,0.6,00156.3,M,0017.2,M,,*6D
$GLGSA,A,3,070,071,072,079,085,086,087,,,,,,1.0,0.6,0.8*17
$GPGSA,A,3,001,003,008,017,021,022,027,031,032,,,,1.0,0.6,0.8*04
$GAGSA,A,3,107,108,113,133,,,,,,,,,1.0,0.6,0.8*21
$GPRMC,054325.60,A,4444.0742,N,03955.9980,E,054.82351,324.6,191121,,,A*5A
$GPGGA,054325.80,4444.0767,N,03955.9956,E,1,22,0.6,00156.3,M,0017.2,M,,*6D
$GLGSA,A,3,070,071,072,079,080,085,086,087,,,,,0.9,0.6,0.8*27
$GPGSA,A,3,001,003,008,010,017,021,022,027,031,032,,,0.9,0.6,0.8*3D
$GAGSA,A,3,107,108,113,133,,,,,,,,,0.9,0.6,0.8*29
$GPRMC,054325.80,A,4444.0767,N,03955.9956,E,054.78060,324.5,191121,,,A*5F
$GPGGA,054326.00,4444.0792,N,03955.9931,E,1,21,0.6,00156.2,M,0017.2,M,,*6F
$GLGSA,A,3,070,071,072,079,085,086,087,,,,,,1.0,0.6,0.8*17
$GPGSA,A,3,001,003,008,010,017,021,022,027,031,032,,,1.0,0.6,0.8*35
$GAGSA,A,3,107,108,113,133,,,,,,,,,1.0,0.6,0.8*21
$GPGSV,6,1,23,001,55,307,48,003,26,277,50,004,00,219,,008,23,212,48*7C
$GPGSV,6,2,23,010,17,081,22,017,11,326,49,021,77,266,44,022,49,288,50*75
$GPGSV,6,3,23,027,05,188,36,031,25,131,44,032,51,056,34,070,50,035,34*7D
$GPGSV,6,4,23,071,64,277,51,072,18,245,48,079,12,034,29,080,10,089,19*7A
$GPGSV,6,5,23,085,43,177,52,086,70,280,37,087,13,331,45,107,82,195,41*79
$GPGSV,6,6,23,108,40,052,30,113,39,151,45,133,29,314,46*72
$GPRMC,054326.00,A,4444.0792,N,03955.9931,E,054.75180,324.4,191121,,,A*5C
$GPZDA,054326.00,19,11,2021,+00,00*42
$GPGGA,054326.20,4444.0817,N,03955.9907,E,1,22,0.6,00156.2,M,0017.2,M,,*69
$GLGSA,A,3,070,071,072,079,080,085,086,087,,,,,0.9,0.6,0.8*27
$GPGSA,A,3,001,003,008,010,017,021,022,027,031,032,,,0.9,0.6,0.8*3D
$GAGSA,A,3,107,108,113,133,,,,,,,,,0.9,0.6,0.8*29
$GPRMC,054326.20,A,4444.0817,N,03955.9907,E,054.57746,324.5,191121,,,A*54
$GPGGA,054326.40,4444.0842,N,03955.9882,E,1,22,0.6,00156.2,M,0017.2,M,,*63
$GLGSA,A,3,070,071,072,079,080,085,086,087,,,,,0.9,0.6,0.8*27
$GPGSA,A,3,001,003,008,010,017,021,022,027,031,032,,,0.9,0.6,0.8*3D
$GAGSA,A,3,107,108,113,133,,,,,,,,,0.9,0.6,0.8*29
$GPRMC,054326.40,A,4444.0842,N,03955.9882,E,054.56385,324.7,191121,,,A*56
$GPGGA,054326.60,4444.0866,N,03955.9858,E,1,21,0.6,00156.1,M,0017.2,M,,*60
$GLGSA,A,3,070,071,072,079,080,085,086,087,,,,,1.0,0.6,0.8*2F
$GPGSA,A,3,001,003,008,017,021,022,027,031,032,,,,1.0,0.6,0.8*04
$GAGSA,A,3,107,108,113,133,,,,,,,,,1.0,0.6,0.8*21
$GPRMC,054326.60,A,4444.0866,N,03955.9858,E,054.51362,324.5,191121,,,A*59
$GPGGA,054326.80,4444.0891,N,03955.9834,E,1,22,0.6,00156.1,M,0017.3,M,,*6E
$GLGSA,A,3,070,071,072,079,080,085,086,087,,,,,0.9,0.6,0.8*27
$GPGSA,A,3,001,003,008,010,017,021,022,027,031,032,,,0.9,0.6,0.8*3D
$GAGSA,A,3,107,108,113,133,,,,,,,,,0.9,0.6,0.8*29
$GPRMC,054326.80,A,4444.0891,N,03955.9834,E,054.43182,324.5,191121,,,A*5A
$GPGGA,054327.00,4444.0916,N,03955.9809,E,1,22,0.6,00156.1,M,0017.2,M,,*66
$GLGSA,A,3,070,071,072,079,080,085,086,087,,,,,0.9,0.6,0.8*27
$GPGSA,A,3,001,003,008,010,017,021,022,027,031,032,,,0.9,0.6,0.8*3D
$GAGSA,A,3,107,108,113,133,,,,,,,,,0.9,0.6,0.8*29
$GPGSV,6,1,23,001,55,307,48,003,26,277,49,004,00,219,,008,23,212,48*74
$GPGSV,6,2,23,010,17,081,23,017,11,326,49,021,77,266,43,022,49,288,50*73
$GPGSV,6,3,23,027,05,188,41,031,25,131,44,032,51,056,34,070,50,035,34*7D
$GPGSV,6,4,23,071,64,277,52,072,18,245,49,079,12,034,28,080,10,089,23*70
$GPGSV,6,5,23,085,43,177,53,086,70,280,37,087,13,331,45,107,82,195,41*78
$GPGSV,6,6,23,108,40,052,31,113,39,151,45,133,29,314,46*73
$GPRMC,054327.00,A,4444.0916,N,03955.9809,E,054.32305,324.6,191121,,,A*5B
$GPZDA,054327.00,19,11,2021,+00,00*43
$GPGGA,054327.20,4444.0940,N,03955.9785,E,1,22,0.6,00156.1,M,0017.2,M,,*6C
$GLGSA,A,3,070,071,072,079,080,085,086,087,,,,,0.9,0.6,0.8*27
$GPGSA,A,3,001,003,008,010,017,021,022,027,031,032,,,0.9,0.6,0.8*3D
$GAGSA,A,3,107,108,113,133,,,,,,,,,0.9,0.6,0.8*29
$GPRMC,054327.20,A,4444.0940,N,03955.9785,E,054.33448,324.6,191121,,,A*5E
$GPGGA,054327.40,4444.0965,N,03955.9761,E,1,22,0.6,00156.0,M,0017.2,M,,*66
$GLGSA,A,3,070,071,072,079,080,085,086,087,,,,,0.9,0.6,0.8*27
$GPGSA,A,3,001,003,008,010,017,021,022,027,031,032,,,0.9,0.6,0.8*3D
$GAGSA,A,3,107,108,113,133,,,,,,,,,0.9,0.6,0.8*29
$GPRMC,054327.40,A,4444.0965,N,03955.9761,E,054.23176,324.7,191121,,,A*5D
$GPGGA,054327.60,4444.0989,N,03955.9737,E,1,22,0.6,00156.0,M,0017.2,M,,*65
$GLGSA,A,3,070,071,072,079,080,085,086,087,,,,,0.9,0.6,0.8*27
$GPGSA,A,3,001,003,008,010,017,021,022,027,031,032,,,0.9,0.6,0.8*3D
$GAGSA,A,3,107,108,113,133,,,,,,,,,0.9,0.6,0.8*29
$GPRMC,054327.60,A,4444.0989,N,03955.9737,E,054.20014,324.6,191121,,,A*59
$GPGGA,054327.80,4444.1014,N,03955.9713,E,1,22,0.6,00155.9,M,0017.2,M,,*6B
$GLGSA,A,3,070,071,072,079,080,085,086,087,,,,,0.9,0.6,0.8*27
$GPGSA,A,3,001,003,008,010,017,021,022,027,031,032,,,0.9,0.6,0.8*3D
$GAGSA,A,3,107,108,113,133,,,,,,,,,0.9,0.6,0.8*29
$GPRMC,054327.80,A,4444.1014,N,03955.9713,E,054.12781,324.6,191121,,,A*57
$GPGGA,054328.00,4444.1038,N,03955.9689,E,1,22,0.6,00155.9,M,0017.2,M,,*60
$GLGSA,A,3,070,071,072,079,080,085,086,087,,,,,0.9,0.6,0.8*27
$GPGSA,A,3,001,003,008,010,017,021,022,027,031,032,,,0.9,0.6,0.8*3D
$GAGSA,A,3,107,108,113,133,,,,,,,,,0.9,0.6,0.8*29
$GPGSV,6,1,23,001,55,307,48,003,26,277,49,004,00,219,,008,22,212,48*75
$GPGSV,6,2,23,010,17,081,28,017,11,326,49,021,77,266,43,022,49,288,49*70
$GPGSV,6,3,23,027,05,188,44,031,25,131,44,032,51,056,36,070,50,035,34*7A
$GPGSV,6,4,23,071,64,277,52,072,18,245,49,079,12,034,30,080,10,089,26*7C
$GPGSV,6,5,23,085,43,177,52,086,70,280,37,087,13,331,45,107,82,195,41*79
$GPGSV,6,6,23,108,40,052,31,113,39,151,45,133,29,314,46*73
$GPRMC,054328.00,A,4444.1038,N,03955.9689,E,054.07797,324.6,191121,,,A*5F
$GPZDA,054328.00,19,11,2021,+00,00*4C
$GPGGA,054328.20,4444.1062,N,03955.9665,E,1,21,0.6,00155.8,M,0017.2,M,,*6D
$GLGSA,A,3,070,071,072,079,080,085,086,087,,,,,0.9,0.6,0.8*27
$GPGSA,A,3,001,003,008,010,017,021,022,027,031,032,,,0.9,0.6,0.8*3D
$GAGSA,A,3,107,113,133,,,,,,,,,,0.9,0.6,0.8*10
$GPRMC,054328.20,A,4444.1062,N,03955.9665,E,054.00511,324.5,191121,,,A*58
$GPGGA,054328.40,4444.1087,N,03955.9641,E,1,22,0.6,00155.8,M,0017.2,M,,*65
$GLGSA,A,3,070,071,072,079,080,085,086,087,,,,,0.9,0.6,0.8*27
$GPGSA,A,3,001,003,008,010,017,021,022,027,031,032,,,0.9,0.6,0.8*3D
$GAGSA,A,3,107,108,113,133,,,,,,,,,0.9,0.6,0.8*29
$GPRMC,054328.40,A,4444.1087,N,03955.9641,E,053.95872,324.5,191121,,,A*50
$GPGGA,054328.60,4444.1111,N,03955.9617,E,1,22,0.6,00155.7,M,0017.2,M,,*65
$GLGSA,A,3,070,071,072,079,080,085,086,087,,,,,0.9,0.6,0.8*27
$GPGSA,A,3,001,003,008,010,017,021,022,027,031,032,,,0.9,0.6,0.8*3D
$GAGSA,A,3,107,108,113,133,,,,,,,,,0.9,0.6,0.8*29
$GPRMC,054328.60,A,4444.1111,N,03955.9617,E,053.95263,324.4,191121,,,A*54
$GPGGA,054328.80,4444.1135,N,03955.9593,E,1,20,0.6,00155.7,M,0017.2,M,,*60
$GLGSA,A,3,070,071,072,079,080,085,086,087,,,,,1.0,0.6,0.8*2F
$GPGSA,A,3,001,003,008,017,021,022,027,031,032,,,,1.0,0.6,0.8*04
$GAGSA,A,3,107,113,133,,,,,,,,,,1.0,0.6,0.8*18
$GPRMC,054328.80,A,4444.1135,N,03955.9593,E,053.81988,324.5,191121,,,A*59
$GPGGA,054329.00,4444.1160,N,03955.9569,E,1,22,0.6,00155.6,M,0017.2,M,,*6F
$GLGSA,A,3,070,071,072,079,080,085,086,087,,,,,0.9,0.6,0.8*27
$GPGSA,A,3,001,003,008,010,017,021,022,027,031,032,,,0.9,0.6,0.8*3D
$GAGSA,A,3,107,108,113,133,,,,,,,,,0.9,0.6,0.8*29
$GPGSV,6,1,23,001,55,307,48,003,26,277,49,004,00,219,,008,22,212,49*74
$GPGSV,6,2,23,010,17,081,27,017,11,326,49,021,77,266,43,022,49,288,50*77
$GPGSV,6,3,23,027,05,188,42,031,25,131,43,032,51,056,35,070,50,035,34*78
$GPGSV,6,4,23,071,64,277,51,072,18,245,49,079,12,034,29,080,10,089,26*77
$GPGSV,6,5,23,085,43,177,51,086,70,280,37,087,13,331,45,107,82,195,42*79
$GPGSV,6,6,23,108,40,052,27,113,39,151,45,133,29,314,46*74
$GPRMC,054329.00,A,4444.1160,N,03955.9569,E,053.77475,324.6,191121,,,A*50
$GPZDA,054329.00,19,11,2021,+00,00*4D
$GPGGA,054329.20,4444.1184,N,03955.9545,E,1,21,0.6,00155.6,M,0017.2,M,,*6A
$GLGSA,A,3,070,071,072,079,080,085,086,087,,,,,1.0,0.6,0.8*2F
$GPGSA,A,3,001,003,008,017,021,022,027,031,032,,,,1.0,0.6,0.8*04
$GAGSA,A,3,107,108,113,133,,,,,,,,,1.0,0.6,0.8*21
$GPRMC,054329.20,A,4444.1184,N,03955.9545,E,053.64778,324.6,191121,,,A*5A
$GPGGA,054329.40,4444.1209,N,03955.9521,E,1,22,0.6,00155.5,M,0017.2,M,,*68
$GLGSA,A,3,070,071,072,079,080,085,086,087,,,,,0.9,0.6,0.8*27
$GPGSA,A,3,001,003,008,010,017,021,022,027,031,032,,,0.9,0.6,0.8*3D
$GAGSA,A,3,107,108,113,133,,,,,,,,,0.9,0.6,0.8*29
$GPRMC,054329.40,A,4444.1209,N,03955.9521,E,053.71852,324.7,191121,,,A*5A
$GPGGA,054329.60,4444.1233,N,03955.9497,E,1,22,0.6,00155.5,M,0017.2,M,,*6F
$GLGSA,A,3,070,071,072,079,080,085,086,087,,,,,0.9,0.6,0.8*27
$GPGSA,A,3,001,003,008,010,017,021,022,027,031,032,,,0.9,0.6,0.8*3D
$GAGSA,A,3,107,108,113,133,,,,,,,,,0.9,0.6,0.8*29
$GPRMC,054329.60,A,4444.1233,N,03955.9497,E,053.62645,324.6,191121,,,A*56
$GPGGA,054329.80,4444.1257,N,03955.9473,E,1,21,0.6,00155.4,M,0017.2,M,,*6B
$GLGSA,A,3,070,071,072,079,080,085,086,087,,,,,0.9,0.6,0.8*27
$GPGSA,A,3,001,003,008,010,017,021,022,027,031,032,,,0.9,0.6,0.8*3D
$GAGSA,A,3,107,113,133,,,,,,,,,,0.9,0.6,0.8*10
$GPRMC,054329.80,A,4444.1257,N,03955.9473,E,053.52217,324.5,191121,,,A*53
$GPGGA,054330.00,4444.1281,N,03955.9449,E,1,22,0.6,00155.4,M,0017.2,M,,*6A
$GLGSA,A,3,070,071,072,079,080,085,086,087,,,,,0.9,0.6,0.8*27
$GPGSA,A,3,001,003,008,010,017,021,022,027,031,032,,,0.9,0.6,0.8*3D
$GAGSA,A,3,107,108,113,133,,,,,,,,,0.9,0.6,0.8*29
$GPGSV,6,1,23,001,55,307,49,003,26,277,50,004,00,219,,008,22,212,49*7D
$GPGSV,6,2,23,010,17,081,25,017,11,326,49,021,77,266,43,022,49,288,50*75
$GPGSV,6,3,23,027,05,188,40,031,25,131,43,032,51,056,34,070,50,035,34*7B
$GPGSV,6,4,23,071,64,277,52,072,18,245,49,079,12,034,29,080,10,089,26*74
$GPGSV,6,5,23,085,43,177,52,086,70,280,37,087,13,331,45,107,82,195,41*79
$GPGSV,6,6,23,108,40,052,26,113,39,151,45,133,29,314,46*75
$GPRMC,054330.00,A,4444.1281,N,03955.9449,E,053.39967,324.7,191121,,,A*52
$GPZDA,054330.00,19,11,2021,+00,00*45
$GPGGA,054330.20,4444.1305,N,03955.9426,E,1,21,0.6,00155.3,M,0017.2,M,,*68
$GLGSA,A,3,070,071,072,079,080,085,086,087,,,,,0.9,0.6,0.8*27
$GPGSA,A,3,001,003,008,010,017,021,022,027,031,032,,,0.9,0.6,0.8*3D
$GAGSA,A,3,107,113,133,,,,,,,,,,0.9,0.6,0.8*10
$GPRMC,054330.20,A,4444.1305,N,03955.9426,E,053.39378,324.7,191121,,,A*50
$GPGGA,054330.40,4444.1330,N,03955.9402,E,1,22,0.6,00155.3,M,0017.2,M,,*6D
$GLGSA,A,3,070,071,072,079,080,085,086,087,,,,,0.9,0.6,0.8*27
$GPGSA,A,3,001,003,008,010,017,021,022,027,031,032,,,0.9,0.6,0.8*3D
$GAGSA,A,3,107,108,113,133,,,,,,,,,0.9,0.6,0.8*29
$GPRMC,054330.40,A,4444.1330,N,03955.9402,E,053.23614,324.7,191121,,,A*52
$GPGGA,054330.60,4444.1354,N,03955.9378,E,1,21,0.6,00155.3,M,0017.2,M,,*64
$GLGSA,A,3,070,071,072,079,080,085,086,087,,,,,0.9,0.6,0.8*27
$GPGSA,A,3,001,003,008,010,017,021,022,027,031,032,,,0.9,0.6,0.8*3D
$GAGSA,A,3,107,113,133,,,,,,,,,,0.9,0.6,0.8*10
$GPRMC,054330.60,A,4444.1354,N,03955.9378,E,053.25486,324.7,191121,,,A*57
$GPGGA,054330.80,4444.1378,N,03955.9355,E,1,22,0.6,00155.2,M,0017.2,M,,*69
$GLGSA,A,3,070,071,072,079,080,085,086,087,,,,,0.9,0.6,0.8*27
$GPGSA,A,3,001,003,008,010,017,021,022,027,031,032,,,0.9,0.6,0.8*3D
$GAGSA,A,3,107,108,113,133,,,,,,,,,0.9,0.6,0.8*29
$GPRMC,054330.80,A,4444.1378,N,03955.9355,E,053.18047,324.6,191121,,,A*5E
$GPGGA,054331.00,4444.1402,N,03955.9331,E,1,22,0.6,00155.2,M,0017.2,M,,*68
$GLGSA,A,3,070,071,072,079,080,085,086,087,,,,,0.9,0.6,0.8*27
$GPGSA,A,3,001,003,008,010,017,021,022,027,031,032,,,0.9,0.6,0.8*3D
$GAGSA,A,3,107,108,113,133,,,,,,,,,0.9,0.6,0.8*29
$GPGSV,6,1,23,001,55,307,49,003,26,277,50,004,00,219,,008,22,212,48*7C
$GPGSV,6,2,23,010,17,081,28,017,11,326,48,021,77,266,43,022,49,288,50*79
$GPGSV,6,3,23,027,05,188,40,031,25,131,45,032,51,056,35,070,50,035,34*7C
$GPGSV,6,4,23,071,64,277,52,072,18,245,49,079,12,034,28,080,10,089,27*74
$GPGSV,6,5,23,085,43,177,52,086,70,280,37,087,13,331,45,107,82,195,41*79
$GPGSV,6,6,23,108,40,052,25,113,39,151,46,133,29,314,46*75
$GPRMC,054331.00,A,4444.1402,N,03955.9331,E,053.04965,324.5,191121,,,A*58
$GPZDA,054331.00,19,11,2021,+00,00*44
$GPGGA,054331.20,4444.1426,N,03955.9307,E,1,22,0.6,00155.2,M,0017.2,M,,*69
$GLGSA,A,3,070,071,072,079,080,085,086,087,,,,,0.9,0.6,0.8*27
$GPGSA,A,3,001,003,008,010,017,021,022,027,031,032,,,0.9,0.6,0.8*3D
$GAGSA,A,3,107,108,113,133,,,,,,,,,0.9,0.6,0.8*29
$GPRMC,054331.20,A,4444.1426,N,03955.9307,E,053.05598,324.6,191121,,,A*55
$GPGGA,054331.40,4444.1450,N,03955.9283,E,1,22,0.6,00155.2,M,0017.2,M,,*63
$GLGSA,A,3,070,071,072,079,080,085,086,087,,,,,0.9,0.6,0.8*27
$GPGSA,A,3,001,003,008,010,017,021,022,027,031,032,,,0.9,0.6,0.8*3D
$GAGSA,A,3,107,108,113,133,,,,,,,,,0.9,0.6,0.8*29
$GPRMC,054331.40,A,4444.1450,N,03955.9283,E,052.92047,324.4,191121,,,A*55
$GPGGA,054331.60,4444.1474,N,03955.9259,E,1,22,0.6,00155.1,M,0017.2,M,,*63
$GLGSA,A,3,070,071,072,079,080,085,086,087,,,,,0.9,0.6,0.8*27
$GPGSA,A,3,001,003,008,010,017,021,022,027,031,032,,,0.9,0.6,0.8*3D
$GAGSA,A,3,107,108,113,133,,,,,,,,,0.9,0.6,0.8*29
$GPRMC,054331.60,A,4444.1474,N,03955.9259,E,052.89307,324.6,191121,,,A*59
$GPGGA,054331.80,4444.1498,N,03955.9235,E,1,22,0.6,00155.1,M,0017.2,M,,*65
$GLGSA,A,3,070,071,072,079,080,085,086,087,,,,,0.9,0.6,0.8*27
$GPGSA,A,3,001,003,008,010,017,021,022,027,031,032,,,0.9,0.6,0.8*3D
$GAGSA,A,3,107,108,113,133,,,,,,,,,0.9,0.6,0.8*29
$GPRMC,054331.80,A,4444.1498,N,03955.9235,E,052.85151,324.3,191121,,,A*57
$GPGGA,054332.00,4444.1522,N,03955.9211,E,1,22,0.6,00155.1,M,0017.2,M,,*68
$GLGSA,A,3,070,071,072,079,080,085,086,087,,,,,0.9,0.6,0.8*27
$GPGSA,A,3,001,003,008,010,017,021,022,027,031,032,,,0.9,0.6,0.8*3D
$GAGSA,A,3,107,108,113,133,,,,,,,,,0.9,0.6,0.8*29
$GPGSV,6,1,23,001,55,307,48,003,26,277,49,004,00,219,,008,22,212,48*75
$GPGSV,6,2,23,010,17,081,27,017,11,326,47,021,77,266,43,022,49,288,50*79
$GPGSV,6,3,23,027,05,188,38,031,25,131,44,032,51,056,36,070,50,035,34*71
$GPGSV,6,4,23,071,64,277,51,072,18,245,49,079,12,034,28,080,10,089,27*77
$GPGSV,6,5,23,085,43,177,52,086,70,280,37,087,13,331,45,107,82,195,41*79
$GPGSV,6,6,23,108,40,052,25,113,39,151,45,133,29,314,46*76
$GPRMC,054332.00,A,4444.1522,N,03955.9211,E,052.74260,324.6,191121,,,A*50
$GPZDA,054332.00,19,11,2021,+00,00*47
$GPGGA,054332.20,4444.1546,N,03955.9188,E,1,22,0.6,00155.1,M,0017.2,M,,*6B
$GLGSA,A,3,070,071,072,079,080,085,086,087,,,,,0.9,0.6,0.8*27
$GPGSA,A,3,001,003,008,010,017,021,022,027,031,032,,,0.9,0.6,0.8*3D
$GAGSA,A,3,107,108,113,133,,,,,,,,,0.9,0.6,0.8*29
$GPRMC,054332.20,A,4444.1546,N,03955.9188,E,052.62407,324.5,191121,,,A*50
$GPGGA,054332.40,4444.1570,N,03955.9164,E,1,20,0.6,00155.1,M,0017.2,M,,*68
$GLGSA,A,3,070,071,072,079,080,085,086,087,,,,,1.0,0.6,0.8*2F
$GPGSA,A,3,001,003,008,017,021,022,027,031,032,,,,1.0,0.6,0.8*04
$GAGSA,A,3,107,113,133,,,,,,,,,,1.0,0.6,0.8*18
$GPRMC,054332.40,A,4444.1570,N,03955.9164,E,052.60281,324.5,191121,,,A*5B
$GPGGA,054332.60,4444.1593,N,03955.9140,E,1,22,0.6,00155.0,M,0017.2,M,,*62
$GLGSA,A,3,070,071,072,079,080,085,086,087,,,,,0.9,0.6,0.8*27
$GPGSA,A,3,001,003,008,010,017,021,022,027,031,032,,,0.9,0.6,0.8*3D
$GAGSA,A,3,107,108,113,133,,,,,,,,,0.9,0.6,0.8*29
$GPRMC,054332.60,A,4444.1593,N,03955.9140,E,052.51277,324.5,191121,,,A*59
$GPGGA,054332.80,4444.1617,N,03955.9117,E,1,21,0.6,00155.0,M,0017.2,M,,*62
$GLGSA,A,3,070,071,072,079,080,085,086,087,,,,,0.9,0.6,0.8*27
$GPGSA,A,3,001,003,008,010,017,021,022,027,031,032,,,0.9,0.6,0.8*3D
$GAGSA,A,3,107,113,133,,,,,,,,,,0.9,0.6,0.8*10
$GPRMC,054332.80,A,4444.1617,N,03955.9117,E,052.41730,324.6,191121,,,A*5E
$GPGGA,054333.00,4444.1641,N,03955.9094,E,1,21,0.6,00155.0,M,0017.2,M,,*62
$GLGSA,A,3,070,071,072,079,080,085,086,087,,,,,0.9,0.6,0.8*27
$GPGSA,A,3,001,003,008,010,017,021,022,027,031,032,,,0.9,0.6,0.8*3D
$GAGSA,A,3,107,113,133,,,,,,,,,,0.9,0.6,0.8*10
$GPGSV,6,1,23,001,55,307,48,003,26,277,49,004,00,219,,008,22,212,48*75
$GPGSV,6,2,23,010,17,081,26,017,11,326,48,021,77,266,43,022,49,288,50*77
$GPGSV,6,3,23,027,05,188,35,031,25,131,44,032,51,056,34,070,50,035,34*7E
$GPGSV,6,4,23,071,64,277,51,072,18,245,48,079,12,034,27,080,10,089,26*78
$GPGSV,6,5,23,085,43,177,53,086,70,280,37,087,13,331,45,107,82,195,42*7B
$GPGSV,6,6,23,108,40,052,25,113,39,151,45,133,29,314,47*77
$GPRMC,054333.00,A,4444.1641,N,03955.9094,E,052.32662,324.6,191121,,,A*5C
$GPZDA,054333.00,19,11,2021,+00,00*46
$GPGGA,054333.20,4444.1664,N,03955.9070,E,1,21,0.6,00155.0,M,0017.2,M,,*6D
$GLGSA,A,3,070,071,072,079,080,085,086,087,,,,,0.9,0.6,0.8*27
$GPGSA,A,3,001,003,008,010,017,021,022,027,031,032,,,0.9,0.6,0.8*3D
$GAGSA,A,3,107,113,133,,,,,,,,,,0.9,0.6,0.8*10
$GPRMC,054333.20,A,4444.1664,N,03955.9070,E,052.32470,324.4,191121,,,A*50
$GPGGA,054333.40,4444.1688,N,03955.9046,E,1,20,0.6,00155.0,M,0017.2,M,,*6D
$GLGSA,A,3,070,071,072,079,080,085,086,087,,,,,1.0,0.6,0.8*2F
$GPGSA,A,3,001,003,008,017,021,022,027,031,032,,,,1.0,0.6,0.8*04
$GAGSA,A,3,107,113,133,,,,,,,,,,1.0,0.6,0.8*18
$GPRMC,054333.40,A,4444.1688,N,03955.9046,E,052.13068,324.5,191121,,,A*5E
$GPGGA,054333.60,4444.1712,N,03955.9023,E,1,22,0.6,00155.0,M,0017.2,M,,*6C
$GLGSA,A,3,070,071,072,079,080,085,086,087,,,,,0.9,0.6,0.8*27
$GPGSA,A,3,001,003,008,010,017,021,022,027,031,032,,,0.9,0.6,0.8*3D
$GAGSA,A,3,107,108,113,133,,,,,,,,,0.9,0.6,0.8*29
$GPRMC,054333.60,A,4444.1712,N,03955.9023,E,052.11961,324.6,191121,,,A*5C
$GPGGA,054333.80,4444.1735,N,03955.8999,E,1,22,0.6,00155.0,M,0017.2,M,,*6E
$GLGSA,A,3,070,071,072,079,080,085,086,087,,,,,0.9,0.6,0.8*27
$GPGSA,A,3,001,003,008,010,017,021,022,027,031,032,,,0.9,0.6,0.8*3D
$GAGSA,A,3,107,108,113,133,,,,,,,,,0.9,0.6,0.8*29
$GPRMC,054333.80,A,4444.1735,N,03955.8999,E,051.94738,324.4,191121,,,A*50
$GPGGA,054334.00,4444.1759,N,03955.8975,E,1,22,0.6,00154.9,M,0017.2,M,,*61
$GLGSA,A,3,070,071,072,079,080,085,086,087,,,,,0.9,0.6,0.8*27
$GPGSA,A,3,001,003,008,010,017,021,022,027,031,032,,,0.9,0.6,0.8*3D
$GAGSA,A,3,107,108,113,133,,,,,,,,,0.9,0.6,0.8*29
$GPGSV,6,1,23,001,55,307,48,003,26,277,50,004,00,219,,008,22,212,47*72
$GPGSV,6,2,23,010,17,081,25,017,11,326,48,021,77,266,44,022,49,288,51*72
$GPGSV,6,3,23,027,05,188,35,031,25,131,45,032,51,056,34,070,50,035,34*7F
$GPGSV,6,4,23,071,64,277,52,072,18,245,49,079,12,034,28,080,10,089,25*76
$GPGSV,6,5,23,085,43,177,53,086,70,280,37,087,13,331,45,107,82,195,41*78
$GPGSV,6,6,23,108,40,052,24,113,39,151,45,133,29,314,46*77
$GPRMC,054334.00,A,4444.1759,N,03955.8975,E,051.97040,324.4,191121,,,A*5C
$GPZDA,054334.00,19,11,2021,+00,00*41
$GPGGA,054334.20,4444.1782,N,03955.8952,E,1,22,0.6,00154.9,M,0017.2,M,,*60
$GLGSA,A,3,070,071,072,079,080,085,086,087,,,,,0.9,0.6,0.8*27
$GPGSA,A,3,001,003,008,010,017,021,022,027,031,032,,,0.9,0.6,0.8*3D
$GAGSA,A,3,107,108,113,133,,,,,,,,,0.9,0.6,0.8*29
$GPRMC,054334.20,A,4444.1782,N,03955.8952,E,051.92743,324.3,191121,,,A*5B
$GPGGA,054334.40,4444.1806,N,03955.8928,E,1,22,0.6,00154.9,M,0017.2,M,,*68
$GLGSA,A,3,070,071,072,079,080,085,086,087,,,,,0.9,0.6,0.8*27
$GPGSA,A,3,001,003,008,010,017,021,022,027,031,032,,,0.9,0.6,0.8*3D
$GAGSA,A,3,107,108,113,133,,,,,,,,,0.9,0.6,0.8*29
$GPRMC,054334.40,A,4444.1806,N,03955.8928,E,051.86208,324.7,191121,,,A*58
$GPGGA,054334.60,4444.1829,N,03955.8905,E,1,21,0.6,00154.9,M,0017.2,M,,*6B
$GLGSA,A,3,070,071,072,079,080,085,086,087,,,,,0.9,0.6,0.8*27
$GPGSA,A,3,001,003,008,010,017,021,022,027,031,032,,,0.9,0.6,0.8*3D
$GAGSA,A,3,107,113,133,,,,,,,,,,0.9,0.6,0.8*10
$GPRMC,054334.60,A,4444.1829,N,03955.8905,E,051.59061,324.4,191121,,,A*54
$GPGGA,054334.80,4444.1853,N,03955.8881,E,1,22,0.6,00154.9,M,0017.2,M,,*66
$GLGSA,A,3,070,071,072,079,080,085,086,087,,,,,0.9,0.6,0.8*27
$GPGSA,A,3,001,003,008,010,017,021,022,027,031,032,,,0.9,0.6,0.8*3D
$GAGSA,A,3,107,108,113,133,,,,,,,,,0.9,0.6,0.8*29
$GPRMC,054334.80,A,4444.1853,N,03955.8881,E,051.51810,324.4,191121,,,A*5C
$GPGGA,054335.00,4444.1876,N,03955.8858,E,1,22,0.6,00154.9,M,0017.2,M,,*6C
$GLGSA,A,3,070,071,072,079,080,085,086,087,,,,,0.9,0.6,0.8*27
$GPGSA,A,3,001,003,008,010,017,021,022,027,031,032,,,0.9,0.6,0.8*3D
$GAGSA,A,3,107,108,113,133,,,,,,,,,0.9,0.6,0.8*29
$GPGSV,6,1,23,001,55,307,49,003,26,277,49,004,00,219,,008,22,212,48*74
$GPGSV,6,2,23,010,17,081,26,017,11,326,48,021,77,266,44,022,49,288,51*71
$GPGSV,6,3,23,027,05,188,37,031,25,131,45,032,51,056,34,070,50,035,34*7D
$GPGSV,6,4,23,071,64,277,51,072,18,245,49,079,12,034,30,080,10,089,26*7F
$GPGSV,6,5,23,085,43,177,53,086,70,280,37,087,13,331,45,107,82,195,41*78
$GPGSV,6,6,23,108,40,052,24,113,39,151,45,133,29,314,45*74
$GPRMC,054335.00,A,4444.1876,N,03955.8858,E,051.57965,324.5,191121,,,A*52
$GPZDA,054335.00,19,11,2021,+00,00*40
$GPGGA,054335.20,4444.1900,N,03955.8835,E,1,22,0.6,00154.9,M,0017.2,M,,*65
$GLGSA,A,3,070,071,072,079,080,085,086,087,,,,,0.9,0.6,0.8*27
$GPGSA,A,3,001,003,008,010,017,021,022,027,031,032,,,0.9,0.6,0.8*3D
$GAGSA,A,3,107,108,113,133,,,,,,,,,0.9,0.6,0.8*29
$GPRMC,054335.20,A,4444.1900,N,03955.8835,E,051.40224,324.6,191121,,,A*50
$GPGGA,054335.40,4444.1923,N,03955.8811,E,1,22,0.6,00154.9,M,0017.2,M,,*64
$GLGSA,A,3,070,071,072,079,080,085,086,087,,,,,0.9,0.6,0.8*27
$GPGSA,A,3,001,003,008,010,017,021,022,027,031,032,,,0.9,0.6,0.8*3D
$GAGSA,A,3,107,108,113,133,,,,,,,,,0.9,0.6,0.8*29
$GPRMC,054335.40,A,4444.1923,N,03955.8811,E,051.22592,324.3,191121,,,A*5A
$GPGGA,054335.60,4444.1946,N,03955.8788,E,1,22,0.6,00154.9,M,0017.2,M,,*6A
$GLGSA,A,3,070,071,072,079,080,085,086,087,,,,,0.9,0.6,0.8*27
$GPGSA,A,3,001,003,008,010,017,021,022,027,031,032,,,0.9,0.6,0.8*3D
$GAGSA,A,3,107,108,113,133,,,,,,,,,0.9,0.6,0.8*29
$GPRMC,054335.60,A,4444.1946,N,03955.8788,E,051.21730,324.4,191121,,,A*5A
$GPGGA,054335.80,4444.1969,N,03955.8765,E,1,22,0.6,00154.9,M,0017.2,M,,*6A
$GLGSA,A,3,070,071,072,079,080,085,086,087,,,,,0.9,0.6,0.8*27
$GPGSA,A,3,001,003,008,010,017,021,022,027,031,032,,,0.9,0.6,0.8*3D
$GAGSA,A,3,107,108,113,133,,,,,,,,,0.9,0.6,0.8*29
$GPRMC,054335.80,A,4444.1969,N,03955.8765,E,051.08005,324.6,191121,,,A*52
$GPGGA,054336.00,4444.1992,N,03955.8742,E,1,22,0.6,00154.8,M,0017.2,M,,*61
$GLGSA,A,3,070,071,072,079,080,085,086,087,,,,,0.9,0.6,0.8*27
$GPGSA,A,3,001,003,008,010,017,021,022,027,031,032,,,0.9,0.6,0.8*3D
$GAGSA,A,3,107,108,113,133,,,,,,,,,0.9,0.6,0.8*29
$GPGSV,6,1,23,001,55,307,48,003,26,277,49,004,00,219,,008,22,212,47*7A
$GPGSV,6,2,23,010,17,081,25,017,11,326,48,021,77,266,43,022,49,288,51*75
$GPGSV,6,3,23,027,05,188,38,031,25,131,44,032,50,056,35,070,50,035,34*73
$GPGSV,6,4,23,071,64,277,51,072,18,245,48,079,12,034,30,080,10,089,27*7F
$GPGSV,6,5,23,085,43,177,53,086,70,280,37,087,13,331,45,107,82,195,41*78
$GPGSV,6,6,23,108,40,052,24,113,39,151,45,133,29,314,45*74
$GPRMC,054336.00,A,4444.1992,N,03955.8742,E,051.00246,324.5,191121,,,A*56
$GPZDA,054336.00,19,11,2021,+00,00*43
$GPGGA,054336.20,4444.2015,N,03955.8720,E,1,22,0.6,00154.8,M,0017.2,M,,*62
$GLGSA,A,3,070,071,072,079,080,085,086,087,,,,,0.9,0.6,0.8*27
$GPGSA,A,3,001,003,008,010,017,021,022,027,031,032,,,0.9,0.6,0.8*3D
$GAGSA,A,3,107,108,113,133,,,,,,,,,0.9,0.6,0.8*29
$GPRMC,054336.20,A,4444.2015,N,03955.8720,E,050.91527,324.6,191121,,,A*5F
$GPGGA,054336.40,4444.2038,N,03955.8697,E,1,22,0.6,00154.8,M,0017.2,M,,*66
$GLGSA,A,3,070,071,072,079,080,085,086,087,,,,,0.9,0.6,0.8*27
$GPGSA,A,3,001,003,008,010,017,021,022,027,031,032,,,0.9,0.6,0.8*3D
$GAGSA,A,3,107,108,113,133,,,,,,,,,0.9,0.6,0.8*29
$GPRMC,054336.40,A,4444.2038,N,03955.8697,E,050.67356,324.5,191121,,,A*51
$GPGGA,054336.60,4444.2061,N,03955.8674,E,1,21,0.6,00154.8,M,0017.2,M,,*66
$GLGSA,A,3,070,071,072,079,080,085,086,087,,,,,0.9,0.6,0.8*27
$GPGSA,A,3,001,003,008,010,017,021,022,027,031,032,,,0.9,0.6,0.8*3D
$GAGSA,A,3,107,113,133,,,,,,,,,,0.9,0.6,0.8*10
$GPRMC,054336.60,A,4444.2061,N,03955.8674,E,050.61382,324.5,191121,,,A*5D
$GPGGA,054336.80,4444.2084,N,03955.8651,E,1,22,0.6,00154.7,M,0017.2,M,,*68
$GLGSA,A,3,070,071,072,079,080,085,086,087,,,,,0.9,0.6,0.8*27
$GPGSA,A,3,001,003,008,010,017,021,022,027,031,032,,,0.9,0.6,0.8*3D
$GAGSA,A,3,107,108,113,133,,,,,,,,,0.9,0.6,0.8*29
$GPRMC,054336.80,A,4444.2084,N,03955.8651,E,050.49338,324.4,191121,,,A*55
$GPGGA,054337.00,4444.2107,N,03955.8628,E,1,22,0.6,00154.7,M,0017.2,M,,*65
$GLGSA,A,3,070,071,072,079,080,085,086,087,,,,,0.9,0.6,0.8*27
$GPGSA,A,3,001,003,008,010,017,021,022,027,031,032,,,0.9,0.6,0.8*3D
$GAGSA,A,3,107,108,113,133,,,,,,,,,0.9,0.6,0.8*29
$GPGSV,6,1,23,001,55,307,48,003,26,277,49,004,01,219,,008,22,212,49*75
$GPGSV,6,2,23,010,17,081,26,017,11,326,48,021,77,266,43,022,49,288,51*76
$GPGSV,6,3,23,027,05,188,39,031,25,131,45,032,50,056,35,070,50,035,34*73
$GPGSV,6,4,23,071,64,277,51,072,18,245,48,079,12,034,30,080,10,089,27*7F
$GPGSV,6,5,23,085,43,177,53,086,70,280,38,087,13,331,45,107,82,195,41*77
$GPGSV,6,6,23,108,40,052,24,113,39,151,45,133,29,314,47*76
$GPRMC,054337.00,A,4444.2107,N,03955.8628,E,050.47015,324.4,191121,,,A*5A
$GPZDA,054337.00,19,11,2021,+00,00*42
$GPGGA,054337.20,4444.2130,N,03955.8605,E,1,22,0.6,00154.7,M,0017.2,M,,*6C
$GLGSA,A,3,070,071,072,079,080,085,086,087,,,,,0.9,0.6,0.8*27
$GPGSA,A,3,001,003,008,010,017,021,022,027,031,032,,,0.9,0.6,0.8*3D
$GAGSA,A,3,107,108,113,133,,,,,,,,,0.9,0.6,0.8*29
$GPRMC,054337.20,A,4444.2130,N,03955.8605,E,050.31364,324.6,191121,,,A*55
$GPGGA,054337.40,4444.2153,N,03955.8583,E,1,21,0.6,00154.7,M,0017.2,M,,*61
$GLGSA,A,3,070,071,072,079,080,085,086,087,,,,,0.9,0.6,0.8*27
$GPGSA,A,3,001,003,008,010,017,021,022,027,031,032,,,0.9,0.6,0.8*3D
$GAGSA,A,3,107,113,133,,,,,,,,,,0.9,0.6,0.8*10
$GPRMC,054337.40,A,4444.2153,N,03955.8583,E,050.15630,324.4,191121,,,A*5B
$GPGGA,054337.60,4444.2175,N,03955.8560,E,1,22,0.6,00154.7,M,0017.2,M,,*69
$GLGSA,A,3,070,071,072,079,080,085,086,087,,,,,0.9,0.6,0.8*27
$GPGSA,A,3,001,003,008,010,017,021,022,027,031,032,,,0.9,0.6,0.8*3D
$GAGSA,A,3,107,108,113,133,,,,,,,,,0.9,0.6,0.8*29
$GPRMC,054337.60,A,4444.2175,N,03955.8560,E,049.99983,324.4,191121,,,A*5B
$GPGGA,054337.80,4444.2198,N,03955.8537,E,1,22,0.6,00154.7,M,0017.2,M,,*66
$GLGSA,A,3,070,071,072,079,080,085,086,087,,,,,0.9,0.6,0.8*27
$GPGSA,A,3,001,003,008,010,017,021,022,027,031,032,,,0.9,0.6,0.8*3D
$GAGSA,A,3,107,108,113,133,,,,,,,,,0.9,0.6,0.8*29
$GPRMC,054337.80,A,4444.2198,N,03955.8537,E,049.90567,324.5,191121,,,A*5A
$GPGGA,054338.00,4444.2221,N,03955.8514,E,1,22,0.6,00154.7,M,0017.2,M,,*61
$GLGSA,A,3,070,071,072,079,080,085,086,087,,,,,0.9,0.6,0.8*27
$GPGSA,A,3,001,003,008,010,017,021,022,027,031,032,,,0.9,0.6,0.8*3D
$GAGSA,A,3,107,108,113,133,,,,,,,,,0.9,0.6,0.8*29
$GPGSV,6,1,23,001,55,307,48,003,26,277,49,004,01,219,,008,22,212,48*74
$GPGSV,6,2,23,010,17,081,26,017,11,326,48,021,77,266,43,022,49,288,51*76
$GPGSV,6,3,23,027,05,188,41,031,25,131,45,032,50,056,34,070,50,035,33*7A
$GPGSV,6,4,23,071,64,277,51,072,18,245,48,079,12,034,29,080,10,089,26*76
$GPGSV,6,5,23,085,43,177,53,086,70,280,37,087,13,331,45,107,82,195,41*78
$GPGSV,6,6,23,108,40,052,24,113,39,151,45,133,29,314,47*76
$GPRMC,054338.00,A,4444.2221,N,03955.8514,E,049.86688,324.5,191121,,,A*58
$GPZDA,054338.00,19,11,2021,+00,00*4D
$GPGGA,054338.20,4444.2243,N,03955.8491,E,1,22,0.6,00154.7,M,0017.2,M,,*6B
$GLGSA,A,3,070,071,072,079,080,085,086,087,,,,,0.9,0.6,0.8*27
$GPGSA,A,3,001,003,008,010,017,021,022,027,031,032,,,0.9,0.6,0.8*3D
$GAGSA,A,3,107,108,113,133,,,,,,,,,0.9,0.6,0.8*29
$GPRMC,054338.20,A,4444.2243,N,03955.8491,E,049.64531,324.4,191121,,,A*5E
$GPGGA,054338.40,4444.2265,N,03955.8469,E,1,22,0.6,00154.6,M,0017.2,M,,*6F
$GLGSA,A,3,070,071,072,079,080,085,086,087,,,,,0.9,0.6,0.8*27
$GPGSA,A,3,001,003,008,010,017,021,022,027,031,032,,,0.9,0.6,0.8*3D
$GAGSA,A,3,107,108,113,133,,,,,,,,,0.9,0.6,0.8*29
$GPRMC,054338.40,A,4444.2265,N,03955.8469,E,049.49141,324.6,191121,,,A*55
$GPGGA,054338.60,4444.2288,N,03955.8446,E,1,22,0.6,00154.6,M,0017.2,M,,*63
$GLGSA,A,3,070,071,072,079,080,085,086,087,,,,,0.9,0.6,0.8*27
$GPGSA,A,3,001,003,008,010,017,021,022,027,031,032,,,0.9,0.6,0.8*3D
$GAGSA,A,3,107,108,113,133,,,,,,,,,0.9,0.6,0.8*29
$GPRMC,054338.60,A,4444.2288,N,03955.8446,E,049.40654,324.5,191121,,,A*50
$GPGGA,054338.80,4444.2310,N,03955.8424,E,1,22,0.6,00154.6,M,0017.2,M,,*69
$GLGSA,A,3,070,071,072,079,080,085,086,087,,,,,0.9,0.6,0.8*27
$GPGSA,A,3,001,003,008,010,017,021,022,027,031,032,,,0.9,0.6,0.8*3D
$GAGSA,A,3,107,108,113,133,,,,,,,,,0.9,0.6,0.8*29
$GPRMC,054338.80,A,4444.2310,N,03955.8424,E,049.21829,324.5,191121,,,A*59
$GPGGA,054339.00,4444.2332,N,03955.8402,E,1,22,0.6,00154.6,M,0017.2,M,,*64
$GLGSA,A,3,070,071,072,079,080,085,086,087,,,,,0.9,0.6,0.8*27
$GPGSA,A,3,001,003,008,010,017,021,022,027,031,032,,,0.9,0.6,0.8*3D
$GAGSA,A,3,107,108,113,133,,,,,,,,,0.9,0.6,0.8*29
$GPGSV,6,1,23,001,55,306,48,003,26,277,50,004,01,219,,008,22,212,48*7D
$GPGSV,6,2,23,010,17,081,25,017,11,326,48,021,77,266,43,022,49,288,51*75
$GPGSV,6,3,23,027,05,188,43,031,25,131,45,032,50,056,34,070,50,035,33*78
$GPGSV,6,4,23,071,64,277,51,072,18,245,49,079,12,034,28,080,10,089,26*76
$GPGSV,6,5,23,085,43,177,53,086,70,280,37,087,13,331,45,107,82,195,41*78
$GPGSV,6,6,23,108,40,052,25,113,39,151,45,133,29,314,46*76
$GPRMC,054339.00,A,4444.2332,N,03955.8402,E,049.15452,324.5,191121,,,A*53
$GPZDA,054339.00,19,11,2021,+00,00*4C
$GPGGA,054339.20,4444.2355,N,03955.8380,E,1,22,0.6,00154.6,M,0017.2,M,,*6A
$GLGSA,A,3,070,071,072,079,080,085,086,087,,,,,0.9,0.6,0.8*27
$GPGSA,A,3,001,003,008,010,017,021,022,027,031,032,,,0.9,0.6,0.8*3D
$GAGSA,A,3,107,108,113,133,,,,,,,,,0.9,0.6,0.8*29
$GPRMC,054339.20,A,4444.2355,N,03955.8380,E,048.98267,324.6,191121,,,A*5A
$GPGGA,054339.40,4444.2377,N,03955.8358,E,1,21,0.6,00154.5,M,0017.2,M,,*69
$GLGSA,A,3,070,071,072,080,085,086,087,,,,,,1.0,0.6,0.8*11
$GPGSA,A,3,001,003,008,010,017,021,022,027,031,032,,,1.0,0.6,0.8*35
$GAGSA,A,3,107,108,113,133,,,,,,,,,1.0,0.6,0.8*21
$GPRMC,054339.40,A,4444.2377,N,03955.8358,E,048.88316,324.4,191121,,,A*5D
$GPGGA,054339.60,4444.2399,N,03955.8336,E,1,22,0.6,00154.5,M,0017.2,M,,*60
$GLGSA,A,3,070,071,072,079,080,085,086,087,,,,,0.9,0.6,0.8*27
$GPGSA,A,3,001,003,008,010,017,021,022,027,031,032,,,0.9,0.6,0.8*3D
$GAGSA,A,3,107,108,113,133,,,,,,,,,0.9,0.6,0.8*29
$GPRMC,054339.60,A,4444.2399,N,03955.8336,E,048.67237,324.5,191121,,,A*55
$GPGGA,054339.80,4444.2421,N,03955.8314,E,1,22,0.6,00154.5,M,0017.2,M,,*6A
$GLGSA,A,3,070,071,072,079,080,085,086,087,,,,,0.9,0.6,0.8*27
$GPGSA,A,3,001,003,008,010,017,021,022,027,031,032,,,0.9,0.6,0.8*3D
$GAGSA,A,3,107,108,113,133,,,,,,,,,0.9,0.6,0.8*29
$GPRMC,054339.80,A,4444.2421,N,03955.8314,E,048.53234,324.5,191121,,,A*5B
$GPGGA,054340.00,4444.2442,N,03955.8292,E,1,22,0.6,00154.5,M,0017.2,M,,*66
$GLGSA,A,3,070,071,072,079,080,085,086,087,,,,,0.9,0.6,0.8*27
$GPGSA,A,3,001,003,008,010,017,021,022,027,031,032,,,0.9,0.6,0.8*3D
$GAGSA,A,3,107,108,113,133,,,,,,,,,0.9,0.6,0.8*29
$GPGSV,6,1,23,001,55,306,48,003,26,277,49,004,01,219,,008,22,212,48*75
$GPGSV,6,2,23,010,17,081,24,017,11,326,48,021,77,265,44,022,49,288,51*70
$GPGSV,6,3,23,027,05,188,42,031,25,131,45,032,50,056,35,070,50,035,34*7F
$GPGSV,6,4,23,071,64,277,51,072,18,245,49,079,12,034,27,080,10,089,26*79
$GPGSV,6,5,23,085,43,177,53,086,70,280,38,087,13,331,45,107,82,195,41*77
$GPGSV,6,6,23,108,40,052,26,113,39,151,46,133,29,314,46*76
$GPRMC,054340.00,A,4444.2442,N,03955.8292,E,048.39310,324.4,191121,,,A*5D
$GPZDA,054340.00,19,11,2021,+00,00*42
$GPGGA,054340.20,4444.2464,N,03955.8270,E,1,22,0.6,00154.4,M,0017.2,M,,*6D
$GLGSA,A,3,070,071,072,079,080,085,086,087,,,,,0.9,0.6,0.8*27
$GPGSA,A,3,001,003,008,010,017,021,022,027,031,032,,,0.9,0.6,0.8*3D
$GAGSA,A,3,107,108,113,133,,,,,,,,,0.9,0.6,0.8*29
$GPRMC,054340.20,A,4444.2464,N,03955.8270,E,048.21276,324.7,191121,,,A*5C
$GPGGA,054340.40,4444.2486,N,03955.8248,E,1,22,0.6,00154.4,M,0017.2,M,,*6C
$GLGSA,A,3,070,071,072,079,080,085,086,087,,,,,0.9,0.6,0.8*27
$GPGSA,A,3,001,003,008,010,017,021,022,027,031,032,,,0.9,0.6,0.8*3D
$GAGSA,A,3,107,108,113,133,,,,,,,,,0.9,0.6,0.8*29
$GPRMC,054340.40,A,4444.2486,N,03955.8248,E,048.14986,324.5,191121,,,A*5D
$GPGGA,054340.60,4444.2508,N,03955.8226,E,1,21,0.6,00154.4,M,0017.2,M,,*62
$GLGSA,A,3,070,071,072,079,080,085,086,087,,,,,1.0,0.6,0.8*2F
$GPGSA,A,3,001,003,008,017,021,022,027,031,032,,,,1.0,0.6,0.8*04
$GAGSA,A,3,107,108,113,133,,,,,,,,,1.0,0.6,0.8*21
$GPRMC,054340.60,A,4444.2508,N,03955.8226,E,048.00281,324.6,191121,,,A*5A
$GPGGA,054340.80,4444.2529,N,03955.8205,E,1,22,0.6,00154.3,M,0017.2,M,,*6A
$GLGSA,A,3,070,071,072,079,080,085,086,087,,,,,0.9,0.6,0.8*27
$GPGSA,A,3,001,003,008,010,017,021,022,027,031,032,,,0.9,0.6,0.8*3D
$GAGSA,A,3,107,108,113,133,,,,,,,,,0.9,0.6,0.8*29
$GPRMC,054340.80,A,4444.2529,N,03955.8205,E,047.76767,324.5,191121,,,A*56
$GPGGA,054341.00,4444.2551,N,03955.8183,E,1,22,0.6,00154.3,M,0017.2,M,,*61
$GLGSA,A,3,070,071,072,079,080,085,086,087,,,,,0.9,0.6,0.8*27
$GPGSA,A,3,001,003,008,010,017,021,022,027,031,032,,,0.9,0.6,0.8*3D
$GAGSA,A,3,107,108,113,133,,,,,,,,,0.9,0.6,0.8*29
$GPGSV,6,1,23,001,55,306,49,003,26,277,49,004,01,219,,008,22,212,48*74
$GPGSV,6,2,23,010,17,081,27,017,11,326,48,021,77,265,44,022,49,288,50*72
$GPGSV,6,3,23,027,05,188,41,031,25,131,44,032,50,056,36,070,50,035,34*7E
$GPGSV,6,4,23,071,64,277,51,072,18,245,49,079,12,034,28,080,10,089,26*76
$GPGSV,6,5,23,085,43,177,53,086,70,280,38,087,13,331,46,107,82,195,41*74
$GPGSV,6,6,23,108,40,052,26,113,39,151,46,133,29,314,46*76
$GPRMC,054341.00,A,4444.2551,N,03955.8183,E,047.73261,324.3,191121,,,A*5D
$GPZDA,054341.00,19,11,2021,+00,00*43
$GPGGA,054341.20,4444.2573,N,03955.8162,E,1,21,0.6,00154.3,M,0017.2,M,,*6F
$GLGSA,A,3,070,071,072,079,080,085,086,087,,,,,0.9,0.6,0.8*27
$GPGSA,A,3,001,003,008,010,017,021,022,027,031,032,,,0.9,0.6,0.8*3D
$GAGSA,A,3,107,113,133,,,,,,,,,,0.9,0.6,0.8*10
$GPRMC,054341.20,A,4444.2573,N,03955.8162,E,047.49280,324.5,191121,,,A*50
$GPGGA,054341.40,4444.2594,N,03955.8140,E,1,21,0.6,00154.3,M,0017.2,M,,*60
$GLGSA,A,3,070,071,072,079,085,086,087,,,,,,1.0,0.6,0.8*17
$GPGSA,A,3,001,003,008,010,017,021,022,027,031,032,,,1.0,0.6,0.8*35
$GAGSA,A,3,107,108,113,133,,,,,,,,,1.0,0.6,0.8*21
$GPRMC,054341.40,A,4444.2594,N,03955.8140,E,047.35936,324.5,191121,,,A*52
$GPGGA,054341.60,4444.2615,N,03955.8118,E,1,22,0.6,00154.2,M,0017.2,M,,*67
$GLGSA,A,3,070,071,072,079,080,085,086,087,,,,,0.9,0.6,0.8*27
$GPGSA,A,3,001,003,008,010,017,021,022,027,031,032,,,0.9,0.6,0.8*3D
$GAGSA,A,3,107,108,113,133,,,,,,,,,0.9,0.6,0.8*29
$GPRMC,054341.60,A,4444.2615,N,03955.8118,E,047.21640,324.5,191121,,,A*5C
$GPGGA,054341.80,4444.2637,N,03955.8097,E,1,22,0.6,00154.2,M,0017.2,M,,*6F
$GLGSA,A,3,070,071,072,079,080,085,086,087,,,,,0.9,0.6,0.8*27
$GPGSA,A,3,001,003,008,010,017,021,022,027,031,032,,,0.9,0.6,0.8*3D
$GAGSA,A,3,107,108,113,133,,,,,,,,,0.9,0.6,0.8*29
$GPRMC,054341.80,A,4444.2637,N,03955.8097,E,047.07187,324.4,191121,,,A*5D
$GPGGA,054342.00,4444.2658,N,03955.8075,E,1,22,0.6,00154.2,M,0017.2,M,,*61
$GLGSA,A,3,070,071,072,079,080,085,086,087,,,,,0.9,0.6,0.8*27
$GPGSA,A,3,001,003,008,010,017,021,022,027,031,032,,,0.9,0.6,0.8*3D
$GAGSA,A,3,107,108,113,133,,,,,,,,,0.9,0.6,0.8*29
$GPGSV,6,1,23,001,55,306,48,003,26,277,49,004,01,219,,008,22,212,48*75
$GPGSV,6,2,23,010,17,081,28,017,11,326,49,021,77,265,43,022,49,288,50*7B
$GPGSV,6,3,23,027,05,188,41,031,25,131,45,032,50,056,33,070,50,035,34*7A
$GPGSV,6,4,23,071,64,277,51,072,18,245,49,079,12,034,26,080,10,089,26*78
$GPGSV,6,5,23,085,43,177,52,086,70,280,38,087,13,331,46,107,82,195,42*76
$GPGSV,6,6,23,108,40,052,25,113,39,151,45,133,29,314,47*77
$GPRMC,054342.00,A,4444.2658,N,03955.8075,E,046.92000,324.6,191121,,,A*52
$GPZDA,054342.00,19,11,2021,+00,00*40
$GPGGA,054342.20,4444.2679,N,03955.8054,E,1,22,0.6,00154.2,M,0017.2,M,,*63
$GLGSA,A,3,070,071,072,079,080,085,086,087,,,,,0.9,0.6,0.8*27
$GPGSA,A,3,001,003,008,010,017,021,022,027,031,032,,,0.9,0.6,0.8*3D
$GAGSA,A,3,107,108,113,133,,,,,,,,,0.9,0.6,0.8*29
$GPRMC,054342.20,A,4444.2679,N,03955.8054,E,046.80480,324.6,191121,,,A*5F
$GPGGA,054342.40,4444.2700,N,03955.8033,E,1,21,0.6,00154.1,M,0017.2,M,,*6B
$GLGSA,A,3,070,071,072,079,085,086,087,,,,,,1.0,0.6,0.8*17
$GPGSA,A,3,001,003,008,010,017,021,022,027,031,032,,,1.0,0.6,0.8*35
$GAGSA,A,3,107,108,113,133,,,,,,,,,1.0,0.6,0.8*21
$GPRMC,054342.40,A,4444.2700,N,03955.8033,E,046.45298,324.3,191121,,,A*54
$GPGGA,054342.60,4444.2721,N,03955.8011,E,1,21,0.6,00154.1,M,0017.2,M,,*6A
$GLGSA,A,3,070,071,072,079,085,086,087,,,,,,1.0,0.6,0.8*17
$GPGSA,A,3,001,003,008,010,017,021,022,027,031,032,,,1.0,0.6,0.8*35
$GAGSA,A,3,107,108,113,133,,,,,,,,,1.0,0.6,0.8*21
$GPRMC,054342.60,A,4444.2721,N,03955.8011,E,046.31630,324.3,191121,,,A*50
$GPGGA,054342.80,4444.2742,N,03955.7990,E,1,22,0.6,00154.1,M,0017.2,M,,*6D
$GLGSA,A,3,070,071,072,079,080,085,086,087,,,,,0.9,0.6,0.8*27
$GPGSA,A,3,001,003,008,010,017,021,022,027,031,032,,,0.9,0.6,0.8*3D
$GAGSA,A,3,107,108,113,133,,,,,,,,,0.9,0.6,0.8*29
$GPRMC,054342.80,A,4444.2742,N,03955.7990,E,046.33545,324.6,191121,,,A*52
$GPGGA,054343.00,4444.2763,N,03955.7969,E,1,22,0.6,00154.0,M,0017.2,M,,*60
$GLGSA,A,3,070,071,072,079,080,085,086,087,,,,,0.9,0.6,0.8*27
$GPGSA,A,3,001,003,008,010,017,021,022,027,031,032,,,0.9,0.6,0.8*3D
$GAGSA,A,3,107,108,113,133,,,,,,,,,0.9,0.6,0.8*29
$GPGSV,6,1,23,001,55,306,48,003,26,277,49,004,01,219,,008,22,212,48*75
$GPGSV,6,2,23,010,17,082,27,017,11,326,49,021,77,265,43,022,49,288,50*77
$GPGSV,6,3,23,027,05,188,38,031,25,131,45,032,50,056,33,070,50,035,33*73
$GPGSV,6,4,23,071,64,277,51,072,18,245,49,079,12,034,26,080,10,089,24*7A
$GPGSV,6,5,23,085,43,177,53,086,70,280,38,087,13,331,45,107,82,195,42*74
$GPGSV,6,6,23,108,40,052,25,113,38,151,45,133,29,314,47*76
$GPRMC,054343.00,A,4444.2763,N,03955.7969,E,046.14372,324.3,191121,,,A*5C
$GPZDA,054343.00,19,11,2021,+00,00*41
$GPGGA,054343.20,4444.2784,N,03955.7948,E,1,22,0.6,00154.0,M,0017.2,M,,*68
$GLGSA,A,3,070,071,072,079,080,085,086,087,,,,,0.9,0.6,0.8*27
$GPGSA,A,3,001,003,008,010,017,021,022,027,031,032,,,0.9,0.6,0.8*3D
$GAGSA,A,3,107,108,113,133,,,,,,,,,0.9,0.6,0.8*29
$GPRMC,054343.20,A,4444.2784,N,03955.7948,E,045.93385,324.5,191121,,,A*56
